id,version,address,bathroom,bedroom,city,finished_sq_ft,last_sold_date,last_sold_price,latitude,longitude,lot_size_sq_ft,state,tax_assesment,tax_assesment_year,total_room,use_code,year_built,zest_amt,zest_high,zest_low,zest_value_change,zipcode,zpid
1,0,1428 Reeve St,1,1,Santa Clara,11242,0,0,37.354152,-121.953297,11242,CA,881471,2012,0,Condominium,1958,1295159,1476481,1100885,-21217,95050,82959738
2,0,1378 Reeve St,1,1,Santa Clara,8700,0,0,37.354382,-121.952654,8700,CA,729311,2012,0,Condominium,1958,326835,552351,228785,-434,95050,82949770
3,0,1358 Reeve St,1,1,Santa Clara,8700,11/16/2012,2850000,37.354518,-121.952273,8700,CA,1142394,2012,0,MultiFamily2To4,1958,1366890,1612930,1189194,8971,95050,82962903
4,0,1678 Monroe St,0,0,Santa Clara,12780,10/28/2010,1280000,37.354701,-121.951997,12780,CA,1305600,2012,0,MultiFamily2To4,1972,1675676,1960541,1441081,4032,95050,82948700
5,0,1704 Monroe St,1,1,Santa Clara,0,0,0,37.355003,-121.952186,0,CA,0,0,0,MultiFamily2To4,1978,537556,634316,397791,0,95050,2109163108
6,0,775 Bellomy St,1,1,Santa Clara,8600,4/18/2011,2550000,37.346451,-121.938987,8600,CA,2601000,2012,0,Apartment,1958,0,0,0,0,95050,82955610
7,0,1388 Dahlia Loop,3.5,3,San Jose,2243,5/4/2007,832500,37.348926,-121.929532,2243,CA,612000,2012,7,SingleFamily,2006,778037,824719,739135,-553,95126,79841511
8,0,1370 Dahlia Loop,2.5,3,San Jose,1742,11/1/2011,545000,37.349015,-121.929292,1742,CA,545000,2012,6,SingleFamily,2006,696719,731555,654916,9819,95126,79843484
9,0,4450 Bassett St,0,0,Santa Clara,12500,0,0,37.396795,-121.960998,12500,CA,961468,2012,0,MultiFamily2To4,1954,2150236,2494274,1849203,7627,95054,82958113
10,0,4440 Bassett St,0,0,Santa Clara,12500,0,0,37.396652,-121.960911,12500,CA,977994,2012,0,MultiFamily2To4,1954,1744529,2110880,1360733,-8727,95054,82959949
11,0,1866 Garzoni Pl,2.5,3,Santa Clara,2614,2/23/2006,655000,37.397892,-121.958057,2614,CA,620000,2012,7,Townhouse,2005,847045,889397,787752,7284,95054,69300941
12,0,1650 Hope Dr,1,1,Santa Clara,0,0,0,37.39902,-121.95759,0,CA,0,0,0,Apartment,0,0,0,0,0,95054,2125635457
13,0,3133 Cabrillo Ave,2,3,Santa Clara,5252,2/3/2011,482000,37.359141,-121.982538,5252,CA,491525,2012,5,SingleFamily,1955,666066,719351,612781,3818,95051,19555135
14,0,1726 Ravizza Ave,1,2,Santa Clara,7500,0,0,37.353655,-121.972961,7500,CA,151901,2012,0,Townhouse,1954,557990,624949,507771,-4863,95051,19551774
15,0,2448 Rockridge Way,1.5,3,Santa Clara,1728,8/5/2004,467500,37.365816,-121.970623,1728,CA,412000,2011,5,Condominium,1972,604554,634782,568281,2970,95051,19553423
16,0,991 Boranda Ave,0,0,Mountain View,23217,0,0,37.383019,-122.081783,23217,CA,751380,2012,0,MultiFamily2To4,1960,2645785,3042653,2275375,131633,94040,82957559
17,0,1005 Boranda Ave,0,0,Mountain View,23072,0,0,37.382742,-122.08184,23072,CA,1308022,2012,0,MultiFamily2To4,1978,2368844,2605728,2155648,-9662,94040,82960286
18,0,1021 Bonita Ave APT 1,1,2,Mountain View,0,0,0,37.381553,-122.08036,0,CA,0,0,0,Apartment,0,0,0,0,0,94040,2117635728
19,0,756 Calderon Ave,1,2,Mountain View,7500,7/6/2011,620000,37.384507,-122.076653,7500,CA,620000,2012,5,SingleFamily,1948,924921,1082158,823180,-7232,94041,19515025
20,0,753 Ehrhorn Ave,0,0,Mountain View,14000,6/19/2008,1975000,37.383648,-122.077861,14000,CA,2065352,2012,0,MultiFamily2To4,1974,2237869,2595928,1969325,-7602,94041,82948610
21,0,23 Mercy St,0,0,Mountain View,95396,8/30/2013,5000000,37.386076,-122.069443,95396,CA,557761,2012,0,MultiFamily2To4,1960,5487289,8560171,4005721,-229080,94041,82957626
22,0,210 Calderon Ave,1.5,1,Mountain View,88427,12/9/1994,3975000,37.390697,-122.073007,88427,CA,5299726,2012,0,Apartment,1964,0,0,0,0,94041,82948599
23,0,2001 Colony St,0,0,Mountain View,18403,0,0,37.415485,-122.091214,18403,CA,200139,2012,0,MultiFamily2To4,1961,2651062,3048721,2332935,-6528,94043,82962785
24,0,898 N Rengstorff Ave,0,0,Mountain View,19312,0,0,37.417457,-122.093683,19312,CA,338685,2012,0,MultiFamily2To4,1963,2832033,3256838,2435548,29770,94043,82961079
25,0,658 Sierra Vista Ave,1,1,Mountain View,29700,9/30/2011,1990000,37.411295,-122.089291,29700,CA,1990000,2012,0,Apartment,1964,0,0,0,0,94043,82952332
26,0,911 Chestnut St,1,1,San Jose,0,0,0,37.345632,-121.916685,0,CA,0,0,0,Condominium,0,298074,357689,226536,1172,95110,2115753402
27,0,935 Alegre Pl,4,3,San Jose,871,1/10/2014,672000,37.347172,-121.926075,871,CA,445000,2012,7,Townhouse,2006,650225,708745,578700,14306,95126,82959217
28,0,232 N 8th St,0,0,San Jose,9660,6/22/2006,1220000,37.34326,-121.885352,9660,CA,1327353,2012,0,MultiFamily2To4,1954,1577732,1924833,1372627,-10168,95112,82956861
29,0,179 N 9th St,0,0,San Jose,4658,2/28/1994,170000,37.342628,-121.884324,4658,CA,230025,2012,0,Duplex,1898,504375,549769,458981,-2637,95112,19710465
30,0,56 S 22nd St,0,0,San Jose,7800,6/29/2004,727000,37.345071,-121.868216,7800,CA,469200,2012,0,Duplex,1923,787776,874431,685365,2709,95116,19710995
31,0,952 S 11th St UNIT 331,2,2,San Jose,1306,1/25/2013,360000,37.327587,-121.869777,1306,CA,249000,2012,6,Condominium,1996,399421,439363,359479,-2083,95112,19714008
32,0,88 E San Fernando St,2,2,San Jose,43560,0,0,37.334574,-121.888225,43560,CA,0,0,0,MultiFamily2To4,2008,638988,754006,523970,-3796,95113,2142963480
33,0,81 Castlebridge Dr,1,1,San Jose,1742,9/13/2013,195000,37.3562,-121.851225,1742,CA,72000,2012,3,MultiFamily2To4,1983,339630,366800,298874,9334,95116,19721273
34,0,62 Castlecrest Dr,2,2,San Jose,1742,2/1/2011,160000,37.35664,-121.85092,1742,CA,142000,2012,4,MultiFamily2To4,1983,222107,244318,186570,-6015,95116,19721253
35,0,1972 Prince George Dr,2,2,San Jose,1875,6/28/2011,145000,37.356354,-121.851755,1875,CA,142000,2012,5,Condominium,1983,267315,286027,248603,4767,95116,19721291
36,0,1960 Prince George Dr,1,1,San Jose,1742,10/19/2012,155000,37.35624,-121.85194,1742,CA,72000,2012,3,Townhouse,1983,331403,357915,298263,16614,95116,19721297
37,0,4951 Cherry Ave,1,1,San Jose,537095,3/1/2004,445500,37.256846,-121.88124,537095,CA,10830012,2012,0,Apartment,1977,0,0,0,0,95118,82958168
38,0,6100 Monterey Hwy,1,1,San Jose,438649,7/1/2008,56000000,37.239091,-121.77131,438649,CA,50835836,2012,0,Apartment,1999,0,0,0,0,95138,82959875
39,0,317 Bromley Cross Dr,2,3,San Jose,6000,9/30/2013,563000,37.222183,-121.785214,6000,CA,351000,2012,5,SingleFamily,1970,564461,598329,536238,2072,95119,19839389
40,0,2175 Aborn Rd,1,1,San Jose,275299,0,0,37.312959,-121.805875,275299,CA,29887700,2012,0,Apartment,1984,0,0,0,0,95121,82948264
41,0,3333 Shadow Park Pl,2,3,San Jose,435,9/30/2010,175000,37.30487,-121.81648,435,CA,178245,2012,6,MultiFamily2To4,1988,384392,426675,345953,7578,95121,19802838
42,0,1295 Mclaughlin Ave,0,0,San Jose,67954,0,0,37.329923,-121.85271,67954,CA,12403418,2012,0,MultiFamily2To4,2003,740174,836397,606943,-4499,95122,82948386
43,0,1068 Summerplace Dr,1.5,1,San Jose,435,6/17/2004,300000,37.32,-121.842739,435,CA,169000,2012,4,Condominium,1992,319109,335064,303154,-5808,95122,19717409
44,0,1092 Indian Summer Ct # 14,2,2,San Jose,435,11/14/2011,185000,37.319293,-121.841809,435,CA,185000,2012,4,Condominium,1985,315561,337650,290316,2806,95122,19717245
45,0,2095 Lincoln Ave,1,2,San Jose,18445,8/9/2004,3600000,37.29232,-121.890302,18445,CA,3975147,2012,0,Apartment,1960,0,0,0,0,95125,82957011
46,0,1069 Hazelwood Ave,1,3,San Jose,5824,2/27/2004,615000,37.295759,-121.890543,5824,CA,701804,2012,6,SingleFamily,1945,840572,916223,773326,5518,95125,19685793
47,0,2388 Westgate Ave,3.5,5,San Jose,7249,3/22/2010,1670000,37.285212,-121.89298,7249,CA,1393000,2012,15,SingleFamily,2008,1341312,1475443,1166941,110116,95125,19687164
48,0,1259 Park Ave,1,1,San Jose,26690,0,0,37.327398,-121.916681,26690,CA,2144408,2012,0,Condominium,1963,336280,447252,218582,-7229,95126,82960206
49,0,1300 The Alameda,1,1,San Jose,283709,0,0,37.333674,-121.911249,283709,CA,47999860,2012,0,Apartment,1999,0,0,0,0,95126,82961029
50,0,1017 Keeble Ct,2.5,2,San Jose,871,2/4/2003,484500,37.330785,-121.910406,871,CA,528000,2012,6,Townhouse,2002,552217,601917,502517,4695,95126,59683028
51,0,470 Central Ave,1,1,Alameda,13370,0,0,37.77121,-122.282812,13370,CA,3662341,2013,103,MultiFamily2To4,1959,3649376,4050807,2883007,8523,94501,82846625
52,0,544 Central Ave,1.5,1,Alameda,71617,0,0,37.770759,-122.280698,71617,CA,7100511,2013,0,Condominium,1966,7075376,8065929,5377286,16529,94501,82845807
53,0,550 Central Ave,2,2,Alameda,70000,0,0,37.770746,-122.280193,70000,CA,5912045,2013,0,MultiFamily2To4,1966,5912044,6562369,4729635,0,94501,82850691
54,0,564 Central Ave,1,1,Alameda,62655,3/4/2009,9650000,37.770715,-122.279725,62655,CA,10057404,2013,0,MultiFamily2To4,1977,2641692,3275698,1902018,-1362267,94501,87796772
55,0,434 Central Ave,1,1,Alameda,46800,9/26/2007,7365000,37.770814,-122.28449,46800,CA,7420000,2013,178,MultiFamily2To4,1964,7371253,11056880,5012452,32060,94501,82845424
56,0,2485 Shoreline Dr,1,1,Alameda,49000,8/22/1990,1000000,37.753796,-122.247528,49000,CA,3095950,2013,0,Apartment,1967,0,0,0,0,94501,82841773
57,0,2465 Shoreline Dr,1,1,Alameda,81500,4/30/1999,10000000,37.754263,-122.247993,81500,CA,12663204,2013,0,Apartment,1968,0,0,0,0,94501,82851288
58,0,14927 E Hills Dr,4,5,San Jose,10890,7/14/2011,464000,37.374343,-121.811137,10890,CA,463900,2012,10,SingleFamily,1960,1049151,1196032,860304,14324,95127,19784404
59,0,2720 Reno Dr,2.5,4,San Jose,6098,12/17/1999,470000,37.337078,-121.789094,6098,CA,489454,2012,8,SingleFamily,1984,631660,669560,593760,3982,95148,19789560
60,0,14440 Buckner Dr,1,3,San Jose,218496960,1/28/2009,240000,37.362584,-121.815294,218496960,CA,248876,2012,5,SingleFamily,1954,352909,388200,314089,-223,95127,19783091
61,0,3854 Madeline Dr APT 2,1,2,San Jose,0,0,0,37.376691,-121.825388,0,CA,0,0,0,Condominium,0,259833,319595,218260,3030,95127,2111210362
62,0,698 Teatree Ct,1,1,San Jose,1306,8/23/2012,202000,37.315127,-121.939655,1306,CA,180000,2012,4,MultiFamily2To4,1988,489208,543021,435395,2789,95128,79843973
63,0,544 Dudley Ave,1,1,San Jose,14450,7/13/2012,3000000,37.317323,-121.946567,14450,CA,2189547,2012,0,Condominium,1956,3687532,5088794,2101893,16741,95128,82963392
64,0,388 Santana Row,1,0,San Jose,0,0,0,37.319718,-121.947703,0,CA,0,0,0,MultiFamily2To4,0,619539,693884,545194,27505,95128,2110790371
65,0,5104 Rhonda Dr,2,3,San Jose,5985,3/6/1984,152000,37.298929,-121.991028,5985,CA,420941,2012,6,SingleFamily,1959,965187,1032750,907276,3905,95129,19648426
66,0,5275 Forest Creek Ct,2,3,San Jose,9600,6/29/1989,367000,37.302725,-121.99496,9600,CA,548298,2012,7,SingleFamily,1961,1057073,1152210,961936,11050,95129,19649464
67,0,1395 Saratoga Ave,0,0,San Jose,111514,0,0,37.299051,-121.984926,111514,CA,14134076,2013,0,MultiFamily2To4,1969,1272024,1411947,1119381,-15040,95129,82962525
68,0,4879 Pinemont Dr,2.5,4,Campbell,6800,12/16/1985,229000,37.269364,-121.986707,6800,CA,362656,2012,9,SingleFamily,1975,962568,1087702,895188,7709,95008,19662111
69,0,4890 Hamilton Ave,0,0,San Jose,23325,0,0,37.289872,-121.987201,23325,CA,1417940,2012,0,MultiFamily2To4,1961,2937275,3289748,2467311,-10176,95130,82951570
70,0,4734 Hamilton Ave,0,0,San Jose,12000,12/9/2011,1690000,37.291622,-121.985047,12000,CA,1690000,2012,0,MultiFamily2To4,1962,2193605,2500710,1842628,-7745,95130,82961734
71,0,2700 Somerset Park Cir,1,1,San Jose,1742,5/2/2006,303000,37.395548,-121.861718,1742,CA,150000,2012,4,Condominium,1988,284999,307799,265049,3353,95132,69303852
72,0,1252 Sierra Village Pl,2.5,3,San Jose,1584,10/20/2000,406000,37.393974,-121.858257,1584,CA,408000,2012,7,Townhouse,1984,626683,676818,589082,11477,95132,19774755
73,0,750 N King Rd,1,1,San Jose,374180,10/31/2013,38000000,37.368513,-121.869683,374180,CA,31946076,2012,0,MultiFamily2To4,1987,418678,460546,376810,-11904,95133,82949430
74,0,1686 Salamoni Ct,2.5,3,San Jose,1949,9/16/2005,626000,37.36917,-121.872068,1949,CA,501000,2012,8,SingleFamily,2005,585526,620658,550394,-1199,95133,69299487
75,0,1133 Waterton Ln,1,1,San Jose,1742,3/29/1999,165000,37.376163,-121.872325,1742,CA,205930,2012,5,Condominium,1979,309553,362177,241451,3078,95131,19566596
76,0,648 Cedarville Ln,2.5,3,San Jose,1409,10/2/2012,460000,37.376426,-121.851518,1409,CA,129466,2012,7,Townhouse,2008,604664,640944,574431,10927,95133,89473121
77,0,598 Cedarville Ln,3.5,3,San Jose,1809,10/27/2011,12500000,37.376877,-121.852245,1809,CA,340000,2012,8,Townhouse,2008,668866,722375,615357,7958,95133,89473302
78,0,3980 Ellmar Oaks Dr,1,1,San Jose,0,0,0,37.273923,-121.845199,0,CA,0,0,0,Apartment,1986,0,0,0,0,95136,2116677877
79,0,383 Vista Roma Way,0,0,San Jose,0,0,0,37.275892,-121.849219,0,CA,0,0,0,Unknown,0,0,0,0,0,95136,2123824771
80,0,181 Rawls Ct,1,1,San Jose,122404,0,0,37.222808,-121.769256,122404,CA,0,0,0,Condominium,1993,275735,397058,220588,-743,95139,82957536
81,0,7150 Calero Hills Ct,2,3,San Jose,2059,1/31/1994,175000,37.225098,-121.773962,2059,CA,236793,2012,6,Condominium,1976,460198,492412,418780,2592,95139,19842042
82,0,192 Sunwood Meadows Pl,2,2,San Jose,1200,0,0,37.227845,-121.772965,1200,CA,154912,2012,6,Condominium,1985,347162,371463,322861,-334,95119,19841612
83,0,155 Hollis Ave,1,1,Campbell,12500,5/27/2005,1513500,37.277302,-121.952664,12500,CA,1500000,2012,0,MultiFamily2To4,1968,817506,899257,752106,28899,95008,82949426
84,0,200 Hollis Ave,1,2,Campbell,85378,0,0,37.276733,-121.953233,85378,CA,8702018,2012,0,Apartment,1970,0,0,0,0,95008,82953335
85,0,240 Hollis Ave,0,0,Campbell,51836,2/12/2009,2350000,37.276757,-121.954546,51836,CA,5067336,2012,0,MultiFamily2To4,1969,5434165,7879539,4075624,-241314,95008,82952148
86,0,710 Nido Dr,1,1,Campbell,169448,6/28/2013,27600000,37.277104,-121.951504,169448,CA,3003075,2012,0,MultiFamily2To4,1972,3003074,4594703,2072121,-1,95008,82948761
87,0,401 Rogell Ct,5,7,San Mateo,6080,12/14/1999,594000,37.579628,-122.322284,6080,CA,741382,2013,16,MultiFamily2To4,1960,1362839,1540008,1158413,4490,94401,82960131
88,0,420 N Bayshore Blvd,1,0,San Mateo,27090,0,0,37.580272,-122.323116,27090,CA,2218681,2013,100,MultiFamily2To4,1964,731888,966092,468408,-16209,94401,82950902
89,0,1000 E Poplar Ave,7,120,San Mateo,93654,0,0,37.578825,-122.32544,93654,CA,12000000,2013,270,MultiFamily2To4,1963,1712665,2312098,1164612,49528,94401,82948780
90,0,2015 Parrott Dr APT 11,1,13,San Mateo,17424,7/7/2010,2575000,37.52176,-122.336067,17424,CA,2679030,2013,35,MultiFamily2To4,1977,3208443,3625541,2791345,13101,94402,82962143
91,0,2007 Parrott Dr,5.5,6,San Mateo,8360,6/15/2004,1350000,37.521981,-122.33668,8360,CA,1558693,2013,13,Triplex,1976,2098890,2350757,1805045,60170,94402,15542163
92,0,2011 Parrott Dr,5,8,San Mateo,8360,7/27/2012,1220000,37.521872,-122.336327,8360,CA,1220000,2013,17,Quadruplex,1977,2164696,2467753,1883286,68405,94402,15542165
93,0,1700 De Anza Blvd,2,2,San Mateo,153456,2/9/2007,787112,37.523111,-122.330572,153456,CA,502000,2013,4,Condominium,1991,550632,594683,506581,2446,94403,79844344
94,0,3421 Edison St,1,1,San Mateo,0,0,0,37.53468,-122.29968,0,CA,0,0,0,Apartment,0,0,0,0,0,94403,2125635817
95,0,2831 Flores St,1,1,San Mateo,38456,0,0,37.540051,-122.304405,38456,CA,1268906,2013,133,Apartment,1960,0,0,0,0,94403,82947923
96,0,62 E Court Ln,2.5,3,Foster City,920,8/30/1988,230000,37.559195,-122.273083,920,CA,359625,2013,7,SingleFamily,1988,733931,770628,675217,-506,94404,15616720
97,0,3555 Lincoln Ave,1,1,Oakland,36800,11/15/2001,2650000,37.801012,-122.213772,36800,CA,3157451,2013,112,MultiFamily2To4,1960,3771972,4564086,2904418,17047,94602,82834683
98,0,2000 Damuth St APT 5,2,2,Oakland,0,5/20/2013,825000,37.80285,-122.214977,0,CA,0,0,0,Apartment,0,0,0,0,0,94602,2121714469
99,0,3701 Fruitvale Ave,7,8,Oakland,7000,8/22/2003,730000,37.802877,-122.215509,7000,CA,630000,2013,22,MultiFamily2To4,1959,1096381,1282766,909996,1097,94602,82847508
100,0,3720 Fruitvale Ave,1,2,Oakland,9375,12/16/2005,2600000,37.803028,-122.214727,9375,CA,2160000,2013,84,Apartment,1961,0,0,0,0,94602,82846042
101,0,1441 45th Ave,1,1,Oakland,0,0,0,37.771781,-122.212715,0,CA,0,0,0,MultiFamily2To4,1954,192091,240114,136385,11377,94601,2115430169
102,0,4016 E 16th St,1,3,Oakland,3484,7/12/2012,165000,37.775032,-122.216251,3484,CA,165000,2013,6,MultiFamily2To4,1910,250855,285975,215735,-543,94601,24780170
103,0,4237 Foothill Blvd,12,12,Oakland,13590,3/27/2012,665500,37.774768,-122.21265,13590,CA,672486,2013,0,MultiFamily2To4,1948,1361746,1688565,1007692,6708,94601,82850458
104,0,437 Hale Ave,4,8,Oakland,5000,2/28/2011,240000,37.733034,-122.181064,5000,CA,249695,2013,14,Quadruplex,1965,530802,610422,424642,15844,94603,24803413
105,0,555 98th Ave,2,2,Oakland,69623,1/30/2008,2000000,37.735922,-122.184209,69623,CA,5818487,2013,302,Apartment,2009,0,0,0,0,94603,94687871
106,0,716 Nevada St,1,2,Oakland,5090,3/16/2012,238000,37.737666,-122.18284,5090,CA,242352,2013,16,Townhouse,1964,382661,424754,332915,8765,94603,24801089
107,0,10410 Foothill Blvd,1,1,Oakland,33750,10/26/2004,2700000,37.745303,-122.15074,33750,CA,2630000,2013,121,Townhouse,1920,2681795,2976792,1421351,14852,94605,82839819
108,0,9410 Macarthur Blvd,1,1,Oakland,14488,2/22/1990,500000,37.752811,-122.159974,14488,CA,958182,2013,59,Townhouse,1993,684764,773783,582049,4737,94605,82837464
109,0,9825 Macarthur Blvd,1,1,Oakland,5000,7/6/2012,497500,37.749075,-122.158694,5000,CA,247800,2013,17,Condominium,1957,591991,680790,491353,3,94605,82840033
110,0,1125 E 18th St,44,52,Oakland,15000,0,0,37.793418,-122.245013,15000,CA,1921197,2013,88,MultiFamily2To4,1960,1914395,3043888,1167781,4470,94606,82831014
111,0,1730 11th Ave,1,2,Oakland,0,0,0,37.793518,-122.245712,0,CA,0,0,0,Townhouse,0,227802,280196,170851,-1757,94606,2110151878
112,0,1925 10th Ave,1,2,Oakland,10100,0,0,37.795837,-122.244948,10100,CA,1600000,2013,78,Apartment,1961,0,0,0,0,94606,82851013
113,0,926 E 17th St,1,2,Oakland,7500,0,0,37.794606,-122.247052,7500,CA,845265,2013,41,Townhouse,1930,755186,868464,596597,1749,94606,82778042
114,0,934 Wood St,3,4,Oakland,1988,1/25/2007,595000,37.810089,-122.3001,1988,CA,197675,2013,10,Duplex,1885,460869,511565,419391,6821,94607,24740492
115,0,1105 Wood St,3.5,6,Oakland,2563,11/4/2009,175000,37.811393,-122.299666,2563,CA,183440,2013,10,Duplex,1893,370173,407190,333156,15777,94607,24740590
116,0,1741 12th St,0,0,Oakland,0,0,0,37.811411,-122.298548,0,CA,0,0,0,MultiFamily2To4,0,352943,402355,310590,3024,94607,2144406842
117,0,3600 Lakeshore Ave,17,13,Oakland,12800,0,0,37.812699,-122.240559,12800,CA,870693,2013,0,MultiFamily2To4,1922,2790832,3962981,1786132,-3398,94610,82846464
118,0,3614 Balfour Ave,3,3,Oakland,8624,12/28/1995,311000,37.812165,-122.23975,8624,CA,419547,2013,7,SingleFamily,1915,1143884,1292589,1018057,4469,94610,24746585
119,0,840 Erie St,4,4,Oakland,5000,0,0,37.812677,-122.242317,5000,CA,103733,2013,16,Quadruplex,1925,1129452,1264986,948740,-7929,94610,24745462
120,0,841 Erie St,1,1,Oakland,5000,7/7/2000,575000,37.812966,-122.242735,5000,CA,703581,2013,0,Apartment,1924,0,0,0,0,94610,82843726
121,0,687 Macarthur Blvd,5,4,Oakland,4235,6/17/1996,147000,37.807917,-122.242929,4235,CA,198037,2013,14,MultiFamily2To4,1938,1129334,1264854,993814,23690,94610,82850089
122,0,2040 Arrowhead Dr,1,1,Oakland,7474,0,0,37.837061,-122.191509,7474,CA,336089,2013,7,MultiFamily2To4,1981,497065,551742,432447,12397,94611,24815691
123,0,461 24th St,16,0,Oakland,3955,12/31/2013,1250000,37.813424,-122.267082,3955,CA,1070267,2013,32,MultiFamily2To4,1961,1234944,1407836,1074401,4661,94612,82850266
124,0,5410 Broadway,30,30,Oakland,10000,0,0,37.839307,-122.24896,10000,CA,637542,2013,90,MultiFamily2To4,1962,1782599,2032163,1515209,-9648,94618,111398280
125,0,5390 Broadway,24,27,Oakland,10000,0,0,37.838914,-122.249206,10000,CA,461925,2013,0,MultiFamily2To4,1959,1781401,2084239,1496377,-7803,94618,82846177
126,0,4614 Rockingham Ct,5,7,OAKLAND,31442,9/10/2001,750000,37.785786,-122.164348,31442,CA,2500000,2013,15,SingleFamily,2005,3082652,3514223,2620254,15392,94619,24787260
127,0,8039 Greenridge Dr,4,8,Oakland,9090,11/2/1998,295000,37.773286,-122.15332,9090,CA,375551,2013,16,Quadruplex,1962,788381,922406,630705,5991,94605,24794895
128,0,8025 Greenridge Dr,6,8,Oakland,30000,0,0,37.773506,-122.154058,30000,CA,436022,2013,20,MultiFamily2To4,1967,1317520,1699601,1027666,-73801,94605,82833865
129,0,8061 Greenridge Dr,1,2,Oakland,9000,3/16/2007,775000,37.772993,-122.152575,9000,CA,580000,2013,16,Quadruplex,1961,362164,467192,271623,8381,94605,24794899
130,0,6101 Shelter Creek Ln,1,1,San Bruno,675,8/3/1990,17500,37.63035,-122.42866,675,CA,170235,2013,3,Condominium,1972,269587,288458,248020,1767,94066,15624226
131,0,4250 Shelter Creek Ln,1,99,San Bruno,1679615,3/1/2001,163000,37.63035,-122.42866,1679615,CA,150000,2013,0,Condominium,1972,227069,245235,213445,-2113,94066,15624002
132,0,2255 Shelter Creek Ln,1,1,San Bruno,1679615,12/12/1991,118000,37.63035,-122.42866,1679615,CA,168693,2013,3,Condominium,1972,266922,293614,218876,1012,94066,15623684
133,0,6401 Ashley St,3,3,Felton,9147,11/17/2006,665000,37.053742,-122.077047,9147,CA,379050,2012,9,SingleFamily,1976,629762,673845,585679,-2253,95018,16150067
134,0,6390 Highway 9 APT 1,6,7,Felton,21344,0,0,37.05421,-122.073341,21344,CA,0,0,0,SingleFamily,1952,716033,801957,622949,-14771,95018,2122279442
135,0,824 Western Dr,3.5,5,Santa Cruz,2744,4/10/1998,436000,36.971671,-122.058001,2744,CA,564378,2012,10,SingleFamily,1998,902727,1011054,803427,-9164,95060,16102617
136,0,1550 Lewis St APT C,1,2,Santa Clara,0,0,0,37.350997,-121.952903,0,CA,0,0,0,MultiFamily2To4,0,486865,642662,360280,0,95050,2108653949
137,0,1355 Jefferson St,0,0,Santa Clara,8360,0,0,37.351058,-121.95196,8360,CA,148401,2012,0,MultiFamily2To4,1957,1418547,1617144,1248321,25846,95050,82960463
138,0,150 Torrey Pine Ter,2,2,Santa Cruz,697,6/18/1998,157000,36.972524,-122.049728,697,CA,199588,2012,6,Condominium,1979,373678,392362,347521,-2830,95060,16102143
139,0,100 Acorn Ct,2,2,Scotts Valley,0,0,0,37.047504,-122.021171,0,CA,0,0,0,Apartment,0,0,0,0,0,95066,2116993683
140,0,144 La Cuesta Dr,2,3,Scotts Valley,8886,2/10/2000,350000,37.03759,-122.023636,8886,CA,395500,2012,6,SingleFamily,1961,572503,624028,532428,-3408,95066,16151157
141,0,37315 Sequoia Rd,2,2,Fremont,0,10/19/2007,367500,37.563284,-122.002348,0,CA,170000,2013,4,MultiFamily2To4,1985,409055,499047,343606,15625,94536,79533592
142,0,37359 Sequoia Rd,1,2,Fremont,0,4/6/2006,380000,37.563184,-122.002319,0,CA,165000,2013,4,Condominium,1986,276631,304294,251734,22027,94536,79541747
143,0,3346 Red Cedar Ter,1,0,Fremont,0,7/27/2006,239000,37.561981,-122.003387,0,CA,80000,2013,2,Condominium,1986,181263,219328,146823,3486,94536,79534007
144,0,42010 Blacow Rd,96,64,Fremont,131096,0,0,37.524375,-121.959491,131096,CA,9728851,2013,0,MultiFamily2To4,1968,9694416,10373025,8046365,22646,94538,82847349
145,0,187 Old Bernal Ave,0,0,Pleasanton,10459,0,0,37.658862,-121.878403,10459,CA,116670,2013,0,MultiFamily2To4,1951,1063156,1467155,818630,22819,94566,82848293
146,0,4388 2nd St,6,6,Pleasanton,11250,0,0,37.660015,-121.871522,11250,CA,134916,2013,0,MultiFamily2To4,1947,1254098,1354426,1103606,10897,94566,82844738
147,0,435 Bernal Ct,4,4,Pleasanton,8900,12/23/1999,252000,37.658842,-121.881349,8900,CA,314523,2013,12,Quadruplex,1946,941141,1025844,865850,-1350,94566,24931625
148,0,7318 Joshua Cir,3,3,Pleasanton,4500,0,0,37.673628,-121.912962,4500,CA,283517,2013,5,SingleFamily,1986,642127,693497,603599,-525,94588,25066536
149,0,828 Debra St,1.5,4,Livermore,6200,0,0,37.688259,-121.729173,6200,CA,122891,2013,7,SingleFamily,1972,530682,583750,482921,-4948,94550,24950520
150,0,4601 Gerrilyn Way,2,2,Livermore,0,0,0,37.68107,-121.73779,0,CA,0,0,0,Apartment,0,0,0,0,0,94550,2124159072
151,0,324 Commercial Ave,7,7,South San Francisco,7000,3/13/1998,730000,37.653698,-122.411544,7000,CA,946569,2013,21,MultiFamily2To4,1978,1459061,1721692,1269383,-24525,94080,82948955
152,0,323 California Ave,7,11,South San Francisco,7000,0,0,37.658014,-122.410216,7000,CA,229922,2013,25,MultiFamily2To4,1963,1469048,1704096,1204619,-7431,94080,82955841
153,0,619 Linden Ave # 1,7,14,South San Francisco,7500,5/21/1999,687500,37.658813,-122.409225,7500,CA,875244,2013,28,MultiFamily2To4,1963,1528917,1911146,1192555,7216,94080,82952157
154,0,2000 Bellas Artes Cir,1,1,San Ramon,0,0,0,37.7665,-121.9232,0,CA,0,0,0,Apartment,2008,0,0,0,0,94582,2122897494
155,0,514 Joree Ln,3,3,San Ramon,0,10/22/2004,625000,37.766395,-121.908326,0,CA,483500,2013,7,MultiFamily2To4,2004,686710,741647,638640,47815,94582,67698874
156,0,610 Joree Ln,2,2,San Ramon,0,3/10/2008,485000,37.766591,-121.908176,0,CA,358000,2013,6,MultiFamily2To4,2004,624321,680510,574375,8824,94582,67705922
157,0,1 Amberstone Ln,0,0,San Ramon,0,0,0,37.764823,-121.905731,0,CA,0,0,0,Unknown,0,0,0,0,0,94582,2123503071
158,0,245 Wilshire Ave,1.5,2,Daly City,3300,2/6/2014,718000,37.706975,-122.4811,3300,CA,248502,2013,6,SingleFamily,1949,676228,716802,628892,5467,94015,15456837
159,0,36 Finger Ave,4.5,5,Redwood City,11369,2/6/2014,1450000,37.492842,-122.244552,11369,CA,1482000,2013,9,SingleFamily,1986,1471503,1765804,1177202,79957,94062,15563022
160,0,205 Linden Ave,2,2,San Bruno,2613,2/6/2014,680000,37.617609,-122.409905,2613,CA,179633,2013,5,SingleFamily,1950,569083,603228,529247,-6630,94066,15499333
161,0,23 Mounds Rd,3,4,San Mateo,9500,2/6/2014,1865000,37.56747,-122.333682,9500,CA,2279366,2013,10,SingleFamily,1949,1904880,2114417,1752490,-13275,94402,15522391
162,0,1665 Wellesley Ave,3,4,San Mateo,5749,2/6/2014,685000,37.561234,-122.295228,5749,CA,700000,2013,10,SingleFamily,1955,718113,833011,660664,-935,94403,15531147
163,0,19 Tahoe Ct,2,4,South San Francisco,5510,2/6/2014,760000,37.642784,-122.441521,5510,CA,89761,2013,6,SingleFamily,1959,687341,735455,625480,8308,94080,15486618
164,0,2721 San Miguel Way,3,4,San Carlos,13800,6/23/1970,20500,37.488903,-122.269601,13800,CA,167854,2013,8,SingleFamily,1959,1495587,1600278,1390896,-7747,94070,15557579
165,0,100 Flying Cloud Isle,3,3,Foster City,16233,2/4/2014,1360000,37.565178,-122.265353,16233,CA,329127,2013,7,SingleFamily,1963,1842676,2119077,1603128,-2603,94404,15610446
166,0,921 Laguna Cir,3,4,Foster City,5665,2/4/2014,1460000,37.544539,-122.2739,5665,CA,1326510,2013,8,SingleFamily,1969,1432702,1518664,1332413,2381,94404,15614127
167,0,2111 Pullman Ave,2,4,Belmont,6098,2/4/2014,1200000,37.514915,-122.298033,6098,CA,768012,2013,6,SingleFamily,1956,987215,1115553,839133,6163,94002,15548971
168,0,62 Mono St,1,2,Brisbane,3400,2/4/2014,250000,37.681438,-122.405255,3400,CA,49265,2013,4,SingleFamily,1939,473131,544101,416355,-1932,94005,15469352
169,0,2804 Highgate Ave,2,3,Belmont,13620,2/3/2014,637500,37.522686,-122.309458,13620,CA,1093828,2013,7,SingleFamily,1964,1178912,1461851,860606,-54836,94002,15546164
170,0,1604 Graystone Ln,2.5,2,Daly City,1412719,2/3/2014,479000,37.70355,-122.444845,1412719,CA,299155,2013,4,Condominium,1985,489259,513722,464796,-2689,94014,15625253
171,0,25 Bengloe Ln,2.5,3,Hillsborough,22200,1/31/2014,2328500,37.543755,-122.357557,22200,CA,1957026,2013,7,SingleFamily,1959,2179599,2332171,2005231,17203,94010,15534578
172,0,865 Black Mountain Rd,5.5,7,Hillsborough,23522,1/31/2014,6500000,37.557262,-122.349951,23522,CA,3200000,2013,13,SingleFamily,1959,3825620,4322951,3443058,10024,94010,15520405
173,0,207 Valencia Dr,2,4,Millbrae,9583,1/31/2014,1300000,37.587301,-122.405045,9583,CA,150266,2013,8,SingleFamily,1964,1049321,1143760,944389,17981,94030,15511019
174,0,139 Gramercy Dr,2.75,3,Hillsborough,12384,1/31/2014,2800000,37.566012,-122.333895,12384,CA,1612122,2013,7,SingleFamily,1952,2707156,2923728,2436440,6846,94010,15522357
175,0,868 Linda Vista St,2,3,MOSS BEACH,5400,1/31/2014,726000,37.531333,-122.508887,5400,CA,306430,2013,6,SingleFamily,1973,729256,765719,692793,-3062,94038,15533623
176,0,1172 Terra Nova Blvd,2,2,Pacifica,930,1/31/2014,419000,37.586253,-122.476554,930,CA,305532,2013,5,SingleFamily,1970,437488,468112,411239,-429,94044,15508350
177,0,1356 Solano Dr,1,3,Pacifica,5662,1/31/2014,580000,37.58461,-122.489582,5662,CA,60156,2013,5,SingleFamily,1955,550996,584056,523446,1148,94044,15506482
178,0,1287 Alicante Dr,3,4,Pacifica,5227,1/31/2014,585000,37.583692,-122.484563,5227,CA,310798,2013,8,SingleFamily,1960,660072,699676,627068,17959,94044,15507021
179,0,329 Belmont Ave,1,2,Redwood City,5100,1/31/2014,780000,37.453982,-122.224794,5100,CA,570000,2013,4,SingleFamily,1949,780537,827369,741510,16965,94061,15592719
180,0,15 Winston Way,2,3,Redwood City,9147,1/31/2014,1310000,37.45184,-122.225312,9147,CA,276186,2013,6,SingleFamily,1959,1020562,1122618,928711,11413,94061,15592931
181,0,386 Coral Ridge Dr,2.5,4,Pacifica,4000,1/31/2014,720000,37.656935,-122.487466,4000,CA,337122,2013,7,SingleFamily,1966,727435,763807,691063,-7055,94044,15474854
182,0,236 Edgewood Dr,2,4,Pacifica,6577,1/31/2014,740000,37.662524,-122.482522,6577,CA,647812,2013,6,SingleFamily,1963,720164,756172,684156,1373,94044,15478293
183,0,903 Upton St,2,3,Redwood City,6300,1/31/2014,605000,37.467982,-122.243068,6300,CA,82993,2013,5,SingleFamily,1952,840610,916265,790173,-11724,94061,15575438
184,0,4256 Shelter Creek Ln,1,1,San Bruno,1679615,1/31/2014,300000,37.63035,-122.42866,1679615,CA,230000,2013,3,Condominium,1972,310948,348262,289182,3500,94066,15624008
185,0,111 Castleton Way,2,2,San Bruno,5610,1/31/2014,785000,37.628572,-122.457397,5610,CA,104368,2013,5,SingleFamily,1963,694653,729386,639081,2114,94066,15492649
186,0,243 Hillcrest Rd,1,2,San Carlos,10585,1/31/2014,1058000,37.50548,-122.26976,10585,CA,460308,2013,4,SingleFamily,1926,818411,957541,712018,-1746,94070,15556699
187,0,1021 S Idaho St,2.5,2,San Mateo,1830,1/31/2014,864000,37.564802,-122.309337,1830,CA,474855,2013,5,SingleFamily,2012,786144,825451,731114,13695,94402,119689932
188,0,654 Fathom Dr,2.5,3,San Mateo,2080,1/31/2014,1065000,37.564586,-122.285931,2080,CA,840000,2013,6,SingleFamily,1977,935319,1010145,841787,5209,94404,15532311
189,0,758 Commercial Ave,1,2,South San Francisco,6534,1/31/2014,640000,37.656931,-122.426208,6534,CA,61482,2013,6,SingleFamily,1945,564624,592855,536393,-3925,94080,15484933
190,0,3854 Shamrock Ct,3,3,South San Francisco,2800,1/31/2014,660000,37.648249,-122.468707,2800,CA,83189,2013,6,SingleFamily,1969,588562,623876,559134,-769,94080,15606007
191,0,112 Adrian Ave,2,3,South San Francisco,4500,1/31/2014,741000,37.662409,-122.459363,4500,CA,600000,2013,7,SingleFamily,1952,695888,751559,640217,837,94080,15478600
192,0,720 Cottonwood Ave,2,3,South San Francisco,5500,1/30/2014,632000,37.660847,-122.422642,5500,CA,87371,2013,6,SingleFamily,1956,598524,628450,550642,5283,94080,15485122
193,0,1802 Hamlet St,2,3,San Mateo,7176,6/4/2013,470000,37.55564,-122.295109,7176,CA,316084,2013,6,SingleFamily,1954,714553,757426,664534,-284,94403,15531876
194,0,1204 S Hummingbird Ln,2.5,2,San Mateo,0,0,0,37.5646,-122.3111,0,CA,541371,2013,5,Condominium,2012,642933,720085,591498,12518,94402,119689023
195,0,111 Swallowtail Ct,2,3,Brisbane,20539,1/30/2014,574500,37.692907,-122.417162,20539,CA,567768,2013,5,Condominium,2000,571819,606128,543228,7098,94005,55007665
196,0,120 Tulare St,3.5,4,Brisbane,5775,1/30/2014,937000,37.682606,-122.398084,5775,CA,530451,2013,11,SingleFamily,1980,1068036,1270963,950552,-23067,94005,15469531
197,0,133 San Juan Ave,1,2,San Bruno,6098,1/30/2014,588000,37.611415,-122.401212,6098,CA,396070,2013,6,SingleFamily,1935,516258,593697,423332,-58195,94066,15501010
198,0,416 Johnson Ave,1,3,Pacifica,5532,1/30/2014,645000,37.650266,-122.488671,5532,CA,480000,2013,6,SingleFamily,1948,547867,580739,493080,15281,94044,15475340
199,0,1004 Windjammer Cir,3,4,Foster City,5250,1/30/2014,1358000,37.552021,-122.262513,5250,CA,700986,2013,9,SingleFamily,1981,1210822,1283471,1101848,20947,94404,15613389
200,0,2578 Gonzaga St,1,3,East Palo Alto,4650,1/30/2014,327000,37.475493,-122.136028,4650,CA,270000,2013,5,SingleFamily,1952,383200,436848,341048,-4086,94303,15585192
201,0,2768 Gonzaga St,1,3,East Palo Alto,5000,1/30/2014,410000,37.47923,-122.135053,5000,CA,34334,2013,5,SingleFamily,1952,412634,441518,379623,100,94303,15584867
202,0,1382 Hollyburne Ave,1,3,Menlo Park,5760,11/1/2006,569000,37.479092,-122.15573,5760,CA,590583,2010,5,SingleFamily,1955,556203,606261,511707,11147,94025,15569685
203,0,1313 Jefferson Ave,2,3,Redwood City,4499,1/30/2014,605000,37.481409,-122.231608,4499,CA,119531,2013,6,SingleFamily,1927,616120,702377,536024,-38851,94062,15565171
204,0,28 Oak Creek Ln,3.5,4,San Carlos,11674,1/30/2014,2575000,37.484115,-122.268496,11674,CA,709607,2013,11,SingleFamily,1988,2783932,3257200,2422021,3374,94070,52393903
205,0,817 N Delaware St,4,4,San Mateo,6098,1/30/2014,940000,37.57905,-122.333512,6098,CA,802569,2013,10,MultiFamily2To4,1927,938104,985009,872437,-3643,94401,15521623
206,0,34 Creekridge Ct,2.5,3,San Mateo,1632,1/30/2014,875000,37.529995,-122.33168,1632,CA,358824,2013,6,SingleFamily,1974,763176,816598,702122,10111,94402,15543084
207,0,82 Otay Ave,1,3,San Mateo,5000,1/30/2014,815000,37.537817,-122.292714,5000,CA,76364,2013,6,SingleFamily,1951,733675,807042,667644,-2952,94403,15538605
208,0,620 W California Way,2.5,4,Redwood City,19435,1/29/2014,1875000,37.457792,-122.274964,19435,CA,587179,2013,8,SingleFamily,1983,1859963,2008760,1711166,6394,94062,15589839
209,0,22 Sycamore Ct,3,4,Redwood City,7382,1/29/2014,1558000,37.460797,-122.228837,7382,CA,627308,2013,8,SingleFamily,1988,1378386,1447305,1309467,38781,94061,15577512
210,0,807 The Alameda,3,4,Half Moon Bay,4947,1/29/2014,840000,37.502059,-122.465728,4947,CA,725000,2013,7,SingleFamily,1956,830260,896681,788747,7202,94019,15553393
211,0,27 San Miguel Ave,2,3,Daly City,3400,1/29/2014,735000,37.674499,-122.480812,3400,CA,152638,2013,6,SingleFamily,1960,654385,693648,595490,5320,94015,15473270
212,0,955 Jackling Dr,3,4,Hillsborough,15132,1/29/2014,2450000,37.576738,-122.375854,15132,CA,239893,2013,8,SingleFamily,1941,2441365,2636674,2270469,-16747,94010,15515815
213,0,1044 Montgomery Ave,1,2,San Bruno,4791,1/29/2014,340000,37.635357,-122.412092,4791,CA,99286,2013,0,SingleFamily,1900,292468,383133,216426,-9478,94066,15488977
214,0,157 Albacore Ln,2.5,3,Foster City,1440,1/28/2014,813000,37.559482,-122.250451,1440,CA,758404,2013,5,SingleFamily,1987,779870,818863,740877,5626,94404,15616449
215,0,652 Skyline Dr,1,3,Daly City,3397,1/28/2014,592500,37.677355,-122.491147,3397,CA,270514,2013,5,SingleFamily,1958,549385,576854,516422,8704,94015,15471563
216,0,43 Fairway Dr,1,2,South San Francisco,4000,1/28/2014,500000,37.648628,-122.431544,4000,CA,158903,2013,5,SingleFamily,1945,530403,572835,493275,-3847,94080,15486528
217,0,21 Sunrise Ct,2,3,Half Moon Bay,6098,1/28/2014,695000,37.513822,-122.488199,6098,CA,510000,2013,6,SingleFamily,1972,646118,678424,600890,5518,94019,15534459
218,0,115 Del Monte Rd,3.5,3,EL GRANADA,6534,1/28/2014,935000,37.50797,-122.46664,6534,CA,655000,2013,8,SingleFamily,1974,865578,926168,804988,4925,94018,15552861
219,0,2730 San Miguel Way,3.5,4,San Carlos,11020,1/28/2014,1450000,37.48872,-122.269851,11020,CA,491444,2013,9,SingleFamily,1959,1203903,1312254,1035357,-11946,94070,15557597
220,0,1704 Yorktown Rd,2,4,San Mateo,7488,1/27/2014,1150000,37.521761,-122.348184,7488,CA,114386,2013,7,SingleFamily,1957,1179250,1250005,1108495,-4304,94402,15541628
221,0,6 Bolton Pl,5.5,5,Menlo Park,14600,1/27/2014,4830000,37.443433,-122.190573,14600,CA,4926600,2013,11,SingleFamily,2006,6121089,6610776,5447769,20689,94025,15595447
222,0,315 Wellington Ave,3,3,Daly City,1742,1/27/2014,588000,37.704211,-122.458845,1742,CA,410000,2013,5,SingleFamily,1902,570156,610067,524544,-4330,94014,15461982
223,0,475 Chestnut Ave,2,4,San Bruno,4791,1/27/2014,870000,37.619018,-122.419103,4791,CA,99510,2013,9,SingleFamily,1967,851053,919137,791479,-126,94066,15498025
224,0,732 Edgemar Ave,1,3,Pacifica,5662,1/27/2014,500000,37.643764,-122.488072,5662,CA,62071,2013,5,SingleFamily,1956,573506,602181,533361,4239,94044,15476203
225,0,236 Modoc Pl,1,3,Pacifica,5723,1/24/2014,629000,37.609443,-122.473446,5723,CA,475530,2013,5,SingleFamily,1954,584747,619832,549662,6406,94044,15493863
226,0,2495 Skyfarm Dr,3.5,5,Hillsborough,43500,1/24/2014,3150000,37.563369,-122.375584,43500,CA,1449310,2013,11,SingleFamily,1977,3169608,3549961,2820951,8829,94010,15517049
227,0,20 Orange Ct,3.5,5,Hillsborough,42253,1/24/2014,4250000,37.56333,-122.368636,42253,CA,2048754,2013,11,SingleFamily,1978,4351258,5090972,3611544,-19182,94010,15517083
228,0,1121 Manzanita Dr,2,3,Pacifica,11325,1/24/2014,691000,37.587043,-122.481531,11325,CA,600000,2013,6,SingleFamily,1961,663491,696666,630316,-576,94044,15507075
229,0,4338 Shelter Creek Ln,1,1,San Bruno,1679615,1/24/2014,310000,37.63035,-122.42866,1679615,CA,230000,2013,3,Condominium,1972,280197,294207,263385,7177,94066,15624044
230,0,1100 Tuolumne Rd,3,4,Millbrae,6300,1/24/2014,1450000,37.598646,-122.412483,6300,CA,1091876,2013,10,SingleFamily,1996,1391240,1460802,1307766,-5495,94030,15502383
231,0,130 Sand Hill Cir,2,3,Menlo Park,1306,1/24/2014,1160000,37.423232,-122.219149,1306,CA,675767,2013,8,Condominium,1970,1133914,1247305,1043201,-26448,94025,15600022
232,0,1281 Orange Ave,4,4,Menlo Park,6098,1/24/2014,3050000,37.435699,-122.200716,6098,CA,1200000,2013,6,SingleFamily,2014,2258195,2461433,2077539,318357,94025,15598409
233,0,828 Crescent Ave,3.5,4,San Mateo,7405,1/24/2014,2100000,37.572025,-122.346681,7405,CA,1549333,2013,9,SingleFamily,1917,1738406,1894863,1616718,94572,94401,15521406
234,0,4115 Jefferson Ave,2,3,Redwood City,16552,1/24/2014,1425000,37.456123,-122.267557,16552,CA,1182000,2013,8,SingleFamily,1986,893134,1053898,768095,-43,94062,15590159
235,0,23 Vine St,1.5,3,San Carlos,5200,1/24/2014,985000,37.51029,-122.271693,5200,CA,761302,2013,5,SingleFamily,1953,966605,1072932,869945,12358,94070,15550766
236,0,235 C St,1,2,Redwood City,4791,1/24/2014,750000,37.493806,-122.239844,4791,CA,293250,2013,5,SingleFamily,1943,683462,724470,635620,2114,94063,15563473
237,0,2115 Sharon Ave,2,3,Belmont,6098,1/24/2014,980000,37.520091,-122.298336,6098,CA,94339,2013,6,SingleFamily,1947,922187,995962,820746,5808,94002,15547445
238,0,3404 Del Monte St,2.5,4,San Mateo,6000,1/24/2014,1480000,37.529583,-122.314109,6000,CA,1017620,2013,8,SingleFamily,1951,1207476,1291999,1038429,37383,94403,15537865
239,0,1005 Hall St,1,2,San Carlos,4350,1/23/2014,775000,37.507189,-122.256108,4350,CA,496255,2013,5,SingleFamily,1940,714209,764204,635646,5385,94070,15552108
240,0,7540 La Honda Rd,1,1,LA HONDA,21780,1/23/2014,325000,37.313056,-122.285111,21780,CA,278245,2013,3,SingleFamily,1922,418927,515280,360277,-7608,94020,15603606
241,0,170 Los Banos Ave,2.5,4,Moss Beach,4791,1/23/2014,722000,37.518157,-122.511295,4791,CA,518080,2013,9,SingleFamily,1992,756153,839330,718345,-4965,94038,15534177
242,0,2201 Addison Ave,3,5,East Palo Alto,5009,1/23/2014,490000,37.467472,-122.148292,5009,CA,257723,2013,10,SingleFamily,1947,918006,1074067,771125,-21813,94303,15585660
243,0,255 Palma St,2,3,Half Moon Bay,3049,1/23/2014,710000,37.50527,-122.473937,3049,CA,600000,2013,5,SingleFamily,1984,643682,688740,592187,2339,94019,15552650
244,0,104 Rosa Flora Cir,2.5,3,South San Francisco,1611,1/23/2014,555000,37.645141,-122.431359,1611,CA,440000,2013,5,Townhouse,1990,559879,593472,531885,-5967,94080,15487991
245,0,202 Chapman Ave,2.5,4,South San Francisco,4500,1/23/2014,766000,37.663868,-122.402988,4500,CA,704036,2013,8,SingleFamily,2008,760337,866784,691907,3702,94080,15484048
246,0,202 Crown Cir,3,2,South San Francisco,2324,1/22/2014,665000,37.663122,-122.453869,2324,CA,342308,2013,5,Condominium,1984,585350,632178,544375,1270,94080,15478398
247,0,310 Hazelwood Dr,2,5,South San Francisco,4500,1/22/2014,701000,37.639378,-122.432629,4500,CA,115231,2013,8,SingleFamily,1948,688657,729976,640451,14846,94080,15487314
248,0,2060 Spyglass Dr,2,3,San Bruno,14868,1/22/2014,675000,37.636918,-122.468922,14868,CA,320858,2013,7,SingleFamily,1980,790197,853413,734883,-5972,94066,15490115
249,0,667 Sylvan St APT 4,6,6,Daly City,2500,1/22/2014,880000,37.687048,-122.457647,2500,CA,765000,2013,14,Quadruplex,1965,1285534,1465509,1118415,20990,94014,15468561
250,0,10 N Echo Park Ct,3,4,Mountain House,7162,2/22/2008,415000,37.779369,-121.549479,7162,CA,352000,2013,0,SingleFamily,2008,439783,466170,413396,2125,95391,94696488
251,0,100 N Lafayette St,2.5,4,Mountain House,3842,12/19/2006,541000,37.780371,-121.547404,3842,CA,349000,2013,0,SingleFamily,2006,405371,429693,372941,7676,95391,72652981
252,0,100 N Sierra Madre St,3.5,5,Mountain House,5662,1/26/2007,709500,37.780261,-121.553474,5662,CA,406714,2013,0,SingleFamily,2007,504658,534937,474379,14316,95391,79574257
253,0,103 N Alta Dena St,3.5,4,Tracy,6197,7/25/2008,500000,37.780269,-121.553088,6197,CA,431000,2013,0,SingleFamily,2008,503377,538613,478208,8065,95391,94702688
254,0,103 N Lafayette St,3,3,Mountain House,4445,10/8/2009,290000,37.780771,-121.547433,4445,CA,271000,2013,0,SingleFamily,2007,377199,399831,350795,7685,95391,79581371
255,0,104 N Alta Dena St,2.5,4,Tracy,7585,12/22/2009,436000,37.780541,-121.552638,7585,CA,360000,2013,0,SingleFamily,2009,485337,514457,451363,4598,95391,94698374
256,0,106 N Lafayette St,3,4,Mountain House,3708,9/8/2010,317500,37.780409,-121.54726,3708,CA,330327,2013,0,SingleFamily,2006,407457,431904,370786,5196,95391,72652980
257,0,109 N Alta Dena St,3,4,Tracy,5768,11/6/2008,412000,37.780412,-121.55318,5768,CA,385000,2013,0,SingleFamily,2008,464505,501665,436635,2331,95391,94702647
258,0,11 N Boyle Heights Ct,3,4,Mountain House,7058,3/12/2012,345000,37.77921,-121.551018,7058,CA,344760,2013,0,SingleFamily,2007,475158,503667,437145,-706,95391,94699262
259,0,111 N Lafayette St,2.5,4,Mountain House,3810,2/24/2009,313000,37.780801,-121.547275,3810,CA,327317,2013,0,SingleFamily,2007,408355,432856,383854,5055,95391,79581604
260,0,112 N Alta Dena St,2.5,3,Tracy,6583,12/17/2009,442000,37.780696,-121.552729,6583,CA,428000,2013,0,SingleFamily,2009,461463,484536,429161,7497,95391,94699498
261,0,114 N Lafayette St,3,3,Mountain House,4051,2/2/2010,300000,37.780436,-121.547111,4051,CA,301000,2013,0,SingleFamily,2006,379795,413977,349411,7568,95391,79579166
262,0,114 N Sierra Madre St,2.5,4,Mountain House,5624,3/3/2011,335000,37.780399,-121.553571,5624,CA,348534,2013,0,SingleFamily,2007,465685,502940,433087,5549,95391,72691077
263,0,117 N Lafayette St,2,4,Mountain House,3944,12/17/2010,300000,37.780841,-121.547133,3944,CA,312120,2013,0,SingleFamily,2007,368187,401324,335050,8323,95391,79573648
264,0,120 N Lafayette St,2.5,4,Mountain House,3484,1/11/2007,535500,37.78048,-121.546964,3484,CA,300900,2013,10,SingleFamily,2007,420065,462071,382259,5593,95391,79581188
265,0,121 N Alta Dena St,3,4,Tracy,5583,12/30/2008,390000,37.780676,-121.553371,5583,CA,380000,2013,0,SingleFamily,2008,469327,502180,441167,680,95391,94700436
266,0,122 N Sierra Madre St,3,4,Mountain House,5227,5/3/2011,355000,37.780531,-121.553668,5227,CA,369342,2013,0,SingleFamily,1970,419485,461433,373342,8632,95391,72639227
267,0,124 N Alta Dena St,2.5,4,Tracy,5748,10/8/2009,393000,37.780948,-121.552941,5748,CA,359000,2013,0,SingleFamily,2009,461508,493814,433818,630,95391,94702350
268,0,125 N Lafayette St,3,3,Mountain House,3920,3/2/2007,596500,37.78087,-121.546983,3920,CA,296514,2013,0,SingleFamily,2007,413118,450299,384200,6252,95391,79578069
269,0,401 W Alameda Dr,1,0,TRACY,4500,4/25/2011,290000,37.780674,-121.549947,4500,CA,317322,2013,0,SingleFamily,2008,290590,348708,226660,-40842,95391,94698123
270,0,132 N Lafayette St,2.5,3,Mountain House,4268,3/7/2014,405000,37.78052,-121.546668,4268,CA,308000,2013,0,SingleFamily,2007,380465,407098,361442,2825,95391,79582259
271,0,133 N Lafayette St,2.5,4,Mountain House,3920,11/24/2010,300000,37.780905,-121.546831,3920,CA,312016,2013,0,SingleFamily,2007,409188,437831,380545,5734,95391,79580887
272,0,135 N Alta Dena St,2.5,4,Tracy,5739,1/15/2009,380000,37.780809,-121.553466,5739,CA,359000,2013,0,SingleFamily,2008,470790,499037,437835,3150,95391,94697249
273,0,136 N Alta Dena St,3,4,Tracy,5748,10/8/2009,415000,37.78108,-121.553035,5748,CA,380000,2013,0,SingleFamily,2009,462525,504152,430148,-1515,95391,94701676
274,0,136 N Sierra Madre St,2.5,4,Mountain House,5227,10/5/2010,315000,37.780662,-121.553762,5227,CA,327726,2013,0,SingleFamily,2006,456470,492988,429082,7313,95391,79579655
275,0,138 N Lafayette St,3,3,Mountain House,4791,6/26/2009,310000,37.780565,-121.546536,4791,CA,324179,2013,0,SingleFamily,2007,415741,453158,382482,7646,95391,79575702
276,0,139 N Lafayette St,3,3,Mountain House,3606,11/30/2009,293000,37.78097,-121.546699,3606,CA,307132,2013,0,SingleFamily,2007,383665,402848,356808,8476,95391,79578278
277,0,14 N Boyle Heights Ct,3,4,Mountain House,5821,8/7/2007,498000,37.778839,-121.550894,5821,CA,350000,2013,0,SingleFamily,2007,429293,450758,399242,2654,95391,94701599
278,0,141 N Estes Way,2.5,4,Mountain House,3812,8/30/2007,515000,37.780994,-121.545505,3812,CA,336000,2013,0,SingleFamily,2007,412624,449760,379614,5667,95391,94699093
279,0,145 N Lafayette St,3,3,Mountain House,4358,11/19/2012,260000,37.781031,-121.546557,4358,CA,260000,2013,0,SingleFamily,2007,375781,398328,353234,7968,95391,94699018
280,0,147 N Alta Dena St,3,4,Tracy,6042,12/31/2008,393500,37.780947,-121.553567,6042,CA,380000,2013,0,SingleFamily,2008,472018,505059,443697,1053,95391,94701128
281,0,315 W Alameda Dr,3,3,Mountain House,4356,2/17/2012,300000,37.780692,-121.547978,4356,CA,306000,2013,0,SingleFamily,2007,449965,476963,409468,1363,95391,94696507
282,0,148 N Alta Dena St,3.5,4,Tracy,6186,9/23/2009,432000,37.781215,-121.553137,6186,CA,431000,2013,0,SingleFamily,2009,501948,527045,476851,6098,95391,94700722
283,0,149 N Estes Way,3,3,Mountain House,3386,12/5/2007,477500,37.781097,-121.545431,3386,CA,288815,2013,0,SingleFamily,2007,363349,392417,345182,7328,95391,94702772
284,0,150 N Orinda St,2.5,4,Tracy,6098,3/29/2013,360000,37.781047,-121.547463,6098,CA,299000,2013,0,SingleFamily,2008,265188,297011,225410,-101,95391,94700086
285,0,390 W Piedmont Dr,3,4,Mountain House,4500,3/18/2008,418500,37.781033,-121.549689,4500,CA,378000,2013,0,SingleFamily,2008,456563,483957,433735,5519,95391,94699389
286,0,152 N Sierra Madre St,2.5,4,Mountain House,6098,3/27/2012,319000,37.781088,-121.554065,6098,CA,325380,2013,0,SingleFamily,2006,449677,485651,413703,8315,95391,79578784
287,0,153 N Alta Dena St,3.5,5,Tracy,7100,11/11/2008,506700,37.781234,-121.55377,7100,CA,447372,2013,0,SingleFamily,2008,517120,542976,491264,13507,95391,94697652
288,0,153 N Lafayette St,2.5,4,Mountain House,4501,3/27/2007,556500,37.781117,-121.546414,4501,CA,335000,2013,0,SingleFamily,2007,407721,428107,383258,5119,95391,94697842
289,0,154 N Alta Dena St,2.5,4,Tracy,6972,9/17/2009,398000,37.781439,-121.553271,6972,CA,359000,2013,0,SingleFamily,2009,485186,514297,451223,1640,95391,94702910
290,0,74 N Boyle Heights Ct,3,4,Mountain House,5129,1/25/2008,487000,37.779992,-121.550511,5129,CA,384000,2013,0,SingleFamily,2008,452854,480025,421154,-1026,95391,94702024
291,0,155 N Estes Way,3,4,Tracy,3424,3/21/2008,419000,37.781182,-121.545329,3424,CA,338000,2013,0,SingleFamily,2007,402645,422777,382513,2607,95391,94698249
292,0,158 N Orinda St,3,3,Tracy,4356,12/23/2011,262000,37.781057,-121.54729,4356,CA,267189,2013,0,SingleFamily,2008,388433,407855,361243,9050,95391,94698347
293,0,160 W Charlene Ct,3,3,Mountain House,5646,11/13/2009,336545,37.780523,-121.545902,5646,CA,352834,2013,0,SingleFamily,2007,419364,457107,385815,7648,95391,94698181
294,0,164 N Sierra Madre St,3,4,Mountain House,5662,3/22/2013,407000,37.781236,-121.554161,5662,CA,357000,2013,0,SingleFamily,2006,453358,480559,421623,12837,95391,79577615
295,0,166 N Orinda St,3,3,Tracy,4507,8/22/2008,415000,37.781103,-121.547131,4507,CA,335000,2013,0,SingleFamily,2008,414904,439798,390010,6126,95391,94696180
296,0,167 N Lafayette St,3,3,Mountain House,3716,6/4/2010,303000,37.781301,-121.546212,3716,CA,317613,2013,0,SingleFamily,2007,414003,434703,389163,4906,95391,94697001
297,0,168 N Lafayette St,3,3,Mountain House,3659,3/22/2011,270000,37.781139,-121.545749,3659,CA,280908,2013,0,SingleFamily,2007,378972,397921,356234,9075,95391,94701551
298,0,169 N Estes Way,2.5,3,Mountain House,4023,5/17/2013,385000,37.781293,-121.54525,4023,CA,246000,2013,0,SingleFamily,2007,368907,391041,346773,9359,95391,94696147
299,0,172 W Charlene Ct,2.5,3,Mountain House,5227,2/23/2011,295000,37.780515,-121.546131,5227,CA,306918,2013,0,SingleFamily,2007,392809,416378,365312,3556,95391,94702930
300,0,173 N Lafayette St,2.5,3,Mountain House,4009,7/16/2007,482000,37.781407,-121.546129,4009,CA,275000,2013,0,SingleFamily,2007,376201,398773,357391,10210,95391,94700502
301,0,174 N Orinda St,2.5,3,Tracy,4302,4/9/2012,235000,37.78113,-121.546973,4302,CA,239700,2013,0,SingleFamily,2008,376040,394842,353478,7415,95391,94699571
302,0,176 N Lafayette St,3,3,Mountain House,3894,10/11/2007,421500,37.781236,-121.545674,3894,CA,335000,2013,0,SingleFamily,2007,414760,435498,385727,3965,95391,94700624
303,0,176 N Sierra Madre St,3.5,4,Mountain House,5901,11/2/2006,715000,37.781385,-121.554239,5901,CA,428000,2013,0,SingleFamily,2006,509452,534925,483979,5499,95391,79580960
304,0,176 W Arcadia St,2.5,4,Mountain House,4523,10/25/2007,424000,37.782094,-121.54469,4523,CA,332000,2013,0,SingleFamily,2007,422898,456730,384837,4684,95391,94697458
305,0,177 N Estes Way,3,4,Mountain House,3885,0,0,37.781376,-121.545131,3885,CA,336000,2013,0,SingleFamily,2007,415610,440547,386517,2134,95391,94700923
306,0,182 N Orinda St,2.5,4,Tracy,6098,1/27/2014,430000,37.781193,-121.546832,6098,CA,335000,2013,0,SingleFamily,2008,410729,439480,386085,3492,95391,94696806
307,0,182 W Arcadia St,2.5,3,Mountain House,3881,12/20/2007,417000,37.782085,-121.544837,3881,CA,325000,2013,0,SingleFamily,2007,391483,414972,367994,5660,95391,94700660
308,0,190 N Lafayette St,2.5,4,Mountain House,3984,7/27/2007,547000,37.781427,-121.54549,3984,CA,336000,2013,0,SingleFamily,2007,409334,429801,380681,5069,95391,94697781
309,0,386 W Piedmont Dr,3,4,Tracy,4500,3/27/2008,452909,37.781035,-121.549533,4500,CA,381000,2013,0,SingleFamily,2008,471294,499572,443016,9355,95391,94696331
310,0,193 N Estes Way,2.5,3,Mountain House,4089,9/28/2010,286000,37.78154,-121.544922,4089,CA,297554,2013,0,SingleFamily,2007,378868,405389,356136,4717,95391,94697256
311,0,195 W Charlene Ct,3,3,Mountain House,4540,4/13/2011,300000,37.781027,-121.54596,4540,CA,312120,2013,0,SingleFamily,2007,417745,451165,380148,5857,95391,94700743
312,0,196 W Charlene Ct,2.5,3,Mountain House,4712,4/21/2008,390000,37.780737,-121.546364,4712,CA,339000,2013,0,SingleFamily,2007,398803,418743,370887,6297,95391,94699264
313,0,198 N Alta Dena St,3.5,4,Tracy,6426,9/8/2009,429000,37.781588,-121.553358,6426,CA,432000,2013,0,SingleFamily,2009,507551,538004,482173,6379,95391,94699071
314,0,198 W Arcadia St,2.5,3,Mountain House,4168,3/14/2008,411000,37.782098,-121.544994,4168,CA,275000,2013,0,SingleFamily,2007,379370,409720,349020,7396,95391,94697969
315,0,199 N Alta Dena St,3,4,Tracy,6184,6/23/2009,406000,37.781395,-121.553862,6184,CA,380000,2013,0,SingleFamily,2009,476094,504660,442767,5885,95391,94698576
316,0,20 N Boyle Heights Ct,3,4,Mountain House,8153,7/18/2013,514000,37.778883,-121.550641,8153,CA,341000,2013,0,SingleFamily,2007,488662,522868,449569,4442,95391,94697145
317,0,201 N Estes Way,3,3,Mountain House,4194,10/16/2007,441500,37.781605,-121.544788,4194,CA,335000,2013,0,SingleFamily,2007,415948,449224,382672,5690,95391,94696418
318,0,201 N Lafayette St,3,3,Mountain House,4409,6/22/2007,566000,37.781602,-121.545932,4409,CA,335000,2013,0,SingleFamily,2007,414508,435233,389638,5538,95391,94699939
319,0,201 N Orinda St,2.5,3,Tracy,4855,4/10/2009,330000,37.781479,-121.547116,4855,CA,325000,2013,0,SingleFamily,2009,398698,418633,374776,6879,95391,94697800
320,0,201 N Rockridge St,3.5,5,Tracy,9431,1/28/2010,449000,37.781011,-121.552574,9431,CA,444000,2013,0,SingleFamily,2010,578251,612946,537773,3150,95391,94702525
321,0,118 N Alta Dena St,3,4,Tracy,5662,5/22/2013,445000,37.780817,-121.552847,5662,CA,380000,2013,0,SingleFamily,2009,453939,499333,413084,-1307,95391,94700525
322,0,204 N Sierra Madre St,3.5,4,Mountain House,5901,6/18/2009,363000,37.781696,-121.554349,5901,CA,379499,2013,0,SingleFamily,2006,509606,535086,484126,3751,95391,79575161
323,0,205 N Alta Dena St,2.5,4,Tracy,6846,6/25/2009,399000,37.781555,-121.553934,6846,CA,359000,2013,0,SingleFamily,2009,486727,515931,452656,6464,95391,94699686
324,0,206 N Orinda St,2.5,3,Tracy,4442,0,0,37.78134,-121.546562,4442,CA,275000,2013,0,SingleFamily,2008,385254,404517,358286,6539,95391,94699107
325,0,206 N Ventura St,2.5,3,Tracy,4255,1/28/2009,316000,37.781425,-121.547401,4255,CA,275000,2013,0,SingleFamily,2006,373845,392537,347676,11120,95391,79576369
326,0,209 N Orinda St,2.5,4,Tracy,6141,4/15/2009,339000,37.781656,-121.547122,6141,CA,339000,2013,0,SingleFamily,2009,414710,439593,389827,4703,95391,94701367
327,0,209 N Rockridge St,3,4,Tracy,6534,5/14/2010,415000,37.781192,-121.552691,6534,CA,405000,2013,0,SingleFamily,2010,383770,422147,345393,-1524,95391,94696229
328,0,210 W Arcadia St,2.5,3,Mountain House,4477,12/28/2007,409000,37.782059,-121.545524,4477,CA,330000,2013,0,SingleFamily,2007,388670,411990,361463,6996,95391,94699429
329,0,212 N Alta Dena St,3,4,Tracy,6864,9/25/2009,430000,37.781746,-121.553411,6864,CA,381000,2013,0,SingleFamily,2009,488609,513039,454406,2446,95391,94701961
330,0,212 N Orinda St,3,3,Tracy,4426,6/13/2013,435000,37.781444,-121.546451,4426,CA,267000,2013,0,SingleFamily,2008,420295,449716,390874,5260,95391,94698146
331,0,212 N Ventura St,2.5,3,Tracy,3611,1/29/2009,320500,37.781552,-121.547396,3611,CA,325000,2013,0,SingleFamily,2006,368359,397828,335207,8960,95391,79574710
332,0,226 N Lafayette St,2.5,3,Mountain House,3920,10/10/2011,250000,37.781693,-121.545135,3920,CA,255000,2013,0,SingleFamily,2007,375773,402077,349469,6722,95391,94702978
333,0,216 W Arcadia St,2.5,4,Mountain House,3619,2/22/2008,405000,37.782104,-121.545678,3619,CA,336000,2013,0,SingleFamily,2007,406935,443559,374380,7126,95391,94701105
334,0,217 N Estes Way,3,3,Mountain House,3692,11/17/2009,290000,37.781702,-121.544695,3692,CA,303987,2013,0,SingleFamily,2007,386014,409175,358993,5758,95391,94699758
335,0,217 N Rockridge St,2.5,4,Tracy,7834,0,0,37.781349,-121.552767,7834,CA,360000,2013,0,SingleFamily,2010,495045,519797,460392,4594,95391,94702775
336,0,218 N Ventura St,3,3,Tracy,3701,1/21/2009,329500,37.781667,-121.547413,3701,CA,330000,2013,0,SingleFamily,2006,405856,426149,385563,5150,95391,79582155
337,0,181 N Lafayette St,2.5,4,Mountain House,3753,7/31/2007,526000,37.781498,-121.546027,3753,CA,336000,2013,0,SingleFamily,2007,408810,429250,388370,5595,95391,94700121
338,0,220 N Orinda St,2.5,4,Tracy,4356,4/29/2011,266000,37.78156,-121.546346,4356,CA,276746,2013,0,SingleFamily,2008,416414,441399,395593,4471,95391,94701084
339,0,221 N Alta Dena St,3.5,4,Tracy,6313,6/30/2009,443500,37.781719,-121.553985,6313,CA,432000,2013,0,SingleFamily,2009,511374,536943,485805,7941,95391,94699255
340,0,222 N Sierra Madre St,2.5,4,Mountain House,5986,12/28/2006,646500,37.781857,-121.554379,5986,CA,351000,2013,0,SingleFamily,2006,463446,495887,426370,5082,95391,72654537
341,0,222 W Arcadia St,2.5,3,Mountain House,4408,2/26/2008,406000,37.782078,-121.545833,4408,CA,275000,2013,0,SingleFamily,2007,380292,410715,357474,7076,95391,94696751
342,0,215 N Orinda St,2.5,3,Tracy,7724,3/10/2009,317000,37.78183,-121.547057,7724,CA,278000,2013,0,SingleFamily,2009,405530,425806,369032,1803,95391,94697323
343,0,225 N Estes Way,2.5,4,Mountain House,4207,8/12/2010,340000,37.781782,-121.544577,4207,CA,353736,2013,0,SingleFamily,2007,417335,454895,379775,3430,95391,94640927
344,0,225 N Lafayette St,2.5,3,Mountain House,4900,3/12/2010,275000,37.781826,-121.545758,4900,CA,276000,2013,0,SingleFamily,2007,378822,401551,352304,8614,95391,94696772
345,0,225 N Rockridge St,3.1,5,Tracy,8712,11/29/2011,399000,37.781585,-121.552896,8712,CA,406980,2013,0,SingleFamily,2007,522838,554208,491468,6585,95391,79573653
346,0,226 N Ventura St,2.5,4,Tracy,3689,3/20/2009,350000,37.781786,-121.547415,3689,CA,336000,2013,0,SingleFamily,2006,403508,427718,375262,5563,95391,79573473
347,0,228 N Orinda St,2.5,3,Tracy,3754,5/28/2010,300000,37.781664,-121.546254,3754,CA,314469,2013,0,SingleFamily,2008,394047,413749,370404,6233,95391,94699201
348,0,229 N Orinda St,2.5,3,Tracy,4684,12/12/2008,365500,37.781866,-121.546842,4684,CA,330000,2013,0,SingleFamily,2008,400938,420985,376882,5774,95391,94701462
349,0,23 N Echo Park Ct,3,4,Tracy,5227,4/24/2008,417000,37.779392,-121.550149,5227,CA,349000,2013,0,SingleFamily,2008,421317,446596,400251,4529,95391,94700966
350,0,231 N Estes Way,2.5,3,Mountain House,4088,12/29/2011,230000,37.781901,-121.544508,4088,CA,234600,2013,0,SingleFamily,2007,377911,411923,355236,5849,95391,94700190
351,0,232 N Lafayette St,2.5,4,Mountain House,5118,8/16/2007,550000,37.781798,-121.545026,5118,CA,335000,2013,0,SingleFamily,2007,411101,435767,378213,1636,95391,94695983
352,0,233 N Rockridge St,3,4,Tracy,8585,2/26/2010,450000,37.781747,-121.55295,8585,CA,391000,2013,0,SingleFamily,2006,576214,605025,530117,3880,95391,79578012
353,0,234 N Orinda St,3,3,Tracy,653,5/30/2008,437000,37.781777,-121.546176,653,CA,338000,2013,0,SingleFamily,2008,353635,396071,311199,6041,95391,94702529
354,0,234 N Ventura St,2.5,3,Tracy,3809,9/30/2008,392000,37.781901,-121.547388,3809,CA,325000,2013,0,SingleFamily,2008,385597,404877,362461,10126,95391,94695865
355,0,237 N Alta Dena St,3,4,Tracy,6329,7/10/2009,416000,37.78188,-121.554022,6329,CA,380000,2013,0,SingleFamily,2009,478222,502133,444746,7455,95391,94699681
356,0,237 N Orinda St,3,3,Tracy,5234,12/17/2008,387000,37.78186,-121.546642,5234,CA,338000,2013,0,SingleFamily,2008,416985,454514,387796,4459,95391,94697292
357,0,238 N Lafayette St,2.5,3,Mountain House,5662,8/6/2013,425000,37.781902,-121.544889,5662,CA,268260,2013,0,SingleFamily,2007,395595,419331,363947,4916,95391,94699922
358,0,239 N Estes Way,3,3,Mountain House,5689,12/14/2007,432500,37.782014,-121.544395,5689,CA,320000,2013,0,SingleFamily,2007,429665,464038,395292,6225,95391,94702268
359,0,24 N Puente Dr,3,4,Mountain House,7528,7/20/2007,493500,37.779179,-121.55137,7528,CA,353000,2013,0,SingleFamily,2007,448984,475923,422045,4969,95391,94701040
360,0,240 N Orinda St,2.5,3,Tracy,4583,5/2/2008,402500,37.781896,-121.546117,4583,CA,275000,2013,0,SingleFamily,2008,382440,409211,355669,8971,95391,94701382
361,0,240 N Ventura St,2.5,3,Tracy,4062,9/12/2008,366500,37.782012,-121.547375,4062,CA,271000,2013,0,SingleFamily,2008,378860,397803,352340,9155,95391,94702435
362,0,245 N Alta Dena St,2.5,4,Tracy,6674,7/9/2009,392500,37.782052,-121.554037,6674,CA,359000,2013,0,SingleFamily,2009,482763,506901,448970,6801,95391,94702415
363,0,148 N Sierra Madre St,3.5,4,Mountain House,6452,11/28/2006,725500,37.780805,-121.553863,6452,CA,420000,2013,0,SingleFamily,2006,511176,536735,480505,14980,95391,79576235
364,0,246 N Sierra Madre St,4,5,Mountain House,7439,10/28/2011,385000,37.782035,-121.554384,7439,CA,392700,2013,0,SingleFamily,2006,517196,548228,491336,8448,95391,72654538
365,0,246 W Arcadia St,4,4,Mountain House,5311,12/28/2007,448000,37.782078,-121.546175,5311,CA,330000,2013,0,SingleFamily,2007,402676,430863,374489,9697,95391,94699465
366,0,247 N Estes Way,2.5,3,Mountain House,5488,12/27/2007,398000,37.782155,-121.544413,5488,CA,307000,2013,0,SingleFamily,2007,378119,404587,344088,7723,95391,94698925
367,0,249 N Rockridge St,3,4,Tracy,8576,3/30/2010,439500,37.782065,-121.552987,8576,CA,391000,2013,0,SingleFamily,2010,504132,534380,478925,6778,95391,94698996
368,0,25 N Bill Johnson Ct,4,5,Tracy,7405,2/6/2013,387500,37.779563,-121.549149,7405,CA,355980,2013,0,SingleFamily,2008,487352,511720,453237,6532,95391,94700173
369,0,258 W Arcadia St,3,4,Tracy,6001,11/26/2008,391000,37.782086,-121.546611,6001,CA,344000,2013,0,SingleFamily,2008,418697,452193,393575,4180,95391,94701559
370,0,11 N Echo Park Ct,4,5,Tracy,5216,4/17/2008,427500,37.77924,-121.550138,5216,CA,386000,2013,0,SingleFamily,2008,466075,494040,433450,-2837,95391,94702334
371,0,213 N Lafayette St,2.5,3,Mountain House,4661,12/6/2007,417500,37.781723,-121.54585,4661,CA,330000,2013,0,SingleFamily,2007,390667,410200,367227,8250,95391,94695998
372,0,190 N Sierra Madre St,2.5,4,Mountain House,5901,10/16/2007,487000,37.781539,-121.554301,5901,CA,359000,2013,0,SingleFamily,2006,464094,501222,426966,3014,95391,79532260
373,0,274 W Arcadia St,3,3,Tracy,3484,9/30/2008,400000,37.782091,-121.546984,3484,CA,335000,2013,0,SingleFamily,2008,410052,434655,381348,4523,95391,94699460
374,0,296 W Saint Francis Ave,3,4,Mountain House,3920,12/12/2008,320000,37.78313,-121.547489,3920,CA,307000,2013,0,SingleFamily,2006,234270,269410,201472,-1240,95391,79575074
375,0,278 W Saint Francis Ave,2.5,2,Mountain House,3049,1/16/2009,264000,37.783138,-121.547096,3049,CA,214000,2013,0,SingleFamily,2006,303249,342671,288087,1264,95391,79580366
376,0,28 N Echo Park Ct,4,5,Tracy,7668,5/2/2008,496000,37.779521,-121.549614,7668,CA,390000,2013,0,SingleFamily,2008,497914,537747,463060,7013,95391,94697053
377,0,72 N Puente Dr,4,5,Mountain House,5376,12/29/2009,310000,37.780122,-121.551363,5376,CA,324952,2013,0,SingleFamily,2007,464747,497279,441510,-2534,95391,94700642
378,0,282 W Arcadia St,2,3,Tracy,2613,4/20/2011,230000,37.782075,-121.547133,2613,CA,239292,2013,0,SingleFamily,2008,355923,391515,320331,6362,95391,94700550
379,0,284 W Saint Francis Ave,2.5,3,Mountain House,3336,11/26/2008,280000,37.783136,-121.547221,3336,CA,242000,2013,0,SingleFamily,2006,327788,350733,304843,6599,95391,79577513
380,0,26 N Boyle Heights Ct,4,5,Mountain House,8540,11/6/2012,375000,37.779028,-121.550445,8540,CA,375000,2013,0,SingleFamily,2007,495794,535458,456130,6815,95391,94700835
381,0,296 W Moraga St,3,3,Tracy,4590,2/28/2014,415500,37.783901,-121.547497,4590,CA,146500,2013,0,Condominium,2013,283882,312270,235622,3695,95391,111091257
382,0,3 N Echo Park Ct,3,4,Mountain House,9906,2/28/2008,462000,37.77907,-121.550093,9906,CA,387000,2013,0,SingleFamily,2008,494474,538977,454916,6271,95391,94696920
383,0,300 W Alameda Dr,2.5,3,Mountain House,4327,12/29/2006,511000,37.780323,-121.547531,4327,CA,278460,2013,0,SingleFamily,2006,383933,410808,349379,9076,95391,79574766
384,0,305 W Alameda Dr,2.5,4,Tracy,5662,7/27/2012,335000,37.780689,-121.547799,5662,CA,335000,2013,0,SingleFamily,2008,443864,470496,399478,3808,95391,94697653
385,0,306 W Alameda Dr,2.5,3,Mountain House,4213,11/22/2006,519500,37.780289,-121.547713,4213,CA,311000,2013,0,SingleFamily,2006,376430,402780,346316,6514,95391,79582267
386,0,306 W Piedmont Dr,3,4,Tracy,5393,7/11/2008,436000,37.781046,-121.547843,5393,CA,377000,2013,0,SingleFamily,2008,478613,531260,440324,5864,95391,94698784
387,0,310 W Alameda Dr,3,4,Mountain House,4660,1/31/2007,525000,37.78026,-121.547869,4660,CA,352000,2013,0,SingleFamily,2006,396070,431716,368345,21961,95391,79576374
388,0,354 W Piedmont Dr,2.5,4,Mountain House,4791,0,0,37.781039,-121.548748,4791,CA,363000,2013,0,SingleFamily,2008,430386,456209,400259,8995,95391,94700897
389,0,318 W Piedmont Dr,3,4,Tracy,4500,7/10/2008,449000,37.781047,-121.54817,4500,CA,378000,2013,0,SingleFamily,2008,463863,487056,431393,3312,95391,94700309
390,0,319 W Alameda Dr,3,4,Tracy,4356,3/13/2013,450000,37.78069,-121.548134,4356,CA,350000,2013,0,SingleFamily,2006,409254,446087,368329,-456,95391,79576246
391,0,32 N Puente Dr,3,4,Mountain House,5376,7/13/2007,603000,37.779367,-121.551353,5376,CA,384000,2013,0,SingleFamily,2007,445656,467939,414460,24,95391,94702640
392,0,292 W Saint Francis Ave,3,3,Tracy,3114,9/13/2013,330000,37.783135,-121.547347,3114,CA,233000,2013,0,SingleFamily,2006,333069,353053,316416,3606,95391,79576799
393,0,324 W Alameda Dr,2.5,4,Mountain House,6098,10/29/2010,319000,37.780251,-121.548195,6098,CA,331888,2013,12,SingleFamily,2006,432924,463229,393961,2223,95391,79573246
394,0,194 N Orinda St,2.5,3,Tracy,4432,3/22/2013,365000,37.781253,-121.546688,4432,CA,264000,2013,0,SingleFamily,2008,412047,432649,391445,3857,95391,94702342
395,0,328 W Piedmont Dr,3,4,Tracy,5570,7/22/2008,434600,37.781042,-121.548345,5570,CA,378000,2013,0,SingleFamily,2008,471848,495440,438819,5507,95391,94697516
396,0,415 W Alameda Dr,3,4,Mountain House,4500,3/4/2008,437000,37.780673,-121.550102,4500,CA,381000,2013,0,SingleFamily,2008,475898,504452,437826,7921,95391,94700214
397,0,188 W Charlene Ct,2.5,4,Mountain House,5967,12/24/2013,426000,37.780582,-121.54631,5967,CA,333337,2013,0,SingleFamily,2007,407690,436228,387306,5230,95391,83152840
398,0,34 N Boyle Heights Ct,3,4,Mountain House,5436,8/30/2007,475000,37.779237,-121.55047,5436,CA,349000,2013,0,SingleFamily,2007,405043,433396,368589,3281,95391,94696534
399,0,161 W Charlene Ct,2.5,3,Mountain House,6336,11/16/2010,286000,37.780637,-121.545746,6336,CA,297554,2013,0,SingleFamily,2007,415535,452933,382292,7881,95391,94702069
400,0,35 N Echo Park Ct,3,4,Tracy,5227,4/29/2008,425000,37.779542,-121.550168,5227,CA,371000,2013,4,SingleFamily,2008,454600,477330,422778,4231,95391,94699628
401,0,126 N Lafayette St,2.5,3,Mountain House,39204,11/9/2012,305000,37.780491,-121.546815,39204,CA,305000,2013,0,SingleFamily,2007,441694,481446,397525,3773,95391,79575455
402,0,357 W Alameda Dr,3,4,Tracy,7405,1/30/2013,410000,37.780689,-121.548798,7405,CA,345000,2013,0,SingleFamily,2008,507078,542573,476653,14599,95391,94701800
403,0,364 W Piedmont Dr,3,4,Mountain House,4500,5/20/2008,467500,37.78104,-121.54891,4500,CA,403000,2013,0,SingleFamily,2008,455516,478292,428185,4096,95391,94702033
404,0,368 W Piedmont Dr,3,4,Tracy,4356,6/23/2008,428000,37.781039,-121.549066,4356,CA,381000,2013,0,SingleFamily,2008,467963,496041,444565,4571,95391,94701897
405,0,369 W Alameda Dr,2.5,4,Tracy,4500,5/15/2008,406000,37.780682,-121.549013,4500,CA,361000,2013,0,SingleFamily,2008,430263,464684,395842,6298,95391,94698051
406,0,37 N Bill Johnson Ct,3,4,Tracy,7873,9/19/2008,466000,37.779731,-121.549289,7873,CA,387000,2013,0,SingleFamily,2008,491812,521321,452467,3850,95391,94701108
407,0,370 W Piedmont Dr,3,4,Tracy,4500,4/22/2008,427500,37.781038,-121.549222,4500,CA,378000,2013,0,SingleFamily,2008,452903,480077,430258,6301,95391,94699040
408,0,376 W Piedmont Dr,2.5,4,Tracy,4500,4/18/2008,432000,37.781036,-121.549377,4500,CA,359000,2013,0,SingleFamily,2008,431418,457303,401219,9198,95391,94699351
409,0,377 W Alameda Dr,3,4,Tracy,4356,5/20/2008,433500,37.780681,-121.549168,4356,CA,378000,2013,0,SingleFamily,2008,453828,481058,431137,5358,95391,94698035
410,0,381 W Alameda Dr,3,4,Tracy,4500,4/17/2008,439000,37.78068,-121.549324,4500,CA,381000,2013,0,SingleFamily,2008,465041,492943,441789,4760,95391,94701180
411,0,385 W Alameda Dr,2.5,4,Tracy,4500,4/15/2008,416000,37.780678,-121.54948,4500,CA,359000,2013,0,SingleFamily,2008,431002,461172,400832,6543,95391,94695963
412,0,266 W Arcadia St,2.5,3,Tracy,4280,3/13/2009,315500,37.782087,-121.546821,4280,CA,275000,2013,0,SingleFamily,2008,381510,404401,358619,7818,95391,94700345
413,0,397 W Alameda Dr,3,4,Mountain House,4500,3/21/2008,457500,37.780675,-121.549791,4500,CA,381000,2013,0,SingleFamily,2008,470862,499114,437902,5327,95391,94700707
414,0,394 W Piedmont Dr,3,4,MOUNTAIN HOUSE,4500,3/14/2008,459000,37.781032,-121.549845,4500,CA,360000,2013,0,SingleFamily,2008,433826,459856,399120,10919,95391,94702642
415,0,40 N Puente Dr,4,5,Mountain House,5227,10/21/2011,359000,37.779518,-121.551355,5227,CA,366180,2013,0,SingleFamily,2007,463141,495561,439984,-2673,95391,94700604
416,0,82 N Boyle Heights Ct,4,5,Mountain House,5129,1/30/2008,436500,37.780143,-121.550513,5129,CA,386000,2013,0,SingleFamily,2008,472718,496354,439628,562,95391,94697622
417,0,402 W Piedmont Dr,3,4,Mountain House,4500,2/21/2008,451000,37.781031,-121.55,4500,CA,369000,2013,0,SingleFamily,2008,469309,497468,445844,4347,95391,94701320
418,0,41 N Boyle Heights Ct,4,5,Mountain House,5514,9/21/2007,526500,37.779383,-121.55101,5514,CA,386000,2013,0,SingleFamily,2007,475453,503980,442171,-1621,95391,94700143
419,0,414 W Piedmont Dr,3,4,Mountain House,4500,2/19/2008,413000,37.781029,-121.550156,4500,CA,376000,2013,0,SingleFamily,2008,453769,476457,422005,3929,95391,94701538
420,0,422 W Piedmont Dr,3,4,Mountain House,4500,1/31/2008,445000,37.781028,-121.550312,4500,CA,381000,2013,0,SingleFamily,2008,464577,492452,436702,4481,95391,94701163
421,0,423 W Alameda Dr,3,4,Mountain House,4500,2/15/2008,466000,37.780671,-121.550258,4500,CA,378000,2013,0,SingleFamily,2008,450205,481719,418691,588,95391,94700570
422,0,431 W Alameda Dr,3,4,Mountain House,4500,2/15/2008,446000,37.78067,-121.550414,4500,CA,381000,2013,0,SingleFamily,2008,463042,490825,435259,4800,95391,94700628
423,0,182 N Lafayette St,2.5,3,Mountain House,4099,9/19/2007,446500,37.781324,-121.545567,4099,CA,275000,2013,0,SingleFamily,2007,373439,395845,354767,9319,95391,94698935
424,0,434 W Piedmont Dr,3,3,MOUNTAIN HOUSE,4500,1/31/2008,485000,37.781026,-121.550467,4500,CA,373000,2013,0,SingleFamily,2008,449969,476967,418471,3160,95391,94697479
425,0,439 W Alameda Dr,2.5,4,Mountain House,4500,2/6/2008,420500,37.780669,-121.55057,4500,CA,359000,2013,0,SingleFamily,2008,429440,455206,403674,4650,95391,94702121
426,0,443 W Alameda Dr,3,4,MOUNTAIN HOUSE,4500,12/20/2007,463500,37.780667,-121.550725,4500,CA,431000,2013,0,SingleFamily,2007,448735,480146,417324,1825,95391,94702340
427,0,448 W Piedmont Dr,3,4,Mountain House,4500,1/10/2008,415000,37.781024,-121.550779,4500,CA,381000,2013,0,SingleFamily,2008,464687,492568,441453,3968,95391,94702559
428,0,233 N Lafayette St,2.5,4,Mountain House,4664,7/6/2007,529000,37.781878,-121.545602,4664,CA,335000,2013,0,SingleFamily,2007,413948,451203,384972,3086,95391,94702474
429,0,456 W Piedmont Dr,3,3,Mountain House,4500,12/18/2007,468500,37.781022,-121.550934,4500,CA,373000,2013,0,SingleFamily,2007,444413,466634,422192,870,95391,94700914
430,0,46 N Echo Park Ct,3,4,Tracy,5763,5/7/2008,462500,37.77968,-121.549641,5763,CA,387000,2013,0,SingleFamily,2008,462493,485618,434743,4205,95391,94700267
431,0,185 N Estes Way,2.5,3,Mountain House,3670,0,0,37.781464,-121.545035,3670,CA,325000,2013,0,SingleFamily,2007,381509,400584,358618,9893,95391,94695815
432,0,461 W Alameda Dr,3,4,Mountain House,4500,12/20/2007,431000,37.780666,-121.550881,4500,CA,381000,2013,0,SingleFamily,2007,459909,487504,436914,7945,95391,94695632
433,0,473 W Alameda Dr,2.5,4,Mountain House,4500,12/11/2007,437500,37.780664,-121.551037,4500,CA,359000,2013,0,SingleFamily,2007,428511,454222,402800,3881,95391,94702127
434,0,474 W Piedmont Dr,2.5,4,MOUNTAIN HOUSE,4500,11/29/2007,436000,37.781021,-121.55109,4500,CA,359000,2013,0,SingleFamily,2007,431832,466379,405922,6519,95391,94699711
435,0,48 N Puente Dr,3,4,Mountain House,5376,7/11/2007,481500,37.779669,-121.551357,5376,CA,349000,2013,0,SingleFamily,2007,423713,444899,402527,3691,95391,94699229
436,0,482 W Piedmont Dr,3,4,Mountain House,4356,12/18/2007,459000,37.78102,-121.551246,4356,CA,353736,2013,0,SingleFamily,2007,458462,490554,426370,6489,95391,94639593
437,0,485 W Alameda Dr,3,4,Mountain House,4500,1/10/2008,400000,37.780663,-121.551192,4500,CA,384000,2013,0,SingleFamily,2008,454216,476927,431505,3590,95391,94698944
438,0,49 N Bill Johnson Ct,4,5,Tracy,8401,9/17/2008,433000,37.77993,-121.54935,8401,CA,390000,2013,0,SingleFamily,2008,499432,534392,469466,7651,95391,94698663
439,0,49 N Boyle Heights Ct,3,4,Mountain House,5514,10/10/2007,533500,37.779534,-121.551012,5514,CA,349000,2013,0,SingleFamily,2007,421776,442865,400687,4474,95391,94696100
440,0,493 W Alameda Dr,3,4,Mountain House,7490,5/22/2013,380000,37.780666,-121.551401,7490,CA,384000,2013,0,SingleFamily,2007,514154,539862,478163,12912,95391,94701344
441,0,498 W Piedmont Dr,3,4,Mountain House,6276,11/15/2007,451000,37.781015,-121.551432,6276,CA,382000,2013,0,SingleFamily,2007,450633,473165,419089,1803,95391,94699908
442,0,50 N Boyle Heights Ct,4,5,Mountain House,5129,5/12/2011,330000,37.779539,-121.550505,5129,CA,343332,2013,0,SingleFamily,2007,463954,487152,431477,-725,95391,94699341
443,0,504 W Piedmont Dr,3,4,Tracy,8612,1/8/2010,436000,37.78098,-121.551884,8612,CA,385000,2013,0,SingleFamily,2009,509349,539910,483882,8754,95391,94698851
444,0,507 W Alameda Dr,2.5,4,Tracy,7290,11/16/2009,403000,37.780672,-121.551882,7290,CA,359000,2013,0,SingleFamily,2009,495226,519987,460560,2126,95391,94700874
445,0,81 N Boyle Heights Ct,3,4,Mountain House,5532,1/6/2014,437000,37.780139,-121.551021,5532,CA,349000,2013,0,SingleFamily,2007,417866,438759,396973,3904,95391,94700795
446,0,52 N Bill Johnson Ct,3,4,Tracy,10018,11/14/2008,332690,37.780064,-121.548793,10018,CA,387000,2013,0,SingleFamily,2007,488537,512964,449454,5465,95391,94696475
447,0,532 W Piedmont Dr,3.5,5,Tracy,6902,1/28/2010,432000,37.780979,-121.552102,6902,CA,428000,2013,0,SingleFamily,2010,545075,572329,512370,5542,95391,94696039
448,0,533 W Alameda Dr,3,4,Tracy,7433,11/30/2009,430500,37.780667,-121.552121,7433,CA,382000,2013,0,SingleFamily,2009,539925,566921,512929,5767,95391,94698362
449,0,206 W Arcadia St,3,4,Mountain House,5716,12/27/2007,418000,37.782074,-121.545375,5716,CA,339000,2013,0,SingleFamily,2007,422667,456480,384627,4875,95391,94700610
450,0,56 N Puente Dr,4,5,Mountain House,5376,12/8/2010,390000,37.77982,-121.551359,5376,CA,405756,2013,0,SingleFamily,2007,471880,495474,443567,-314,95391,94696171
451,0,564 W Piedmont Dr,2.5,4,Tracy,8808,1/20/2010,420000,37.780953,-121.552334,8808,CA,370000,2013,0,SingleFamily,2010,497373,532189,467531,8470,95391,94697016
452,0,187 W Charlene Ct,3,3,Mountain House,4908,7/24/2007,450000,37.780964,-121.545782,4908,CA,385614,2013,0,SingleFamily,2007,395028,414779,367376,4157,95391,94697769
453,0,565 W Alameda Dr,3.5,4,Tracy,8316,12/10/2009,439500,37.780661,-121.55237,8316,CA,434000,2013,0,SingleFamily,2009,563314,591480,535148,3088,95391,94700954
454,0,57 N Boyle Heights Ct,4,5,Mountain House,5514,10/26/2007,470000,37.779685,-121.551015,5514,CA,386000,2013,0,SingleFamily,2007,469861,493354,441669,-3666,95391,94701678
455,0,576 W Pasadena Ave,2.5,4,Tracy,7269,10/20/2009,396500,37.781996,-121.553329,7269,CA,359000,2013,0,SingleFamily,2009,494157,518865,459566,4388,95391,94699930
456,0,58 N Boyle Heights Ct,3,4,Mountain House,5129,9/13/2007,579500,37.77969,-121.550507,5129,CA,384000,2013,0,SingleFamily,2007,445423,467694,418698,-320,95391,94700281
457,0,58 N Echo Park Ct,3,4,Tracy,4950,5/30/2008,400000,37.779835,-121.54967,4950,CA,348000,2013,0,SingleFamily,2008,428392,449812,398405,3947,95391,94701596
458,0,59 N Echo Park Ct,4,5,Tracy,5541,5/20/2008,440000,37.779844,-121.550173,5541,CA,386000,2013,0,SingleFamily,2008,472599,496229,439517,-1088,95391,94701736
459,0,594 W Pasadena Ave,4,4,Tracy,7770,8/21/2009,449500,37.781982,-121.553549,7770,CA,433000,2013,0,SingleFamily,2009,519751,545739,488566,11202,95391,94699703
460,0,64 N Puente Dr,3,4,Mountain House,5376,6/28/2007,577500,37.779971,-121.551361,5376,CA,383000,2013,0,SingleFamily,2007,447673,474533,425289,1154,95391,94700963
461,0,65 N Boyle Heights Ct,3,4,Mountain House,5514,12/31/2007,420000,37.779836,-121.551017,5514,CA,384000,2013,0,SingleFamily,2007,445171,467430,422912,1208,95391,94701248
462,0,66 N Boyle Heights Ct,3,4,Mountain House,5129,1/17/2008,395000,37.779841,-121.550509,5129,CA,348000,2013,0,SingleFamily,2008,410960,439727,382193,4439,95391,94697525
463,0,70 N Echo Park Ct,4,5,Tracy,4950,6/12/2008,453500,37.779986,-121.549672,4950,CA,386000,2013,0,SingleFamily,2008,465380,493303,432803,-1296,95391,94702021
464,0,71 N Bill Johnson Ct,3,4,Tracy,5734,9/10/2008,397500,37.78013,-121.549362,5734,CA,349000,2013,0,SingleFamily,2008,420683,441717,395442,4193,95391,94698657
465,0,71 N Echo Park Ct,3,4,Tracy,5541,6/4/2008,466500,37.779995,-121.550175,5541,CA,349000,2013,0,SingleFamily,2008,411950,440787,378994,5220,95391,94702940
466,0,73 N Boyle Heights Ct,4,5,Mountain House,5514,12/20/2007,493500,37.779988,-121.551019,5514,CA,386000,2013,0,SingleFamily,2007,473423,506563,440283,-3241,95391,94700388
467,0,241 N Rockridge St,3,4,Tracy,8210,5/5/2011,420000,37.781902,-121.55297,8210,CA,436968,2013,0,SingleFamily,2006,493481,518155,458937,6954,95391,79573272
468,0,440 W Piedmont Dr,2.5,4,Mountain House,4500,1/25/2008,406000,37.781025,-121.550623,4500,CA,359000,2013,0,SingleFamily,2008,432100,462347,406174,5944,95391,94699057
469,0,88 N Puente Dr,3,4,Mountain House,6044,4/30/2012,300000,37.780283,-121.551358,6044,CA,306000,2013,0,SingleFamily,2007,419938,449334,390542,1485,95391,94698651
470,0,89 N Boyle Heights Ct,3,4,Mountain House,5967,2/13/2008,452000,37.780296,-121.551025,5967,CA,387000,2013,0,SingleFamily,2008,448885,475818,421952,-1654,95391,94700763
471,0,90 N Boyle Heights Ct,3,4,Mountain House,5547,2/6/2008,450000,37.7803,-121.550514,5547,CA,349000,2013,0,SingleFamily,2008,413223,438016,384297,3925,95391,94701037
472,0,115 N Alta Dena St,2.5,4,Tracy,5582,11/3/2013,470000,37.780545,-121.553277,5582,CA,358000,2013,0,SingleFamily,2008,462771,499793,435005,3082,95391,94700935
473,0,93 N Bill Johnson Ct,3,4,Tracy,6017,8/28/2008,453000,37.780304,-121.549361,6017,CA,387000,2013,0,SingleFamily,2008,451568,478662,419958,-1751,95391,94702477
474,0,95 N Echo Park Ct,4,5,Tracy,5662,4/27/2012,350000,37.780303,-121.550181,5662,CA,357000,2013,0,SingleFamily,2008,468506,496616,435711,1509,95391,94641674
475,0,98 N Sierra Madre St,3,4,Mountain House,6046,1/30/2007,682000,37.780111,-121.5534,6046,CA,395000,2013,0,SingleFamily,2007,461707,494026,434005,4402,95391,79581754
476,0,220 N Lafayette St,3,3,Mountain House,3553,8/31/2011,275000,37.781618,-121.545264,3553,CA,280500,2013,0,SingleFamily,2007,406960,427308,382542,4459,95391,94699362
477,0,88 N Bill Johnson Ct,4,5,Tracy,9787,8/29/2008,504100,37.780271,-121.548816,9787,CA,393000,2013,0,SingleFamily,2007,496353,531098,461608,6732,95391,94701201
478,0,314 W Alameda Dr,3,3,Mountain House,5363,6/3/2009,270000,37.780223,-121.548012,5363,CA,282350,2013,0,SingleFamily,2006,393936,417572,354542,8638,95391,72652982
479,0,3670 Darwin Dr,2,4,Fremont,5800,0,0,37.575945,-122.036229,5800,CA,144268,2013,8,SingleFamily,1970,650222,695738,598204,932,94555,25047276
480,0,34112 Aberdeen Ter,2,3,Fremont,901,1/31/2014,300000,37.577152,-122.038735,901,CA,335000,2013,6,Condominium,1970,317551,358833,276269,10435,94555,25047924
481,0,3574 Johnson Ct,2,3,Fremont,6793,1/29/2010,610000,37.576224,-122.03365,6793,CA,639420,2013,0,SingleFamily,1980,653283,699013,601020,-1771,94555,25052643
482,0,34134 Chamberlain Ter,1.5,2,Fremont,780,11/10/1994,105000,37.577037,-122.038121,780,CA,143220,2013,5,Condominium,1970,294893,330280,262455,2681,94555,25047904
483,0,3400 Darwin Dr,2,3,Fremont,5793,9/28/2011,410000,37.577842,-122.033362,5793,CA,418200,2013,6,SingleFamily,1968,615201,670569,572137,118,94555,25047390
484,0,34113 Aberdeen Ter,1.5,2,Fremont,780,0,0,37.577306,-122.039031,780,CA,97305,2013,5,Condominium,1970,301898,335107,265670,3093,94555,25047948
485,0,3637 Gainsborough Ter,1,2,Fremont,1610,0,0,37.576507,-122.037382,1610,CA,115465,2013,5,Condominium,1970,296786,326465,261172,3519,94555,25047968
486,0,34310 Thornhill Ct,2,4,Fremont,6214,0,0,37.578665,-122.036772,6214,CA,67098,2013,8,SingleFamily,1968,684929,732874,623285,3805,94555,25047319
487,0,3713 Darwin Dr,2,3,Fremont,5800,0,0,37.576035,-122.036756,5800,CA,122532,2013,7,SingleFamily,1971,611994,673193,538555,2960,94555,25047958
488,0,3595 Johnson Ct,2,3,Fremont,6000,6/16/2000,440000,37.576264,-122.034258,6000,CA,549167,2013,0,SingleFamily,1980,655683,695024,603228,1599,94555,25052630
489,0,34312 Cornwallis Ct,2,3,Fremont,7939,0,0,37.578037,-122.037179,7939,CA,84685,2013,7,SingleFamily,1968,661643,714574,608712,-2574,94555,25047308
490,0,34359 Thornhill Ct,2,3,Fremont,6106,0,0,37.578079,-122.036497,6106,CA,63315,2013,6,SingleFamily,1968,625720,682035,581920,-4178,94555,25047312
491,0,3516 Darwin Dr,2,3,Fremont,7662,9/5/2012,365000,37.577138,-122.034018,7662,CA,365000,2013,7,SingleFamily,1968,637831,688857,593183,-719,94555,25047385
492,0,34451 Bentley Pl,2,4,Fremont,6090,8/15/2003,466000,37.577497,-122.035462,6090,CA,537557,2013,7,SingleFamily,1968,729893,766388,686099,2614,94555,25047362
493,0,3553 Johnson Ct,2,3,Fremont,10206,5/10/2005,630000,37.577002,-122.03367,10206,CA,550000,2013,0,SingleFamily,1980,641896,693248,584125,-520,94555,25052635
494,0,3547 Johnson Ct,0,0,Fremont,6698,0,0,37.576914,-122.033432,6698,CA,225419,2013,0,SingleFamily,1980,743993,781193,691913,9005,94555,25052636
495,0,3655 Chaucer Dr,2,3,Fremont,6414,6/19/2007,560000,37.576608,-122.036263,6414,CA,537000,2013,7,SingleFamily,1971,641071,685946,589785,-853,94555,25047954
496,0,34235 Cornwallis Pl,2,3,Fremont,6751,0,0,37.57808,-122.038227,6751,CA,159119,2013,6,SingleFamily,1968,622938,703920,541956,2183,94555,25047282
497,0,34139 Bowling Green Cmn,1.5,3,Fremont,901,0,0,37.576992,-122.037861,901,CA,77862,2013,6,Condominium,1970,290359,325202,243902,-392,94555,25047897
498,0,3667 Gainsborough Ter,1.5,3,Fremont,901,5/16/2002,250000,37.576382,-122.037187,901,CA,293000,2013,6,Condominium,1970,285387,336757,234017,-585,94555,25047965
499,0,3737 Gainsborough Ter,1.5,2,Fremont,780,2/17/1989,97000,37.576077,-122.037193,780,CA,147817,2013,5,Condominium,1970,295285,339578,242134,2616,94555,25047959
500,0,34103 Aberdeen Ter,2.5,4,Fremont,1027,0,0,37.577261,-122.039077,1027,CA,167628,2013,7,Condominium,1970,419121,469416,373018,259,94555,25047949
501,0,34104 Chamberlain Ter,2.5,4,Fremont,1027,8/26/2005,465000,37.576885,-122.038224,1027,CA,328000,2013,7,Condominium,1970,417221,467288,375499,-476,94555,25047901
502,0,34105 Chamberlain Ter,1.5,2,Fremont,780,10/23/1992,126500,37.577034,-122.038537,780,CA,177384,2013,5,Condominium,1970,295389,330836,265850,4012,94555,25047923
503,0,34108 Bowling Green Cmn,2,4,Fremont,1610,4/30/2004,372500,37.576619,-122.037721,1610,CA,308000,2013,7,Condominium,1970,402207,434384,366008,1098,94555,25047981
504,0,34114 Chamberlain Ter,1.5,3,Fremont,901,12/11/2001,260000,37.576942,-122.038193,901,CA,293000,2013,6,Condominium,1970,286048,320374,251722,2068,94555,25047902
505,0,34118 Bowling Green Cmn,1.5,2,Fremont,780,3/23/2012,212000,37.576687,-122.037682,780,CA,216240,2013,5,Condominium,1970,295651,328173,257216,3703,94555,25047980
506,0,34119 Bowling Green Cmn,1.5,2,Fremont,780,8/31/2004,284000,37.576829,-122.037991,780,CA,233000,2013,5,Condominium,1970,294087,326437,258797,3498,94555,25047899
507,0,34122 Aberdeen Ter,1.5,3,Fremont,901,1/26/1999,162000,37.577204,-122.038695,901,CA,205980,2013,6,Condominium,1970,286440,320813,246338,2041,94555,25047925
508,0,34123 Aberdeen Ter,1.5,2,Fremont,780,7/30/1999,165000,37.577351,-122.038997,780,CA,205937,2013,5,Condominium,1970,300477,333529,264420,3339,94555,25047947
509,0,34124 Chamberlain Ter,1.5,2,Fremont,780,1/7/2010,222000,37.576991,-122.038156,780,CA,232706,2013,5,Condominium,1970,294766,327190,262342,3391,94555,25047903
510,0,34125 Chamberlain Ter,2.5,4,Fremont,1027,3/1/2004,353000,37.577134,-122.038473,1027,CA,328000,2013,7,Condominium,1970,417217,467283,375495,-364,94555,25047921
511,0,34128 Bowling Green Cmn,1.5,2,Fremont,780,9/2/2003,268000,37.576733,-122.037649,780,CA,220000,2013,5,Condominium,1970,294825,327256,259446,4549,94555,25047979
512,0,34132 Aberdeen Ter,1.5,2,Fremont,780,6/22/1990,130000,37.577254,-122.038658,780,CA,194221,2013,5,Condominium,1970,294384,326766,262002,3539,94555,25047926
513,0,34133 Aberdeen Ter,1.5,3,Fremont,901,11/15/1999,182000,37.5774,-122.03896,901,CA,227155,2013,6,Condominium,1970,287904,325332,244718,1190,94555,25047946
514,0,34135 Chamberlain Ter,2.5,4,Fremont,1027,11/22/2002,310545,37.577187,-122.038433,1027,CA,328000,2013,7,Condominium,1970,416571,466560,374914,87,94555,25047920
515,0,34142 Aberdeen Ter,1.5,2,Fremont,780,9/16/2005,402000,37.5773,-122.038623,780,CA,233000,2013,5,Condominium,1970,293168,319553,255056,2957,94555,25047927
516,0,34143 Aberdeen Ter,1,2,Fremont,1412,2/25/2005,358000,37.577468,-122.038909,1412,CA,216000,2013,5,Condominium,1970,294389,329716,264950,1612,94555,25047945
517,0,34144 Chamberlain Ter,1.5,3,Fremont,901,8/4/2006,435000,37.577086,-122.038084,901,CA,277120,2013,6,Condominium,1970,290603,322569,249919,715,94555,25047905
518,0,34148 Bowling Green Cmn,1.5,3,Fremont,901,5/6/2004,335000,37.576835,-122.037556,901,CA,293000,2013,6,Condominium,1970,287025,321468,241101,622,94555,25047978
519,0,34149 Bowling Green Cmn,1.5,2,Fremont,780,2/3/2004,285000,37.577031,-122.037808,780,CA,233000,2013,5,Condominium,1970,295963,328519,260447,4010,94555,25047896
520,0,34155 Chamberlain Ter,1.5,2,Fremont,780,8/31/1998,139000,37.577278,-122.038354,780,CA,176954,2013,5,Condominium,1970,299153,329068,263255,3870,94555,25047918
521,0,34159 Bowling Green Cmn,1.5,2,Fremont,780,2/13/2004,62000,37.577068,-122.037758,780,CA,233000,2013,5,Condominium,1970,294851,333182,256520,3861,94555,25047895
522,0,34163 Aberdeen Ter,1,2,Fremont,871,12/2/2005,410000,37.577604,-122.038805,871,CA,200940,2013,5,Townhouse,1970,362255,398480,329652,865,94555,25047943
523,0,34164 Chamberlain Ter,1.5,2,Fremont,780,7/2/2003,268000,37.577175,-122.038007,780,CA,233000,2013,5,Condominium,1970,293475,325757,261193,4845,94555,25047906
524,0,34165 Chamberlain Ter,2.5,4,Fremont,1027,6/22/2005,465000,37.577374,-122.038273,1027,CA,328000,2013,7,Condominium,1970,416646,466644,374981,-167,94555,25047917
525,0,34168 Bowling Green Cmn,1,2,Fremont,780,6/25/2009,205000,37.576917,-122.037448,780,CA,214376,2013,5,Condominium,1970,303839,334223,276493,4488,94555,25047976
526,0,34158 Bowling Green Cmn,1.5,3,Fremont,914,12/31/2002,270000,37.576877,-122.0375,914,CA,317548,2013,6,Condominium,1970,219873,257251,178097,-904,94555,25047977
527,0,34173 Aberdeen Ter,2.5,4,Fremont,1027,12/11/2009,260000,37.577658,-122.038778,1027,CA,272538,2013,7,Townhouse,1970,541202,600734,449198,5877,94555,25047942
528,0,34174 Chamberlain Ter,1.5,3,Fremont,871,8/13/2010,279000,37.577215,-122.037955,871,CA,290271,2013,6,Townhouse,1970,397480,453127,333883,3305,94555,25047907
529,0,34175 Chamberlain Ter,1.5,2,Fremont,780,8/5/2005,400000,37.577409,-122.038214,780,CA,233000,2013,5,Condominium,1970,296146,322799,263570,3797,94555,25047916
530,0,34178 Bowling Green Cmn,1,2,Fremont,1610,10/19/2010,221000,37.576962,-122.037373,1610,CA,190000,2013,5,Condominium,1970,298802,331670,268922,3413,94555,25047975
531,0,34179 Bowling Green Cmn,2.5,4,Fremont,1027,1/31/2014,362000,37.577154,-122.037657,1027,CA,232891,2013,7,Townhouse,1970,424070,474958,381663,-2000,94555,25047893
532,0,34182 Aberdeen Ter,2,4,Fremont,1610,9/26/2007,425454,37.577533,-122.038435,1610,CA,304000,2013,7,Townhouse,1970,531597,584757,457173,4091,94555,25047930
533,0,34183 Aberdeen Ter,2.5,4,Fremont,1027,3/18/2005,435000,37.577711,-122.038738,1027,CA,328000,2013,7,Condominium,1970,418104,468276,376294,-262,94555,25047941
534,0,34184 Chamberlain Ter,1.5,2,Fremont,780,3/31/2011,40000,37.577256,-122.037903,780,CA,233000,2013,5,Condominium,1970,292704,330756,257580,3659,94555,25047908
535,0,34185 Chamberlain Ter,1.5,2,Fremont,780,7/31/2003,265000,37.577446,-122.038166,780,CA,233000,2013,5,Condominium,1970,294369,326750,256101,3951,94555,25047915
536,0,34192 Aberdeen Ter,1.5,3,Fremont,871,12/2/2011,215000,37.577605,-122.038393,871,CA,219300,2013,6,Condominium,1970,281879,315704,242416,2061,94555,25047931
537,0,34193 Aberdeen Ter,1.5,2,Fremont,780,1/23/1998,105000,37.577756,-122.038692,780,CA,136147,2013,5,Condominium,1970,295646,322254,260168,4374,94555,25047940
538,0,34194 Chamberlain Ter,1,3,Fremont,901,4/30/2010,275000,37.577296,-122.037852,901,CA,288262,2013,6,Townhouse,1970,394475,445757,335304,2098,94555,25047909
539,0,34195 Chamberlain Ter,1.5,3,Fremont,901,8/16/2007,160000,37.57752,-122.038071,901,CA,293000,2013,6,Condominium,1970,286063,323251,240293,174,94555,25047914
540,0,34202 Aberdeen Ter,1.5,2,Fremont,780,11/26/2003,260000,37.577654,-122.038356,780,CA,233000,2013,5,Condominium,1970,292046,324171,257000,4229,94555,25047932
541,0,34203 Aberdeen Ter,2,2,Fremont,779,11/12/2013,326000,37.5778,-122.038658,779,CA,233000,2013,5,Condominium,1970,303665,334031,276335,9819,94555,25047939
542,0,34205 Chamberlain Ter,1.5,3,Fremont,901,7/22/1999,176500,37.577563,-122.038017,901,CA,215922,2013,6,Condominium,1970,289151,326741,239995,1024,94555,25047913
543,0,34212 Aberdeen Ter,1.5,2,Fremont,871,6/20/2012,205000,37.577699,-122.038321,871,CA,209100,2013,5,Condominium,1970,291508,329404,253612,4477,94555,25047933
544,0,34213 Aberdeen Ter,1.5,3,Fremont,901,5/18/2006,428000,37.577897,-122.038583,901,CA,295000,2013,6,Condominium,1970,283915,326502,241328,543,94555,25047938
545,0,34215 Chamberlain Ter,1.5,2,Fremont,780,6/11/2009,210000,37.577603,-122.037965,780,CA,219604,2013,5,SingleFamily,1970,360485,403743,317227,206,94555,25047912
546,0,34216 Auckland Pl,3,4,Fremont,8554,0,0,37.579608,-122.037292,8554,CA,94347,2013,9,SingleFamily,1968,778351,848403,700516,5700,94555,25047300
547,0,34217 Auckland Pl,2,3,Fremont,9547,10/26/2001,385000,37.579398,-122.037468,9547,CA,461860,2013,7,SingleFamily,1970,739841,791630,680654,3145,94555,25047299
548,0,34218 Thornhill Pl,2,3,Fremont,9744,2/14/2011,475000,37.579053,-122.037724,9744,CA,494190,2013,8,SingleFamily,1968,700117,756126,644108,845,94555,25047292
549,0,34219 Thornhill Pl,2,4,Fremont,8392,0,0,37.578831,-122.037867,8392,CA,76517,2013,8,SingleFamily,1968,667434,727503,600691,-1855,94555,25047291
550,0,34220 Cornwallis Pl,2,4,Fremont,7923,0,0,37.578486,-122.03812,7923,CA,65107,2013,8,SingleFamily,1968,651922,736672,593249,1529,94555,25047284
551,0,34221 Cornwallis Pl,2,4,Fremont,8736,0,0,37.578242,-122.038332,8736,CA,64111,2013,8,SingleFamily,1968,649605,740550,545668,3779,94555,25047283
552,0,34222 Aberdeen Ter,1.5,3,Fremont,901,10/15/2004,332000,37.577749,-122.038283,901,CA,295000,2013,6,Condominium,1970,283834,323571,241259,1151,94555,25047934
553,0,34225 Chamberlain Ter,2,3,Fremont,1610,8/9/1991,140000,37.577661,-122.037905,1610,CA,201040,2013,6,Condominium,1970,390630,437506,343754,-2625,94555,25047911
554,0,34233 Aberdeen Ter,1,3,Fremont,1610,0,0,37.578015,-122.038506,1610,CA,41214,2013,6,Condominium,1970,301607,334784,271446,1278,94555,25047936
555,0,34234 Cornwallis Pl,2,3,Fremont,6638,3/31/2004,450000,37.578481,-122.037892,6638,CA,519547,2013,7,SingleFamily,1968,661202,707486,601694,642,94555,25047285
556,0,34236 Auckland Pl,2,3,Fremont,7278,8/16/1999,242500,37.579639,-122.037056,7278,CA,302291,2013,6,SingleFamily,1968,636123,680652,578872,1684,94555,25047301
557,0,34237 Auckland Pl,2,3,Fremont,7007,8/2/2000,352000,37.579224,-122.037369,7007,CA,430713,2013,6,SingleFamily,1968,642595,681151,591187,3118,94555,25047298
558,0,34238 Thornhill Pl,2,3,Fremont,7027,2/19/2010,525000,37.579065,-122.037488,7027,CA,550320,2013,6,SingleFamily,1968,636496,681051,579211,2077,94555,25047293
559,0,3424 Darwin Dr,2,3,Fremont,5800,11/30/2001,350000,37.577715,-122.033481,5800,CA,419873,2013,7,SingleFamily,1968,636935,694259,592350,-1682,94555,25047389
560,0,34247 Cornwallis Pl,2,4,Fremont,5478,0,0,37.577989,-122.037979,5478,CA,178308,2013,8,SingleFamily,1968,629970,711866,548074,3918,94555,25047281
561,0,34248 Cornwallis Pl,2,4,Fremont,5494,5/13/1988,168000,37.578343,-122.037685,5494,CA,261133,2013,8,SingleFamily,1968,651248,690323,599148,195,94555,25047286
562,0,34255 Auckland Pl,2,3,Fremont,5899,3/5/2008,550000,37.57913,-122.037107,5899,CA,521000,2013,7,SingleFamily,1968,660496,700126,607656,-268,94555,25047297
563,0,34256 Thornhill Pl,2,3,Fremont,5688,3/29/1990,236000,37.578926,-122.037264,5688,CA,63711,2013,6,SingleFamily,1968,613140,662191,570220,-3087,94555,25047294
564,0,34263 Cornwallis Pl,2,4,Fremont,6534,3/22/2013,811000,37.577907,-122.037787,6534,CA,426563,2013,11,SingleFamily,1968,825169,907686,643632,2831,94555,25047280
565,0,34272 Auckland Pl,2,4,Fremont,6214,11/7/2000,444000,37.579391,-122.036651,6214,CA,543287,2013,8,SingleFamily,1968,686335,734378,617702,5091,94555,25047303
566,0,34273 Auckland Pl,2,4,Fremont,6354,0,0,37.579052,-122.036912,6354,CA,75007,2013,8,SingleFamily,1968,671454,711741,611023,1442,94555,25047296
567,0,34274 Thornhill Pl,2,3,Fremont,6354,0,0,37.578822,-122.037091,6354,CA,63315,2013,7,SingleFamily,1968,656367,695749,597294,3120,94555,25047295
568,0,34275 Thornhill Pl,2,4,Fremont,6401,0,0,37.578486,-122.037349,6401,CA,206466,2013,8,SingleFamily,1968,690652,738998,621587,2524,94555,25047288
569,0,34276 Cornwallis Pl,2,4,Fremont,6679,0,0,37.578239,-122.037506,6679,CA,70283,2013,8,SingleFamily,1968,685128,733087,616615,2318,94555,25047287
570,0,34277 Cornwallis Pl,2,3,Fremont,6077,3/3/1998,216000,37.577859,-122.037571,6077,CA,280075,2013,7,SingleFamily,1968,642777,713482,591355,-1986,94555,25047279
571,0,34309 Auckland Ct,2,3,Fremont,6214,5/22/1987,150000,37.578894,-122.036594,6214,CA,237816,2013,7,SingleFamily,1968,633331,683997,582665,2924,94555,25047320
572,0,34311 Thornhill Ct,2,3,Fremont,6301,9/8/2000,410000,37.578331,-122.03703,6301,CA,501683,2013,7,SingleFamily,1968,660386,700009,607555,969,94555,25047309
573,0,34324 Auckland Ct,2,3,Fremont,5800,4/15/1987,147500,37.579143,-122.036154,5800,CA,233853,2013,7,SingleFamily,1968,657335,703348,604748,2516,94555,25047330
574,0,34325 Auckland Ct,2,3,Fremont,5800,9/28/1995,204000,37.578808,-122.036413,5800,CA,312150,2013,6,SingleFamily,1968,684747,725832,629967,-5811,94555,25047321
575,0,34327 Thornhill Ct,2,4,Fremont,5800,4/30/1996,232500,37.578243,-122.03685,5800,CA,313648,2013,8,SingleFamily,1968,699850,741841,636864,-3015,94555,25047310
576,0,34336 Cornwallis Ct,2,4,Fremont,7298,1/5/1989,208363,37.578004,-122.036918,7298,CA,318494,2013,9,SingleFamily,1968,671788,718813,618045,-1858,94555,25047307
577,0,34340 Auckland Ct,2,4,Fremont,5662,7/29/2009,550000,37.579059,-122.035984,5662,CA,536000,2013,8,SingleFamily,1968,675873,729943,608286,4358,94555,25047329
578,0,34343 Thornhill Ct,2,3,Fremont,5800,0,0,37.578159,-122.03668,5800,CA,92888,2013,7,SingleFamily,1968,623885,673796,580213,4228,94555,25047311
579,0,34356 Auckland Ct,2,3,Fremont,5800,7/23/1993,220000,37.578975,-122.035813,5800,CA,344059,2013,7,SingleFamily,1968,654988,694287,596039,-1837,94555,25047328
580,0,34357 Auckland Ct,2,4,Fremont,5800,0,0,37.578641,-122.036072,5800,CA,76655,2013,8,SingleFamily,1968,676922,724307,615999,3731,94555,25047323
581,0,34358 Thornhill Ct,2,3,Fremont,5800,9/30/2008,470000,37.578406,-122.036252,5800,CA,491497,2013,7,SingleFamily,1968,654730,700561,602352,-652,94555,25047316
582,0,34360 Cornwallis Ct,2,4,Fremont,6482,8/1/1997,236000,37.577849,-122.036702,6482,CA,306008,2013,8,SingleFamily,1968,671617,705198,611171,2061,94555,25047306
583,0,34372 Auckland Ct,2,3,Fremont,6396,0,0,37.578891,-122.035626,6396,CA,62718,2013,6,SingleFamily,1968,631363,688186,580854,-430,94555,25047327
584,0,34373 Auckland Ct,2,3,Fremont,6396,0,0,37.578546,-122.035894,6396,CA,70400,2013,7,SingleFamily,1968,651847,690958,599699,1721,94555,25047324
585,0,34374 Thornhill Ct,3,5,Fremont,5823,0,0,37.578334,-122.03606,5823,CA,130906,2013,9,SingleFamily,1968,772230,834008,695007,8479,94555,25047315
586,0,34381 Thornhill Ct,2,4,Fremont,6538,5/16/2007,660000,37.577944,-122.036363,6538,CA,520000,2013,8,SingleFamily,1968,670380,710603,610046,1376,94555,25047313
587,0,34388 Auckland Ct,2,4,Fremont,5865,8/29/2003,459000,37.578801,-122.035406,5865,CA,529937,2013,8,SingleFamily,1968,668550,708663,608381,883,94555,25047326
588,0,34389 Auckland Ct,2,4,Fremont,5865,9/29/1989,252000,37.578429,-122.035695,5865,CA,376342,2013,8,SingleFamily,1968,665330,705250,612104,701,94555,25047325
589,0,34420 Redgrave Pl,2,4,Fremont,7480,5/25/2007,670000,37.577609,-122.036252,7480,CA,515000,2013,8,SingleFamily,1968,673340,720474,619473,-3147,94555,25047369
590,0,34423 Helston Pl,2,4,Fremont,6236,11/27/2002,435500,37.578769,-122.034668,6236,CA,512195,2013,7,SingleFamily,1968,677460,718108,609714,3816,94555,25047332
591,0,34424 Bridgewater Pl,2,3,Fremont,6593,3/12/1980,90000,37.578553,-122.034862,6593,CA,159119,2013,6,SingleFamily,1968,624296,674240,574352,1273,94555,25047345
592,0,34425 Bridgewater Pl,2,3,Fremont,7199,9/30/1996,215000,37.578209,-122.035229,7199,CA,284354,2013,7,SingleFamily,1968,649790,701773,597807,164,94555,25047346
593,0,34427 Bentley Pl,2,4,Fremont,9432,0,0,37.577743,-122.035895,9432,CA,75659,2013,8,SingleFamily,1968,656889,702871,597769,-3178,94555,25047360
594,0,34431 Helston Pl,2,3,Fremont,6243,11/12/2010,520000,37.578631,-122.034492,6243,CA,474000,2013,6,SingleFamily,1968,639648,684423,582080,1409,94555,25047333
595,0,34432 Bridgewater Pl,2,3,Fremont,5910,11/13/1998,279000,37.578443,-122.034652,5910,CA,355183,2013,6,SingleFamily,1968,625871,682199,575801,1296,94555,25047344
596,0,34433 Bridgewater Pl,8.5,5,Fremont,6190,3/12/1993,288000,37.578074,-122.035033,6190,CA,405451,2013,8,SingleFamily,1976,853973,939370,777115,-651,94555,25047347
597,0,34434 Redgrave Pl,2,3,Fremont,6012,6/20/1989,223000,37.577536,-122.03603,6012,CA,339828,2013,6,SingleFamily,1968,626130,682482,582301,-5299,94555,25047368
598,0,34439 Bentley Pl,2,4,Fremont,6728,6/16/2000,485000,37.577589,-122.035654,6728,CA,605333,2013,8,SingleFamily,1968,795002,866552,731402,3547,94555,25047361
599,0,34439 Helston Pl,2,3,Fremont,5800,6/3/1999,248000,37.578539,-122.034301,5800,CA,295870,2008,6,SingleFamily,1968,663048,702831,610004,984,94555,25047334
600,0,34440 Bridgewater Pl,2,3,Fremont,5797,0,0,37.578318,-122.034503,5797,CA,64310,2013,7,SingleFamily,1968,655206,694518,609342,732,94555,25047343
601,0,34441 Bridgewater Pl,2,3,Fremont,6084,7/15/2004,560000,37.57799,-122.034837,6084,CA,391894,2013,7,SingleFamily,1968,655686,701584,609788,-835,94555,25047348
602,0,34442 Bentley Pl,2,4,Fremont,6069,9/4/2009,591000,37.577835,-122.03518,6069,CA,600000,2013,8,SingleFamily,1968,718320,754236,668038,2043,94555,25047357
603,0,34447 Helston Pl,2,3,Fremont,5800,2/15/2007,665000,37.578441,-122.034143,5800,CA,526000,2013,7,SingleFamily,1968,703397,752635,640091,-3876,94555,25047335
604,0,34447 Redgrave Pl,2,3,Fremont,6319,3/13/2008,590000,37.577104,-122.036324,6319,CA,522000,2013,7,SingleFamily,1968,648658,687577,596765,-2853,94555,25047371
605,0,34448 Bridgewater Pl,2,3,Fremont,5800,3/3/2009,550000,37.57822,-122.034348,5800,CA,522000,2013,6,SingleFamily,1968,684114,732002,629385,-1492,94555,25047342
606,0,34448 Redgrave Pl,2,3,Fremont,6009,0,0,37.577394,-122.035881,6009,CA,74761,2013,7,SingleFamily,1968,643274,688303,591812,-839,94555,25047367
607,0,34449 Bridgewater Pl,2,4,Fremont,6090,6/29/1990,258000,37.577893,-122.034681,6090,CA,385457,2013,9,SingleFamily,1968,731204,767764,680020,-214,94555,25047349
608,0,34455 Helston Pl,2,4,Fremont,5800,8/1/1997,234000,37.578341,-122.033986,5800,CA,303415,2013,8,SingleFamily,1968,702655,765894,632390,1967,94555,25047336
609,0,34455 Redgrave Pl,2,5,Fremont,6658,7/2/1998,270000,37.577029,-122.036146,6658,CA,343725,2013,9,SingleFamily,1968,678097,725564,610287,-1351,94555,25047372
610,0,34457 Bridgewater Pl,2,3,Fremont,6193,0,0,37.577791,-122.034525,6193,CA,67574,2013,7,SingleFamily,1968,655682,695023,609784,1229,94555,25047350
611,0,34458 Bentley Pl,2,3,Fremont,6666,5/9/2000,400000,37.57764,-122.034853,6666,CA,499243,2013,7,SingleFamily,1968,647207,692511,595430,161,94555,25047355
612,0,34463 Bentley Pl,2,4,Fremont,6460,9/11/2012,482000,37.577404,-122.035287,6460,CA,482000,2013,8,SingleFamily,1968,698459,740367,628613,3336,94555,25047363
613,0,34463 Helston Pl,2,3,Fremont,5800,1/23/1997,205000,37.578243,-122.033829,5800,CA,271128,2013,7,SingleFamily,1968,652856,692027,607156,705,94555,25047337
614,0,34464 Bridgewater Pl,2,3,Fremont,5800,5/9/2008,545000,37.578022,-122.034031,5800,CA,526000,2013,7,SingleFamily,1968,647088,692384,595321,-3034,94555,25047340
615,0,34465 Bridgewater Pl,2,4,Fremont,7063,8/16/2011,515000,37.577676,-122.034381,7063,CA,525300,2013,8,SingleFamily,1968,696712,745482,634008,1069,94555,25047351
616,0,34466 Bentley Pl,2,4,Fremont,7748,7/29/2002,465000,37.577503,-122.034695,7748,CA,546890,2013,8,SingleFamily,1968,677221,731399,623043,-90,94555,25047354
617,0,34471 Helston Pl,2,4,Fremont,6323,4/16/2013,700000,37.578138,-122.033667,6323,CA,520000,2013,8,SingleFamily,1968,723653,781545,651288,214,94555,25047338
618,0,34472 Bridgewater Pl,2,4,Fremont,6310,7/26/1994,218000,37.57792,-122.033866,6310,CA,309894,2013,8,SingleFamily,1968,713643,770734,642279,-693,94555,25047339
