id,address,bathroom,bedroom,city,formattedSqft,lastSaleDate,lastSalePrice,latitude,longitude,stateCode,typeDisplay,price,formattedTruliaEstimate,zipCode,neighborhood,walkScore,transitScore,status,county
1,3995 Lake Tahoe Ter,1.0,2.0,Fremont,991 sqft,"Mar 4, 2014","$330,000",37.58376,-122.058044,CA,Townhouse,330000,"$412,000",94555,Lakes and Birds,,,Sold,ALAMEDA
2,41769 Sherwood St,2.0,3.0,Fremont,"1,118 sqft","Mar 4, 2014","$739,000",37.52485,-121.96429,CA,Single-Family Home,739000,"$707,000",94538,Irvington,,,Sold,ALAMEDA
3,37743 Elmore Ct,3.0,4.0,Fremont,"2,313 sqft","Mar 4, 2014","$900,000",37.540154,-122.01461,CA,Single-Family Home,900000,"$967,000",94536,Glenmoor,,,Sold,ALAMEDA
4,42742 Hamilton Way,2.0,3.0,Fremont,"1,156 sqft","Mar 4, 2014","$586,000",37.521523,-121.955505,CA,Single-Family Home,586000,"$661,000",94538,Grimmer,,,Sold,ALAMEDA
5,6189 Linford Ter,2.5,2.0,Fremont,"1,249 sqft","Mar 4, 2014","$685,000",37.554054,-122.060524,CA,Single-Family Home,685000,"$652,000",94555,Ardenwood,,,Sold,ALAMEDA
6,4535 Amiens Ave,2.0,3.0,Fremont,"1,504 sqft","Mar 4, 2014","$740,000",37.572014,-122.050255,CA,Single-Family Home,740000,"$843,000",94555,Ardenwood,,,Sold,ALAMEDA
7,38890 Helen Way,2.0,3.0,Fremont,"1,338 sqft","Mar 4, 2014","$679,000",37.54184,-121.99579,CA,Single-Family Home,679000,"$732,000",94536,Glenmoor,,,Sold,ALAMEDA
8,3780 Goldfinch Ter,2.5,4.0,Fremont,"1,853 sqft","Mar 4, 2014","$725,000",37.580673,-122.04737,CA,Single-Family Home,725000,"$802,000",94555,Northgate,,,Sold,ALAMEDA
9,41454 Erma Ave,2.0,4.0,Fremont,"1,134 sqft","Mar 4, 2014","$930,000",37.537457,-121.94753,CA,Single-Family Home,930000,"$974,000",94539,Mission Valley,,,Sold,ALAMEDA
10,2886 Cooper Pl,2.0,3.0,Fremont,"1,585 sqft","Mar 4, 2014","$790,000",37.58573,-122.03781,CA,Single-Family Home,790000,"$756,000",94555,Northgate,,,Sold,ALAMEDA
11,39951 Fremont Blvd #24,2.0,2.0,Fremont,"1,146 sqft","Mar 4, 2014","$410,000",37.54082,-121.97438,CA,Condo,410000,"$461,000",94538,Sundale,,,Sold,ALAMEDA
12,38801 Tyson Ln,2.5,4.0,Fremont,"1,579 sqft","Feb 28, 2014","$805,000",37.561764,-121.97445,CA,Single-Family Home,805000,"$876,000",94536,Cherry - Guardino,,,Sold,ALAMEDA
13,5457 Alamo Ter,2.5,3.0,Fremont,"1,481 sqft","Feb 28, 2014","$789,000",37.56274,-122.06038,CA,Single-Family Home,789000,"$761,000",94555,Ardenwood,,,Sold,ALAMEDA
14,751 Wichitaw Dr,2.0,3.0,Fremont,"1,542 sqft","Feb 28, 2014","$955,000",37.486145,-121.91863,CA,Single-Family Home,955000,"$1,016,000",94539,Warm Springs,,,Sold,ALAMEDA
15,3695 Stevenson Blvd #A241,2.0,2.0,Fremont,"1,040 sqft","Feb 28, 2014","$390,000",37.543167,-121.97366,CA,Condo,390000,"$421,000",94538,Central Downtown,,,Sold,ALAMEDA
16,40342 Linaria Cir,2.5,4.0,Fremont,"1,614 sqft","Feb 28, 2014","$755,000",37.523903,-121.98211,CA,Single-Family Home,755000,"$874,000",94538,Blacow,,,Sold,ALAMEDA
17,37248 Meadowbrook Cmn #204,2.0,2.0,Fremont,"1,123 sqft","Feb 28, 2014","$326,000",37.56101,-122.00573,CA,Condo,326000,"$417,000",94536,Centerville,,,Sold,ALAMEDA
18,3707 Langdon Cmn,2.5,3.0,Fremont,"1,637 sqft","Feb 28, 2014","$769,000",37.546284,-121.97697,CA,Townhouse,769000,"$726,000",94538,Central Downtown,,,Sold,ALAMEDA
19,254 Rosado Rd,2.5,4.0,Fremont,"2,095 sqft","Feb 28, 2014","$1,182,000",37.551853,-121.94591,CA,Single-Family Home,1182000,"$1,225,000",94539,Kimber - Gomes,,,Sold,ALAMEDA
20,39874 Sundale Dr,2.0,4.0,Fremont,"1,494 sqft","Feb 28, 2014","$552,000",37.531094,-121.983284,CA,Single-Family Home,552000,"$667,000",94538,Sundale,,,Sold,ALAMEDA
21,49094 Rose Ter,2.5,3.0,Fremont,"1,584 sqft","Feb 28, 2014","$756,000",37.459785,-121.91605,CA,Condo,756000,"$810,000",94539,East Industrial,,,Sold,ALAMEDA
22,3642 Franklin Ave,2.0,3.0,Fremont,"1,151 sqft","Feb 28, 2014","$595,000",37.52352,-121.95279,CA,Single-Family Home,595000,"$630,000",94538,Grimmer,,,Sold,ALAMEDA
23,4463 Hyde Cmn #302,2.0,2.0,Fremont,"1,244 sqft","Feb 28, 2014","$503,500",37.531418,-121.96591,CA,Condo,503500,"$558,000",94538,Irvington,,,Sold,ALAMEDA
24,4255 Mockingbird Way,2.5,4.0,Fremont,"2,293 sqft","Feb 28, 2014","$888,000",37.57933,-122.05884,CA,Single-Family Home,888000,"$858,000",94555,Lakes and Birds,,,Sold,ALAMEDA
25,42271 Forsythia Dr,2.0,4.0,Fremont,"1,931 sqft","Feb 28, 2014","$1,580,000",37.537876,-121.9354,CA,Single-Family Home,1580000,"$1,303,000",94539,Mission Valley,,,Sold,ALAMEDA
26,38812 Stillwater Cmn,3.0,4.0,Fremont,"1,563 sqft","Feb 28, 2014","$734,000",37.563915,-121.96886,CA,Single-Family Home,734000,"$767,000",94536,Cherry - Guardino,,,Sold,ALAMEDA
27,4441 Bush Cir,2.5,4.0,Fremont,"1,917 sqft","Feb 28, 2014","$812,500",37.51432,-121.959625,CA,Single-Family Home,812500,"$847,000",94538,Grimmer,,,Sold,ALAMEDA
28,4941 Mattos Dr,4.0,5.0,Fremont,"2,873 sqft","Feb 28, 2014","$1,210,000",37.542355,-122.00735,CA,Single-Family Home,1210000,"$1,126,000",94536,Glenmoor,,,Sold,ALAMEDA
29,758 Covina Way,2.0,2.0,Fremont,"1,010 sqft","Feb 28, 2014","$990,000",37.484776,-121.91799,CA,Single-Family Home,990000,"$795,000",94539,Warm Springs,,,Sold,ALAMEDA
30,4161 Trinidad Ter,1.5,3.0,Fremont,"1,166 sqft","Feb 28, 2014","$380,000",37.571705,-122.037964,CA,Townhouse,380000,"$408,000",94555,Northgate,,,Sold,ALAMEDA
31,4467 Maybeck Ter,3.5,3.0,Fremont,"2,036 sqft","Feb 28, 2014","$690,000",37.552128,-122.009674,CA,Single-Family Home,690000,"$810,000",94536,Centerville,,,Sold,ALAMEDA
32,300 Mackintosh Ter,4.5,5.0,Fremont,"3,940 sqft","Feb 28, 2014","$2,050,000",37.555984,-121.94393,CA,Single-Family Home,2050000,"$2,166,000",94539,Kimber - Gomes,,,Sold,ALAMEDA
33,4413 Elaiso Cmn,2.5,4.0,Fremont,"1,474 sqft","Feb 27, 2014","$468,000",37.556484,-122.01851,CA,Townhouse,468000,"$499,000",94536,Cabrillo,,,Sold,ALAMEDA
34,5255 Fairbanks Cmn,2.0,2.0,Fremont,"1,050 sqft","Feb 27, 2014","$480,000",37.560772,-122.05116,CA,Single-Family Home,480000,"$527,000",94555,Ardenwood,,,Sold,ALAMEDA
35,999 Seminole Cmn,4.0,3.0,Fremont,"4,061 sqft","Feb 27, 2014","$2,500,000",37.51456,-121.92527,CA,Single-Family Home,2500000,"$1,898,000",94539,Weibel,,,Sold,ALAMEDA
36,32419 Lake Temescal Ln,2.0,3.0,Fremont,"1,346 sqft","Feb 27, 2014","$725,000",37.590473,-122.06125,CA,Single-Family Home,725000,"$728,000",94555,,,,Sold,ALAMEDA
37,3183 Puttenham Way,2.0,3.0,Fremont,"1,579 sqft","Feb 27, 2014","$758,000",37.56896,-122.01206,CA,Single-Family Home,758000,"$775,000",94536,Brookvale,,,Sold,ALAMEDA
38,4343 Delaware Dr,2.0,3.0,Fremont,"1,104 sqft","Feb 26, 2014","$601,500",37.518257,-121.9601,CA,Single-Family Home,601500,"$622,000",94538,Grimmer,,,Sold,ALAMEDA
39,42939 Fremont Blvd,2.0,3.0,Fremont,"1,104 sqft","Feb 26, 2014","$580,000",37.519516,-121.95594,CA,Single-Family Home,580000,"$612,000",94538,Grimmer,,,Sold,ALAMEDA
40,5131 Amberwood Dr,3.0,3.0,Fremont,"2,190 sqft","Feb 26, 2014","$950,000",37.564556,-122.0532,CA,Single-Family Home,950000,"$1,002,000",94555,Ardenwood,,,Sold,ALAMEDA
41,40732 Laguna Pl,2.0,4.0,Fremont,"1,514 sqft","Feb 26, 2014","$1,030,000",37.54816,-121.94922,CA,Single-Family Home,1030000,"$1,107,000",94539,Kimber - Gomes,,,Sold,ALAMEDA
42,1494 Shinn Ct,2.0,3.0,Fremont,"1,487 sqft","Feb 26, 2014","$740,000",37.563995,-121.98294,CA,Single-Family Home,740000,"$819,000",94536,Parkmont,,,Sold,ALAMEDA
43,798 Mollie Ter,3.0,5.0,Fremont,"2,157 sqft","Feb 26, 2014","$852,000",37.564316,-121.97429,CA,Single-Family Home,852000,"$955,000",94536,Cherry - Guardino,,,Sold,ALAMEDA
44,4063 Murray Cmn,2.0,2.0,Fremont,"1,187 sqft","Feb 25, 2014","$375,000",37.542255,-121.97826,CA,Condo,375000,"$435,000",94538,Sundale,,,Sold,ALAMEDA
45,3731 Boswell Ter,1.5,3.0,Fremont,"1,168 sqft","Feb 25, 2014","$435,000",37.554707,-121.995476,CA,Townhouse,435000,"$461,000",94536,Centerville,,,Sold,ALAMEDA
46,32744 Shaver Lake St,2.5,4.0,Fremont,"1,889 sqft","Feb 25, 2014","$805,000",37.588985,-122.055756,CA,Single-Family Home,805000,"$784,000",94555,Lakes and Birds,,,Sold,ALAMEDA
47,38114 Martha Ave,2.0,2.0,Fremont,"1,230 sqft","Feb 25, 2014","$545,000",37.56009,-121.99169,CA,Single-Family Home,545000,"$625,000",94536,Parkmont,,,Sold,ALAMEDA
48,4857 Porter St,2.0,4.0,Fremont,"1,494 sqft","Feb 25, 2014","$636,000",37.528587,-121.980774,CA,Single-Family Home,636000,"$694,000",94538,South Sundale,,,Sold,ALAMEDA
49,47442 Mantis St,2.0,4.0,Fremont,"1,544 sqft","Feb 25, 2014","$930,000",37.48497,-121.91646,CA,Single-Family Home,930000,"$984,000",94539,Warm Springs,,,Sold,ALAMEDA
50,5207 Reeder Ct,3.0,4.0,Fremont,"2,062 sqft","Feb 25, 2014","$871,000",37.538593,-122.00919,CA,Single-Family Home,871000,"$1,001,000",94536,Glenmoor,,,Sold,ALAMEDA
51,4428 Amador Rd,2.0,4.0,Fremont,"1,696 sqft","Feb 21, 2014","$580,000",37.540833,-121.98892,CA,Single-Family Home,580000,"$674,000",94538,Sundale,,,Sold,ALAMEDA
52,39 Gazania Ter,2.5,3.0,Fremont,"1,378 sqft","Feb 21, 2014","$536,500",37.56774,-121.9648,CA,Single-Family Home,536500,"$667,000",94536,Cherry - Guardino,,,Sold,ALAMEDA
53,3106 Estero Ter,2.5,3.0,Fremont,"2,093 sqft","Feb 21, 2014","$765,000",37.537247,-121.95468,CA,Single-Family Home,765000,"$883,000",94538,Irvington,,,Sold,ALAMEDA
54,33496 Caliban Dr,,,Fremont,"2,052 sqft","Feb 21, 2014","$854,000",37.576244,-122.056625,CA,Single-Family Home,854000,"$891,000",94555,Ardenwood,,,Sold,ALAMEDA
55,39152 Guardino Dr #108,1.0,2.0,Fremont,844 sqft,"Feb 21, 2014","$346,000",37.556625,-121.968506,CA,Condo,346000,"$378,000",94538,Central Downtown,,,Sold,ALAMEDA
56,1014 Barry Way,2.0,4.0,Fremont,"2,170 sqft","Feb 20, 2014","$895,000",37.56395,-121.97635,CA,Single-Family Home,895000,"$916,000",94536,Cherry - Guardino,,,Sold,ALAMEDA
57,4801 Seneca Park Ave,2.5,4.0,Fremont,"1,552 sqft","Feb 20, 2014","$675,000",37.51621,-121.96753,CA,Single-Family Home,675000,"$709,000",94538,Blacow,,,Sold,ALAMEDA
58,3575 Buttonwood Ter #206,2.0,2.0,Fremont,981 sqft,"Feb 20, 2014","$412,000",37.56149,-122.0051,CA,Condo,412000,"$441,000",94536,Centerville,,,Sold,ALAMEDA
59,3876 Almond Ave,1.0,2.0,Fremont,703 sqft,"Feb 20, 2014","$139,000",37.534195,-121.95886,CA,Single-Family Home,139000,"$542,000",94538,Irvington,,,Sold,ALAMEDA
60,4519 Longview Ter,1.5,3.0,Fremont,"1,242 sqft","Feb 19, 2014","$440,000",37.521942,-121.9674,CA,Townhouse,440000,"$493,000",94538,Grimmer,,,Sold,ALAMEDA
61,40743 Slayton St,3.0,4.0,Fremont,"2,552 sqft","Feb 19, 2014","$1,348,000",37.5538,-121.94316,CA,Single-Family Home,1348000,"$1,453,000",94539,Kimber - Gomes,,,Sold,ALAMEDA
62,4351 Darwin Dr,2.0,4.0,Fremont,"1,476 sqft","Feb 19, 2014","$676,000",37.570057,-122.04256,CA,Single-Family Home,676000,"$736,000",94555,Northgate,,,Sold,ALAMEDA
63,42938 Charleston Way,2.0,4.0,Fremont,"1,151 sqft","Feb 19, 2014","$550,000",37.520576,-121.953026,CA,Single-Family Home,550000,"$649,000",94538,Grimmer,,,Sold,ALAMEDA
64,34136 Lugano Ter,,,Fremont,,"Feb 19, 2014","$726,500",37.56034,-122.06308,CA,Unknown,726500,,94555,Ardenwood,,,Sold,ALAMEDA
65,49002 Cinnamon Fern Cmn #422,2.0,2.0,Fremont,"1,853 sqft","Feb 19, 2014","$690,000",37.46167,-121.9141,CA,Condo,690000,"$773,000",94539,East Industrial,,,Sold,ALAMEDA
66,34320 Gadwall Cmn,2.5,3.0,Fremont,"1,637 sqft","Feb 18, 2014","$565,000",37.57509,-122.04453,CA,Townhouse,565000,"$595,000",94555,Northgate,,,Sold,ALAMEDA
67,43303 Castle Park Ct,2.5,4.0,Fremont,"1,575 sqft","Feb 18, 2014","$660,000",37.512623,-121.9655,CA,Single-Family Home,660000,"$704,000",94538,Blacow,,,Sold,ALAMEDA
68,4538 Bartolo Ter,1.5,2.0,Fremont,988 sqft,"Feb 18, 2014","$325,000",37.555332,-122.01775,CA,Townhouse,325000,"$383,000",94536,Cabrillo,,,Sold,ALAMEDA
69,34142 Lugano Ter,,,Fremont,,"Feb 14, 2014","$775,000",37.560337,-122.06307,CA,Unknown,775000,,94555,Ardenwood,,,Sold,ALAMEDA
70,4045 Marshall Ter,2.5,2.0,Fremont,"1,228 sqft","Feb 14, 2014","$495,000",37.567398,-122.026985,CA,Townhouse,495000,"$536,000",94536,Cabrillo,,,Sold,ALAMEDA
71,169 Merrill Ave,2.0,3.0,Fremont,"1,234 sqft","Feb 14, 2014","$735,000",37.480408,-121.9228,CA,Single-Family Home,735000,"$892,000",94539,Warm Springs,,,Sold,ALAMEDA
72,54 Viento Dr,3.0,4.0,Fremont,"2,186 sqft","Feb 14, 2014","$850,000",37.56842,-121.96316,CA,Single-Family Home,850000,"$904,000",94536,Canyon Heights - Vallejo Mills,,,Sold,ALAMEDA
73,606 El Portal Ave,2.0,3.0,Fremont,"1,407 sqft","Feb 14, 2014","$678,000",37.581375,-122.00048,CA,Single-Family Home,678000,"$689,000",94536,Niles,,,Sold,ALAMEDA
74,532 Ficus Ter,2.5,3.0,Fremont,"1,835 sqft","Feb 14, 2014","$870,000",37.461533,-121.917595,CA,Single-Family Home,870000,"$916,000",94539,East Industrial,,,Sold,ALAMEDA
75,42914 Everglades Park Dr,2.0,4.0,Fremont,"1,736 sqft","Feb 14, 2014","$689,000",37.513332,-121.97116,CA,Single-Family Home,689000,"$730,000",94538,Blacow,,,Sold,ALAMEDA
76,40894 Gaucho Way,2.5,5.0,Fremont,"3,456 sqft","Feb 14, 2014","$1,760,000",37.55184,-121.9414,CA,Single-Family Home,1760000,"$1,893,000",94539,Kimber - Gomes,,,Sold,ALAMEDA
77,129 Mission Rd,4.0,4.0,Fremont,"3,045 sqft","Feb 14, 2014","$1,700,000",37.54078,-121.92303,CA,Single-Family Home,1700000,"$1,771,000",94539,Mission San Jose,,,Sold,ALAMEDA
78,37967 2nd St,1.0,2.0,Fremont,"1,043 sqft","Feb 14, 2014","$435,000",37.57456,-121.97502,CA,Single-Family Home,435000,"$567,000",94536,Niles,,,Sold,ALAMEDA
79,34130 Lugano Ter,,,Fremont,,"Feb 14, 2014","$748,500",37.560345,-122.06308,CA,Unknown,748500,,94555,Ardenwood,,,Sold,ALAMEDA
80,4831 Mildred Dr,2.0,3.0,Fremont,"1,708 sqft","Feb 13, 2014","$768,500",37.540134,-122.00053,CA,Single-Family Home,768500,"$751,000",94536,Glenmoor,,,Sold,ALAMEDA
81,4736 Selkirk St,2.0,4.0,Fremont,"1,302 sqft","Feb 13, 2014","$609,500",37.531784,-121.98123,CA,Single-Family Home,609500,"$658,000",94538,Sundale,,,Sold,ALAMEDA
82,3395 Pinewood Ter #204,1.0,1.0,Fremont,936 sqft,"Feb 13, 2014","$330,000",37.563652,-122.00712,CA,Condo,330000,"$362,000",94536,Centerville,,,Sold,ALAMEDA
83,39 Duarte Ave,1.0,1.0,Fremont,773 sqft,"Feb 13, 2014","$367,500",37.580437,-121.98803,CA,Single-Family Home,367500,"$419,000",94536,Niles,,,Sold,ALAMEDA
84,217 Mcduff Ave,2.0,4.0,Fremont,"1,628 sqft","Feb 13, 2014","$1,060,000",37.47806,-121.92039,CA,Single-Family Home,1060000,"$972,000",94539,Warm Springs,,,Sold,ALAMEDA
85,4221 Vincente St,2.0,4.0,Fremont,"1,387 sqft","Feb 13, 2014","$632,500",37.567753,-122.03328,CA,Single-Family Home,632500,"$668,000",94536,Cabrillo,,,Sold,ALAMEDA
86,4530 Nicolet Ave,2.0,3.0,Fremont,"1,148 sqft","Feb 11, 2014","$435,000",37.55891,-122.025505,CA,Single-Family Home,435000,"$600,000",94536,Cabrillo,,,Sold,ALAMEDA
87,237 E Warren Cmn,1.0,2.0,Fremont,878 sqft,"Feb 11, 2014","$412,000",37.48723,-121.92518,CA,Condo,412000,"$439,000",94539,Warm Springs,,,Sold,ALAMEDA
88,9 Gazania Ter,2.5,3.0,Fremont,"1,378 sqft","Feb 11, 2014","$515,000",37.5681,-121.96433,CA,Single-Family Home,515000,"$681,000",94536,Cherry - Guardino,,,Sold,ALAMEDA
89,4305 Nicolet Ave,2.0,4.0,Fremont,"1,877 sqft","Feb 11, 2014","$740,000",37.56247,-122.02514,CA,Single-Family Home,740000,"$768,000",94536,Cabrillo,,,Sold,ALAMEDA
90,35665 Ballantine Pl,2.0,3.0,Fremont,"1,579 sqft","Feb 11, 2014","$711,500",37.572567,-122.018814,CA,Single-Family Home,711500,"$765,000",94536,Brookvale,,,Sold,ALAMEDA
91,4140 Fairwood St,1.0,3.0,Fremont,950 sqft,"Feb 11, 2014","$585,000",37.517586,-121.95702,CA,Single-Family Home,585000,"$644,000",94538,Grimmer,,,Sold,ALAMEDA
92,4511 Amiens Ave,2.0,3.0,Fremont,"1,504 sqft","Feb 11, 2014","$780,000",37.572094,-122.04989,CA,Single-Family Home,780000,"$794,000",94555,Ardenwood,,,Sold,ALAMEDA
93,34124 Lugano Ter,,,Fremont,,"Feb 11, 2014","$354,500",37.56035,-122.06309,CA,Unknown,354500,,94555,Ardenwood,,,Sold,ALAMEDA
94,249 Imperio Ave,2.0,4.0,Fremont,"1,782 sqft","Feb 10, 2014","$1,250,000",37.556877,-121.945206,CA,Single-Family Home,1250000,"$1,273,000",94539,Kimber - Gomes,,,Sold,ALAMEDA
95,38782 Huntington Cir,2.0,2.0,Fremont,724 sqft,"Feb 10, 2014","$340,000",37.563065,-121.97278,CA,Condo,340000,"$463,000",94536,Cherry - Guardino,,,Sold,ALAMEDA
96,37859 Essanay Pl,2.5,3.0,Fremont,"1,236 sqft","Feb 10, 2014","$451,000",37.57658,-121.97415,CA,Single-Family Home,451000,"$605,000",94536,Niles,,,Sold,ALAMEDA
97,3371 Baywood Ter #113,2.0,2.0,Fremont,980 sqft,"Feb 10, 2014","$405,000",37.563652,-122.00712,CA,Condo,405000,"$441,000",94536,Centerville,,,Sold,ALAMEDA
98,35444 Purcell Pl,2.0,3.0,Fremont,"1,576 sqft","Feb 7, 2014","$745,000",37.57079,-122.02492,CA,Single-Family Home,745000,"$773,000",94536,Brookvale,,,Sold,ALAMEDA
99,46915 Shale Cmn #1,2.0,3.0,Fremont,"1,214 sqft","Feb 7, 2014","$550,000",37.487877,-121.92793,CA,Condo,550000,"$591,000",94539,Warm Springs,,,Sold,ALAMEDA
100,37851 Essanay Pl,1.5,2.0,Fremont,891 sqft,"Feb 7, 2014","$445,000",37.57674,-121.97412,CA,Single-Family Home,445000,"$491,000",94536,Niles,,,Sold,ALAMEDA
101,38535 Burdette Cmn,1.5,2.0,Fremont,976 sqft,"Feb 7, 2014","$333,500",37.560944,-121.98058,CA,Townhouse,333500,"$392,000",94536,Parkmont,,,Sold,ALAMEDA
102,43501 Ocaso Corte,2.5,2.0,Fremont,"1,904 sqft","Feb 7, 2014","$860,000",37.52604,-121.93137,CA,Townhouse,860000,"$964,000",94539,Cameron Hills,,,Sold,ALAMEDA
103,5271 Tacoma Cmn,2.0,2.0,Fremont,950 sqft,"Feb 7, 2014","$460,000",37.56028,-122.05114,CA,Single-Family Home,460000,"$516,000",94555,Ardenwood,,,Sold,ALAMEDA
104,49170 Aster Ter #104,2.0,2.0,Fremont,"1,203 sqft","Feb 7, 2014","$589,000",37.46063,-121.913055,CA,Condo,589000,"$676,000",94539,,,,Sold,ALAMEDA
105,485 Mayten Way,3.0,4.0,Fremont,"1,528 sqft","Feb 7, 2014","$999,000",37.473354,-121.91435,CA,Single-Family Home,999000,"$980,000",94539,Warm Springs,,,Sold,ALAMEDA
106,4617 Mayfield Dr,2.5,4.0,Fremont,"2,839 sqft","Feb 6, 2014","$1,125,000",37.544243,-122.00215,CA,Single-Family Home,1125000,"$1,089,000",94536,Glenmoor,,,Sold,ALAMEDA
107,2037 Dorne Pl,2.0,3.0,Fremont,"1,812 sqft","Feb 6, 2014","$1,078,000",37.539917,-121.946686,CA,Single-Family Home,1078000,"$1,164,000",94539,Mission Valley,,,Sold,ALAMEDA
108,318 J St,1.0,2.0,Fremont,786 sqft,"Feb 6, 2014","$310,000",37.573696,-121.9776,CA,Single-Family Home,310000,"$428,000",94536,Niles,,,Sold,ALAMEDA
109,1959 Mento Dr,3.0,4.0,Fremont,"2,077 sqft","Feb 6, 2014","$1,291,000",37.536835,-121.940506,CA,Single-Family Home,1291000,"$1,313,000",94539,Mission Valley,,,Sold,ALAMEDA
110,1800 Olive Ave,2.0,3.0,Fremont,"1,597 sqft","Feb 6, 2014","$990,000",37.534584,-121.93851,CA,Single-Family Home,990000,"$1,166,000",94539,Mission Valley,,,Sold,ALAMEDA
111,38018 Dover Cmn,1.5,3.0,Fremont,"1,168 sqft","Feb 6, 2014","$425,000",37.557205,-121.994865,CA,Townhouse,425000,"$451,000",94536,Centerville,,,Sold,ALAMEDA
112,40686 Ambar Pl,2.0,4.0,Fremont,"1,956 sqft","Feb 6, 2014","$1,165,000",37.5485,-121.95058,CA,Single-Family Home,1165000,"$1,215,000",94539,Kimber - Gomes,,,Sold,ALAMEDA
113,4560 El Cajon Ave,2.0,3.0,Fremont,"1,214 sqft","Feb 6, 2014","$530,000",37.557686,-122.02442,CA,Single-Family Home,530000,"$573,000",94536,Cabrillo,,,Sold,ALAMEDA
114,4448 Porter St,1.0,4.0,Fremont,"1,065 sqft","Feb 5, 2014","$537,000",37.533253,-121.973045,CA,Single-Family Home,537000,"$581,000",94538,South Sundale,,,Sold,ALAMEDA
115,47426 Cholla St,2.5,5.0,Fremont,"1,595 sqft","Feb 5, 2014","$400,000",37.4859,-121.916145,CA,Single-Family Home,400000,"$863,000",94539,Warm Springs,,,Sold,ALAMEDA
116,38595 Royal Ann Cmn,1.5,2.0,Fremont,"1,008 sqft","Feb 5, 2014","$335,000",37.56727,-121.97,CA,Townhouse,335000,"$379,000",94536,Cherry - Guardino,,,Sold,ALAMEDA
117,4025 Ralston Cmn,2.0,3.0,Fremont,"1,389 sqft","Feb 4, 2014","$450,000",37.542255,-121.97826,CA,Condo,450000,"$471,000",94538,Sundale,,,Sold,ALAMEDA
118,3528 Madison Cmn,2.5,2.0,Fremont,"1,317 sqft","Feb 4, 2014","$600,000",37.545437,-121.97529,CA,Townhouse,600000,"$630,000",94538,Central Downtown,,,Sold,ALAMEDA
119,38133 Cambridge Ct,2.5,4.0,Fremont,"2,240 sqft","Feb 4, 2014","$847,500",37.56115,-121.9889,CA,Single-Family Home,847500,"$1,057,000",94536,Parkmont,,,Sold,ALAMEDA
120,2812 Cutler Ave,3.0,5.0,Fremont,"2,922 sqft","Feb 4, 2014","$950,000",37.573833,-122.01402,CA,Single-Family Home,950000,"$1,115,000",94536,Brookvale,,,Sold,ALAMEDA
121,34499 Heathrow Ter,2.5,3.0,Fremont,"1,611 sqft","Feb 4, 2014","$770,000",37.555496,-122.05834,CA,Single-Family Home,770000,"$603,000",94555,Ardenwood,,,Sold,ALAMEDA
122,43363 Banda Ter,2.5,3.0,Fremont,"1,768 sqft","Feb 3, 2014","$840,000",37.525055,-121.935844,CA,Townhouse,840000,"$902,000",94539,Cameron Hills,,,Sold,ALAMEDA
123,49093 Rose Ter,2.5,3.0,Fremont,"1,611 sqft","Feb 3, 2014","$706,000",37.459827,-121.916466,CA,Condo,706000,"$816,000",94539,East Industrial,,,Sold,ALAMEDA
124,39663 Iolani Ct,2.0,3.0,Fremont,"1,067 sqft","Feb 3, 2014","$410,000",37.530037,-121.98988,CA,Single-Family Home,410000,"$567,000",94538,28 Palms,,,Sold,ALAMEDA
125,36510 Bedelio Ter,2.0,3.0,Fremont,"1,220 sqft","Feb 3, 2014","$380,000",37.558086,-122.01918,CA,Townhouse,380000,"$466,000",94536,Cabrillo,,,Sold,ALAMEDA
126,225 Marquis Ter,2.5,4.0,Fremont,"1,926 sqft","Jan 31, 2014","$768,000",37.586895,-122.00053,CA,Single-Family Home,768000,"$911,000",94536,Niles,,,Sold,ALAMEDA
127,1357 Mowry Ave,1.5,4.0,Fremont,"2,306 sqft","Jan 31, 2014","$655,000",37.56269,-121.97935,CA,Single-Family Home,655000,"$812,000",94538,Parkmont,,,Sold,ALAMEDA
128,3827 Milton Ter,1.0,1.0,Fremont,796 sqft,"Jan 31, 2014","$205,000",37.578,-122.04382,CA,Condo,205000,"$292,000",94555,Northgate,,,Sold,ALAMEDA
129,34690 Osage River Ct,2.0,3.0,Fremont,"1,523 sqft","Jan 31, 2014","$626,000",37.572357,-122.036316,CA,Single-Family Home,626000,"$730,000",94555,Northgate,,,Sold,ALAMEDA
130,34125 Lugano Ter,,,Fremont,,"Jan 31, 2014","$744,000",37.56012,-122.063286,CA,Condo,744000,,94555,Ardenwood,,,Sold,ALAMEDA
131,3264 Red Cedar Ter,1.0,2.0,Fremont,840 sqft,"Jan 31, 2014","$320,000",37.56198,-122.00339,CA,Condo,320000,"$347,000",94536,Centerville,,,Sold,ALAMEDA
132,35631 Cabral Dr,2.0,3.0,Fremont,"1,960 sqft","Jan 31, 2014","$590,000",37.558422,-122.03223,CA,Single-Family Home,590000,"$711,000",94536,Cabrillo,,,Sold,ALAMEDA
133,34179 Bowling Green Cmn,2.5,4.0,Fremont,"1,474 sqft","Jan 31, 2014","$362,000",37.577152,-122.03766,CA,Townhouse,362000,"$508,000",94555,Northgate,,,Sold,ALAMEDA
134,32980 Lake Mead Dr,2.0,3.0,Fremont,"1,459 sqft","Jan 31, 2014","$588,000",37.58779,-122.05369,CA,Single-Family Home,588000,"$625,000",94555,Lakes and Birds,,,Sold,ALAMEDA
135,43320 Mintwood St,2.5,3.0,Fremont,"1,342 sqft","Jan 30, 2014","$655,000",37.51603,-121.95422,CA,Single-Family Home,655000,"$689,000",94538,Grimmer,,,Sold,ALAMEDA
136,5278 Troy Ave,2.0,3.0,Fremont,"1,389 sqft","Jan 30, 2014","$594,000",37.536236,-122.00732,CA,Single-Family Home,594000,"$713,000",94536,Glenmoor,,,Sold,ALAMEDA
137,34137 Lugano Ter,,,Fremont,,"Jan 30, 2014","$713,500",37.560116,-122.06327,CA,Condo,713500,,94555,Ardenwood,,,Sold,ALAMEDA
138,34143 Lugano Ter,,,Fremont,,"Jan 30, 2014","$788,000",37.560112,-122.06326,CA,Condo,788000,,94555,Ardenwood,,,Sold,ALAMEDA
139,610 Aztec Ct,2.0,3.0,Fremont,"1,635 sqft","Jan 30, 2014","$840,000",37.49185,-121.92224,CA,Single-Family Home,840000,"$973,000",94539,Warm Springs,,,Sold,ALAMEDA
140,4124 Doane St,2.0,3.0,Fremont,"1,032 sqft","Jan 29, 2014","$572,500",37.51441,-121.95448,CA,Single-Family Home,572500,"$640,000",94538,Grimmer,,,Sold,ALAMEDA
141,38455 Bronson St #128,1.0,1.0,Fremont,750 sqft,"Jan 29, 2014","$222,000",37.55788,-121.986824,CA,Condo,222000,"$265,000",94536,Parkmont,,,Sold,ALAMEDA
142,38631 Hastings St,8.0,12.0,Fremont,"5,216 sqft","Jan 29, 2014","$1,350,000",37.55487,-121.9879,CA,Multi-Family,1350000,,94536,Centerville,,,Sold,ALAMEDA
143,4467 Central Ave,2.0,2.0,Fremont,"1,886 sqft","Jan 29, 2014","$880,000",37.55081,-122.008835,CA,Single-Family Home,880000,"$857,000",94536,Centerville,,,Sold,ALAMEDA
144,34119 Lugano Ter,,,Fremont,,"Jan 29, 2014","$354,500",37.560123,-122.06329,CA,Condo,354500,,94555,Ardenwood,,,Sold,ALAMEDA
145,4408 Gina St,2.0,3.0,Fremont,"1,207 sqft","Jan 29, 2014","$528,000",37.532677,-121.97045,CA,Single-Family Home,528000,"$570,000",94538,South Sundale,,,Sold,ALAMEDA
146,3303 Owen Cmn,1.0,2.0,Fremont,900 sqft,"Jan 28, 2014","$341,000",37.556484,-121.99328,CA,Townhouse,341000,"$379,000",94536,Centerville,,,Sold,ALAMEDA
147,37251 Ann Marie Ter,2.5,3.0,Fremont,"1,558 sqft","Jan 28, 2014","$505,000",37.548775,-122.016335,CA,Townhouse,505000,"$576,000",94536,Centerville,,,Sold,ALAMEDA
148,40469 Shaw Ct,1.0,3.0,Fremont,950 sqft,"Jan 28, 2014","$490,500",37.541386,-121.963295,CA,Single-Family Home,490500,"$500,000",94538,Central Downtown,,,Sold,ALAMEDA
149,1121 Bedford St,4.0,5.0,Fremont,"3,265 sqft","Jan 28, 2014","$1,380,000",37.539883,-121.93928,CA,Single-Family Home,1380000,"$2,206,000",94539,Mission Valley,,,Sold,ALAMEDA
150,41403 Timber Creek Ter,2.5,3.0,Fremont,"1,620 sqft","Jan 28, 2014","$745,000",37.53492,-121.953094,CA,Townhouse,745000,"$769,000",94539,Mission Valley,,,Sold,ALAMEDA
151,4457 Cognina Ct,2.0,3.0,Fremont,"1,309 sqft","Jan 27, 2014","$655,000",37.547157,-121.99987,CA,Single-Family Home,655000,"$694,000",94536,Glenmoor,,,Sold,ALAMEDA
152,39993 Fremont Blvd #19,2.0,2.0,Fremont,"1,146 sqft","Jan 27, 2014","$437,500",37.54082,-121.97438,CA,Condo,437500,"$456,000",94538,Sundale,,,Sold,ALAMEDA
153,40200 Antigua Rose Ter,2.5,3.0,Fremont,"1,917 sqft","Jan 27, 2014","$720,000",37.533653,-121.9749,CA,Townhouse,720000,"$720,000",94538,South Sundale,,,Sold,ALAMEDA
154,34131 Lugano Ter,,,Fremont,,"Jan 27, 2014","$744,000",37.56012,-122.06328,CA,Condo,744000,,94555,Ardenwood,,,Sold,ALAMEDA
155,4176 Rainbow Ter,1.5,3.0,Fremont,"1,166 sqft","Jan 24, 2014","$353,000",37.57145,-122.03882,CA,Townhouse,353000,"$427,000",94555,Northgate,,,Sold,ALAMEDA
156,3514 Fitzsimmons Cmn,2.5,3.0,Fremont,"1,448 sqft","Jan 24, 2014","$665,000",37.5463,-121.9733,CA,Townhouse,665000,"$673,000",94538,Central Downtown,,,Sold,ALAMEDA
157,38874 Cherry Glen Cmn,2.0,2.0,Fremont,"1,168 sqft","Jan 24, 2014","$430,000",37.56224,-121.970116,CA,Condo,430000,"$501,000",94536,Cherry - Guardino,,,Sold,ALAMEDA
158,34113 Lugano Ter,,,Fremont,,"Jan 24, 2014","$772,000",37.560127,-122.0633,CA,Condo,772000,,94555,Ardenwood,,,Sold,ALAMEDA
159,39483 Eric St,2.5,4.0,Fremont,"1,701 sqft","Jan 24, 2014","$663,000",37.5349,-121.98996,CA,Single-Family Home,663000,"$711,000",94538,Sundale,,,Sold,ALAMEDA
160,39109 Guardino Dr #126,2.0,2.0,Fremont,"1,077 sqft","Jan 24, 2014","$320,000",37.55811,-121.97124,CA,Condo,320000,"$435,000",94538,Central Downtown,,,Sold,ALAMEDA
161,5448 Alamo Ter,2.5,3.0,Fremont,"1,481 sqft","Jan 23, 2014","$766,000",37.562874,-122.05986,CA,Single-Family Home,766000,"$768,000",94555,Ardenwood,,,Sold,ALAMEDA
162,47035 Yucatan Dr,,,Fremont,"1,542 sqft","Jan 23, 2014","$800,000",37.489037,-121.919685,CA,Single-Family Home,800000,"$1,024,000",94539,Warm Springs,,,Sold,ALAMEDA
163,3100 Wolsey Pl,,,Fremont,"1,474 sqft","Jan 23, 2014","$732,000",37.584362,-122.03936,CA,Single-Family Home,732000,"$784,000",94555,Northgate,,,Sold,ALAMEDA
164,3397 Beard Rd,2.0,4.0,Fremont,"2,500 sqft","Jan 23, 2014","$962,000",37.582455,-122.04256,CA,Single-Family Home,962000,"$970,000",94555,Northgate,,,Sold,ALAMEDA
165,34636 Creekwood Ter,2.5,4.0,Fremont,"1,863 sqft","Jan 22, 2014","$705,000",37.566776,-122.04672,CA,Single-Family Home,705000,"$881,000",94555,Ardenwood,,,Sold,ALAMEDA
166,4686 Eggers Dr,2.5,2.0,Fremont,"2,084 sqft","Jan 22, 2014","$842,000",37.54337,-122.00273,CA,Single-Family Home,842000,"$954,000",94536,Glenmoor,,,Sold,ALAMEDA
167,36161 Carnation Way,2.0,3.0,Fremont,"1,727 sqft","Jan 22, 2014","$721,000",37.57759,-121.999176,CA,Single-Family Home,721000,"$782,000",94536,Niles,,,Sold,ALAMEDA
168,34104 Pavia Ter,3.5,3.0,Fremont,"1,481 sqft","Jan 22, 2014","$652,500",37.56078,-122.06184,CA,Single-Family Home,652500,"$640,000",94555,Ardenwood,,,Sold,ALAMEDA
169,4366 Hardwood St,1.0,3.0,Fremont,"1,093 sqft","Jan 21, 2014","$629,000",37.51637,-121.96063,CA,Single-Family Home,629000,"$680,000",94538,Grimmer,,,Sold,ALAMEDA
170,48917 Tulare Dr,2.0,4.0,Fremont,"2,049 sqft","Jan 21, 2014","$1,275,000",37.46604,-121.903564,CA,Single-Family Home,1275000,"$1,384,000",94539,Vineyards - Avalon,,,Sold,ALAMEDA
171,404 Boulder Ter,2.5,3.0,Fremont,"1,314 sqft","Jan 17, 2014","$548,000",37.580307,-121.99517,CA,Townhouse,548000,"$594,000",94536,Niles,,,Sold,ALAMEDA
172,35602 Brookvale Ct,3.0,5.0,Fremont,"2,537 sqft","Jan 17, 2014","$789,000",37.572086,-122.021,CA,Single-Family Home,789000,"$967,000",94536,Brookvale,,,Sold,ALAMEDA
173,1061 Casa Marcia Pl,2.0,4.0,Fremont,"1,956 sqft","Jan 17, 2014","$1,125,000",37.548447,-121.95168,CA,Single-Family Home,1125000,"$1,214,000",94539,Kimber - Gomes,,,Sold,ALAMEDA
174,38731 Tierra St,2.0,3.0,Fremont,"1,762 sqft","Jan 17, 2014","$760,000",37.5719,-121.9608,CA,Single-Family Home,760000,"$800,000",94536,Canyon Heights - Vallejo Mills,,,Sold,ALAMEDA
175,46774 Fernald St,1.5,3.0,Fremont,"1,271 sqft","Jan 17, 2014","$548,000",37.49094,-121.92392,CA,Condo,548000,"$553,000",94539,Warm Springs,,,Sold,ALAMEDA
176,4778 Griffith Ave,2.0,4.0,Fremont,"1,874 sqft","Jan 17, 2014","$633,000",37.52495,-121.972885,CA,Single-Family Home,633000,"$769,000",94538,South Sundale,,,Sold,ALAMEDA
177,40391 Davis St,1.0,3.0,Fremont,925 sqft,"Jan 17, 2014","$511,000",37.534748,-121.97071,CA,Single-Family Home,511000,"$529,000",94538,South Sundale,,,Sold,ALAMEDA
178,37309 Sequoia Rd,2.0,2.0,Fremont,840 sqft,"Jan 17, 2014","$335,000",37.56198,-122.00339,CA,Condo,335000,"$393,000",94536,Centerville,,,Sold,ALAMEDA
179,4445 Richmond Ave,2.0,4.0,Fremont,"1,344 sqft","Jan 17, 2014","$653,000",37.545963,-121.99667,CA,Single-Family Home,653000,"$735,000",94536,Glenmoor,,,Sold,ALAMEDA
180,38513 Thane St,1.5,3.0,Fremont,"1,064 sqft","Jan 17, 2014","$360,000",37.568825,-121.96959,CA,Single-Family Home,360000,"$572,000",94536,Cherry - Guardino,,,Sold,ALAMEDA
181,5614 Impatiens Cmn,2.0,2.0,Fremont,850 sqft,"Jan 17, 2014","$366,000",37.52289,-121.98502,CA,Single-Family Home,366000,"$466,000",94538,Blacow,,,Sold,ALAMEDA
182,42975 Isle Royal St,2.0,4.0,Fremont,"1,736 sqft","Jan 17, 2014","$662,500",37.514538,-121.969505,CA,Single-Family Home,662500,"$723,000",94538,Blacow,,,Sold,ALAMEDA
183,39369 Ide Ct,2.0,4.0,Fremont,"1,792 sqft","Jan 17, 2014","$630,000",37.541523,-121.98722,CA,Single-Family Home,630000,"$701,000",94538,Sundale,,,Sold,ALAMEDA
184,38791 Crane Ter,2.0,3.0,Fremont,"1,534 sqft","Jan 16, 2014","$535,000",37.569153,-121.9641,CA,Condo,535000,"$605,000",94536,Canyon Heights - Vallejo Mills,,,Sold,ALAMEDA
185,38440 Logan Dr,2.0,3.0,Fremont,"1,524 sqft","Jan 16, 2014","$630,000",37.54663,-122.00052,CA,Single-Family Home,630000,"$815,000",94536,Glenmoor,,,Sold,ALAMEDA
186,4487 Maybeck Ter,3.0,3.0,Fremont,"2,000 sqft","Jan 16, 2014","$715,000",37.551643,-122.010056,CA,Single-Family Home,715000,"$801,000",94536,Centerville,,,Sold,ALAMEDA
187,39078 Guardino Dr #105,1.0,2.0,Fremont,844 sqft,"Jan 16, 2014","$335,000",37.557594,-121.96961,CA,Condo,335000,"$359,000",94538,Central Downtown,,,Sold,ALAMEDA
188,39609 Benavente Ave,3.0,4.0,Fremont,"2,566 sqft","Jan 16, 2014","$1,270,000",37.5612,-121.95437,CA,Single-Family Home,1270000,"$1,468,000",94539,Kimber - Gomes,,,Sold,ALAMEDA
189,1343 Vernal Ave,2.0,3.0,Fremont,"1,776 sqft","Jan 16, 2014","$1,148,000",37.53767,-121.93428,CA,Single-Family Home,1148000,"$1,170,000",94539,Mission Valley,,,Sold,ALAMEDA
190,4055 Grama Ter,1.5,2.0,Fremont,"1,066 sqft","Jan 15, 2014","$400,000",37.566128,-122.025,CA,Townhouse,400000,"$440,000",94536,Cabrillo,,,Sold,ALAMEDA
191,652 Boar Cir,3.0,5.0,Fremont,"3,166 sqft","Jan 15, 2014","$1,540,000",37.5085,-121.91478,CA,Single-Family Home,1540000,"$1,610,000",94539,Vineyards - Avalon,,,Sold,ALAMEDA
192,4915 Hyde Park Dr,2.0,2.0,Fremont,"1,096 sqft","Jan 15, 2014","$505,000",37.51237,-121.96727,CA,Single-Family Home,505000,"$594,000",94538,Blacow,,,Sold,ALAMEDA
193,2593 Abaca Way,2.0,2.0,Fremont,"1,120 sqft","Jan 15, 2014","$725,000",37.538876,-121.95312,CA,Single-Family Home,725000,"$861,000",94539,Kimber - Gomes,,,Sold,ALAMEDA
194,4765 Stratford Ave,2.0,4.0,Fremont,"1,556 sqft","Jan 15, 2014","$630,000",37.526142,-121.973526,CA,Single-Family Home,630000,"$712,000",94538,South Sundale,,,Sold,ALAMEDA
195,37394 Parish Cir #7J,2.0,2.0,Fremont,942 sqft,"Jan 14, 2014","$370,000",37.56041,-122.00316,CA,Condo,370000,"$438,000",94536,Centerville,,,Sold,ALAMEDA
196,3459 Pennsylvania Cmn,2.0,2.0,Fremont,944 sqft,"Jan 14, 2014","$340,000",37.55291,-121.98724,CA,Condo,340000,"$431,000",94536,Centerville,,,Sold,ALAMEDA
197,4843 Paseo Padre Pkwy,3.0,3.0,Fremont,"1,750 sqft","Jan 14, 2014","$815,000",37.568687,-122.050964,CA,Single-Family Home,815000,"$888,000",94555,Ardenwood,,,Sold,ALAMEDA
198,524 Lowell Pl,,,Fremont,"1,822 sqft","Jan 14, 2014","$765,000",37.57289,-121.96105,CA,Single-Family Home,765000,"$820,000",94536,Canyon Heights - Vallejo Mills,,,Sold,ALAMEDA
199,4464 Porter St,3.0,4.0,Fremont,"1,351 sqft","Jan 13, 2014","$515,000",37.53301,-121.97324,CA,Single-Family Home,515000,"$628,000",94538,South Sundale,,,Sold,ALAMEDA
200,38661 Canyon Heights Dr,1.0,2.0,Fremont,774 sqft,"Jan 10, 2014","$500,000",37.57369,-121.95947,CA,Single-Family Home,500000,"$535,000",94536,Canyon Heights - Vallejo Mills,,,Sold,ALAMEDA
201,39034 Guardino Dr #102,1.0,2.0,Fremont,844 sqft,"Jan 10, 2014","$313,000",37.558517,-121.970345,CA,Condo,313000,"$359,000",94538,Central Downtown,,,Sold,ALAMEDA
202,4733 Granado Ave,1.0,3.0,Fremont,"1,106 sqft","Jan 10, 2014","$455,000",37.554325,-122.024536,CA,Single-Family Home,455000,"$547,000",94536,Cabrillo,,,Sold,ALAMEDA
203,44646 Parkmeadow Dr,3.0,4.0,Fremont,"2,940 sqft","Jan 10, 2014","$1,450,000",37.51001,-121.92856,CA,Single-Family Home,1450000,"$1,591,000",94539,Weibel,,,Sold,ALAMEDA
204,41764 Mahoney St,3.0,3.0,Fremont,"2,028 sqft","Jan 10, 2014","$999,000",37.52537,-121.96099,CA,Single-Family Home,999000,"$955,000",94538,Irvington,,,Sold,ALAMEDA
205,471 Pagoda Ter,3.5,3.0,Fremont,"2,013 sqft","Jan 10, 2014","$930,000",37.462227,-121.91677,CA,Single-Family Home,930000,"$982,000",94539,East Industrial,,,Sold,ALAMEDA
206,4240 Thornton Ave,3.0,4.0,Fremont,"1,744 sqft","Jan 10, 2014","$572,000",37.557644,-122.013535,CA,Single-Family Home,572000,"$697,000",94536,Centerville,,,Sold,ALAMEDA
207,420 Sequim Cmn,2.0,2.0,Fremont,897 sqft,"Jan 10, 2014","$425,000",37.491066,-121.925125,CA,Condo,425000,"$444,000",94539,Warm Springs,,,Sold,ALAMEDA
208,3860 Lake Woodland Cmn,1.5,3.0,Fremont,"1,104 sqft","Jan 9, 2014","$320,000",37.584705,-122.058075,CA,Townhouse,320000,"$402,000",94555,Lakes and Birds,,,Sold,ALAMEDA
209,4618 Balboa Way,1.5,2.0,Fremont,969 sqft,"Jan 9, 2014","$302,000",37.554005,-122.018684,CA,Townhouse,302000,"$389,000",94536,Cabrillo,,,Sold,ALAMEDA
210,4070 Glenwood St,1.0,3.0,Fremont,925 sqft,"Jan 8, 2014","$590,000",37.517117,-121.95561,CA,Single-Family Home,590000,"$633,000",94538,Grimmer,,,Sold,ALAMEDA
211,3870 Carol Ave,2.0,3.0,Fremont,"1,293 sqft","Jan 8, 2014","$715,000",37.527832,-121.95679,CA,Single-Family Home,715000,"$720,000",94538,Irvington,,,Sold,ALAMEDA
212,3471 Davenant Ct,2.0,3.0,Fremont,"1,523 sqft","Jan 8, 2014","$725,000",37.569874,-122.018105,CA,Single-Family Home,725000,"$758,000",94536,Brookvale,,,Sold,ALAMEDA
213,39535 Logan Dr,2.5,4.0,Fremont,"1,719 sqft","Jan 8, 2014","$550,000",37.537785,-121.98743,CA,Single-Family Home,550000,"$713,000",94538,Sundale,,,Sold,ALAMEDA
214,47129 Male Ter #81,2.0,2.0,Fremont,894 sqft,"Jan 7, 2014","$410,000",37.48653,-121.92254,CA,Condo,410000,"$453,000",94539,Warm Springs,,,Sold,ALAMEDA
215,35 Via Malaga,1.5,3.0,Fremont,"1,188 sqft","Jan 7, 2014","$648,000",37.537857,-121.923515,CA,Townhouse,648000,"$752,000",94539,Mission San Jose,,,Sold,ALAMEDA
216,4329 Norris Rd,2.5,3.0,Fremont,"2,388 sqft","Jan 7, 2014","$850,000",37.55088,-122.00352,CA,Single-Family Home,850000,"$1,054,000",94536,Glenmoor,,,Sold,ALAMEDA
217,375 Camphor Ave,3.0,4.0,Fremont,"1,752 sqft","Jan 7, 2014","$900,000",37.47632,-121.91798,CA,Single-Family Home,900000,"$989,000",94539,Warm Springs,,,Sold,ALAMEDA
218,40189 Santa Teresa Cmn,1.5,2.0,Fremont,"1,199 sqft","Jan 6, 2014","$562,000",37.555416,-121.9496,CA,Townhouse,562000,"$655,000",94539,Kimber - Gomes,,,Sold,ALAMEDA
219,43716 Abeloe Ter,2.5,3.0,Fremont,"1,428 sqft","Jan 6, 2014","$836,000",37.525494,-121.918175,CA,Townhouse,836000,"$874,000",94539,Mission San Jose,,,Sold,ALAMEDA
220,4546 Alameda Dr,2.0,3.0,Fremont,"1,799 sqft","Jan 6, 2014","$665,000",37.552982,-122.01444,CA,Single-Family Home,665000,"$730,000",94536,Centerville,,,Sold,ALAMEDA
221,287 Grau Dr,2.0,3.0,Fremont,"1,439 sqft","Jan 6, 2014","$590,000",37.582336,-121.994804,CA,Single-Family Home,590000,"$659,000",94536,Niles,,,Sold,ALAMEDA
222,330 Sequim Cmn,1.0,1.0,Fremont,827 sqft,"Jan 3, 2014","$280,000",37.490456,-121.92524,CA,Condo,280000,"$341,000",94539,Warm Springs,,,Sold,ALAMEDA
223,36016 Soapberry Cmn #38,2.0,2.0,Fremont,"1,392 sqft","Jan 3, 2014","$500,000",37.55556,-122.01221,CA,Single-Family Home,500000,"$565,000",94536,Centerville,,,Sold,ALAMEDA
224,4836 El Poco Cmn,1.5,2.0,Fremont,"1,066 sqft","Jan 3, 2014","$370,000",37.545616,-122.01238,CA,Townhouse,370000,"$431,000",94536,Glenmoor,,,Sold,ALAMEDA
225,41165 Alline St,2.0,3.0,Fremont,"1,251 sqft","Jan 3, 2014","$770,000",37.52939,-121.9678,CA,Single-Family Home,770000,"$806,000",94538,Irvington,,,Sold,ALAMEDA
226,4074 Twin Peaks Ter,2.5,3.0,Fremont,"1,582 sqft","Jan 3, 2014","$505,000",37.54265,-121.97926,CA,Single-Family Home,505000,"$628,000",94538,Sundale,,,Sold,ALAMEDA
227,40151 Blanchard St,2.0,3.0,Fremont,"1,148 sqft","Jan 3, 2014","$550,000",37.538017,-121.97255,CA,Single-Family Home,550000,"$611,000",94538,South Sundale,,,Sold,ALAMEDA
228,5532 Roosevelt Pl,2.0,3.0,Fremont,"1,232 sqft","Jan 3, 2014","$480,000",37.527203,-121.99198,CA,Single-Family Home,480000,"$635,000",94538,28 Palms,,,Sold,ALAMEDA
229,47651 Mardis St,2.0,3.0,Fremont,"1,234 sqft","Jan 3, 2014","$800,000",37.47884,-121.92276,CA,Single-Family Home,800000,"$891,000",94539,Warm Springs,,,Sold,ALAMEDA
230,3028 Bruce Dr,2.0,3.0,Fremont,"1,522 sqft","Jan 3, 2014","$1,008,000",37.531494,-121.94877,CA,Single-Family Home,1008000,"$1,037,000",94539,Cameron Hills,,,Sold,ALAMEDA
231,4364 Jessica Cir,2.0,2.0,Fremont,"1,253 sqft","Jan 2, 2014","$660,000",37.57518,-122.048584,CA,Single-Family Home,660000,"$697,000",94555,Ardenwood,,,Sold,ALAMEDA
232,205 E Warren Cmn,1.0,2.0,Fremont,878 sqft,"Jan 2, 2014","$388,000",37.48723,-121.92518,CA,Condo,388000,"$413,000",94539,Warm Springs,,,Sold,ALAMEDA
233,38010 Stenhammer Dr,1.0,2.0,Fremont,841 sqft,"Jan 2, 2014","$535,000",37.58523,-121.96127,CA,Single-Family Home,535000,"$546,000",94536,Canyon Heights - Vallejo Mills,,,Sold,ALAMEDA
234,4645 Pardee Ave,2.0,4.0,Fremont,"1,453 sqft","Jan 2, 2014","$607,500",37.53709,-121.98935,CA,Single-Family Home,607500,"$663,000",94538,Sundale,,,Sold,ALAMEDA
235,4787 Porter St,2.0,3.0,Fremont,"1,151 sqft","Jan 2, 2014","$505,000",37.529427,-121.98012,CA,Single-Family Home,505000,"$644,000",94538,South Sundale,,,Sold,ALAMEDA
236,3867 Burton Cmn,2.5,2.0,Fremont,"1,400 sqft","Jan 2, 2014","$501,000",37.554276,-121.99661,CA,Townhouse,501000,"$575,000",94536,Centerville,,,Sold,ALAMEDA
237,3655 Birchwood Ter #113,2.0,2.0,Fremont,990 sqft,"Jan 2, 2014","$375,000",37.562702,-122.00766,CA,Condo,375000,"$389,000",94536,Centerville,,,Sold,ALAMEDA
238,3634 Congress Ct,1.0,3.0,Fremont,"1,336 sqft","Dec 31, 2013","$585,000",37.521576,-121.95199,CA,Single-Family Home,585000,"$722,000",94538,Grimmer,,,Sold,ALAMEDA
239,48060 Avalon Heights Ter,3.5,4.0,Fremont,"3,374 sqft","Dec 31, 2013","$1,465,000",37.480934,-121.89583,CA,Single-Family Home,1465000,"$2,090,000",94539,Vineyards - Avalon,,,Sold,ALAMEDA
240,33149 Lake Oneida St,2.0,4.0,Fremont,"1,444 sqft","Dec 31, 2013","$540,000",37.58395,-122.055595,CA,Single-Family Home,540000,"$707,000",94555,Lakes and Birds,,,Sold,ALAMEDA
241,37890 Argyle Rd,3.0,4.0,Fremont,"2,036 sqft","Dec 31, 2013","$705,500",37.55358,-122.001724,CA,Multi-Family,705500,"$872,000",94536,Glenmoor,,,Sold,ALAMEDA
242,4431 Amador Rd,2.0,3.0,Fremont,999 sqft,"Dec 31, 2013","$630,000",37.540943,-121.9895,CA,Single-Family Home,630000,"$567,000",94538,Sundale,,,Sold,ALAMEDA
243,164 Montevideo Cir,2.5,3.0,Fremont,"2,064 sqft","Dec 31, 2013","$1,215,000",37.53799,-121.92518,CA,Single-Family Home,1215000,"$1,339,000",94539,Mission San Jose,,,Sold,ALAMEDA
244,49042 Feather Grass Ter,2.5,3.0,Fremont,"1,785 sqft","Dec 31, 2013","$787,000",37.460354,-121.917366,CA,Single-Family Home,787000,"$944,000",94539,East Industrial,,,Sold,ALAMEDA
245,4622 Balboa Way,1.0,2.0,Fremont,910 sqft,"Dec 31, 2013","$299,000",37.554047,-122.01893,CA,Townhouse,299000,"$398,000",94536,Cabrillo,,,Sold,ALAMEDA
246,3514 Birchwood Ter #303,2.0,2.0,Fremont,988 sqft,"Dec 30, 2013","$372,000",37.561802,-122.00637,CA,Condo,372000,"$428,000",94536,Centerville,,,Sold,ALAMEDA
247,4969 Conway Ter,2.5,2.0,Fremont,"1,140 sqft","Dec 30, 2013","$525,000",37.564037,-122.04624,CA,Condo,525000,"$597,000",94555,Ardenwood,,,Sold,ALAMEDA
248,302 Stacey Cmn,2.0,2.0,Fremont,894 sqft,"Dec 30, 2013","$420,000",37.487183,-121.924,CA,Condo,420000,"$451,000",94539,Warm Springs,,,Sold,ALAMEDA
249,48284 Arcadian St,2.5,3.0,Fremont,"1,574 sqft","Dec 30, 2013","$735,000",37.475258,-121.91236,CA,Single-Family Home,735000,"$917,000",94539,Warm Springs,,,Sold,ALAMEDA
250,47066 Palo Amarillo Dr,2.5,4.0,Fremont,"3,102 sqft","Dec 30, 2013","$1,650,000",37.49213,-121.90934,CA,Single-Family Home,1650000,"$2,036,000",94539,Vineyards - Avalon,,,Sold,ALAMEDA
251,111 Boston Fern Cmn #U245,2.5,3.0,Fremont,"1,824 sqft","Dec 30, 2013","$725,000",37.463123,-121.91486,CA,Single-Family Home,725000,"$818,000",94539,East Industrial,,,Sold,ALAMEDA
252,40930 Camero Pl,2.0,3.0,Fremont,"1,536 sqft","Dec 27, 2013","$967,000",37.545906,-121.946556,CA,Single-Family Home,967000,"$1,069,000",94539,Kimber - Gomes,,,Sold,ALAMEDA
253,4653 Rothbury Cmn,2.0,2.0,Fremont,945 sqft,"Dec 27, 2013","$380,000",37.55227,-122.01629,CA,Condo,380000,"$440,000",94536,Centerville,,,Sold,ALAMEDA
254,37430 Briarwood Dr,2.0,3.0,Fremont,"1,659 sqft","Dec 27, 2013","$565,000",37.548023,-122.013985,CA,Single-Family Home,565000,"$695,000",94536,Centerville,,,Sold,ALAMEDA
255,3272 Neal Ter,2.5,3.0,Fremont,"1,745 sqft","Dec 27, 2013","$548,000",37.53667,-121.955765,CA,Single-Family Home,548000,"$696,000",94538,Irvington,,,Sold,ALAMEDA
256,4591 Serra Ave,2.0,3.0,Fremont,"1,351 sqft","Dec 26, 2013","$630,000",37.540382,-121.991745,CA,Single-Family Home,630000,"$646,000",94538,Sundale,,,Sold,ALAMEDA
257,5025 Hyde Park Dr,2.0,4.0,Fremont,"1,736 sqft","Dec 26, 2013","$668,000",37.512558,-121.969765,CA,Single-Family Home,668000,"$721,000",94538,Blacow,,,Sold,ALAMEDA
258,34535 Pueblo Ter,2.0,2.0,Fremont,"1,069 sqft","Dec 26, 2013","$465,000",37.56353,-122.04696,CA,Condo,465000,"$503,000",94555,Ardenwood,,,Sold,ALAMEDA
259,4832 El Poco Cmn,1.5,3.0,Fremont,"1,126 sqft","Dec 26, 2013","$387,000",37.54559,-122.01232,CA,Townhouse,387000,"$439,000",94536,Glenmoor,,,Sold,ALAMEDA
260,1916 Lockwood Ave,2.0,3.0,Fremont,"1,742 sqft","Dec 26, 2013","$991,000",37.53569,-121.94065,CA,Single-Family Home,991000,"$1,165,000",94539,Mission Valley,,,Sold,ALAMEDA
261,46908 Shale Cmn,2.0,3.0,Fremont,"1,214 sqft","Dec 24, 2013","$500,000",37.4886,-121.92801,CA,Condo,500000,"$532,000",94539,Warm Springs,,,Sold,ALAMEDA
262,3501 Birchwood Ter #312,2.0,2.0,Fremont,988 sqft,"Dec 24, 2013","$385,000",37.561802,-122.00637,CA,Condo,385000,"$444,000",94536,Centerville,,,Sold,ALAMEDA
263,4103 Tawny Ter,2.5,3.0,Fremont,"1,549 sqft","Dec 24, 2013","$579,000",37.562386,-122.01844,CA,Condo,579000,"$634,000",94536,Cabrillo,,,Sold,ALAMEDA
264,793 Old Canyon Rd,1.0,3.0,Fremont,"1,540 sqft","Dec 24, 2013","$750,000",37.579144,-121.964615,CA,Single-Family Home,750000,"$769,000",94536,Canyon Heights - Vallejo Mills,,,Sold,ALAMEDA
265,3851 Meeks Ter,2.5,3.0,Fremont,"1,338 sqft","Dec 24, 2013","$440,000",37.535336,-121.96116,CA,Townhouse,440000,"$567,000",94538,Irvington,,,Sold,ALAMEDA
266,3127 Belmont Ter,3.5,4.0,Fremont,"3,083 sqft","Dec 23, 2013","$1,768,000",37.486156,-121.905045,CA,Single-Family Home,1768000,"$1,946,000",94539,Vineyards - Avalon,,,Sold,ALAMEDA
267,106 Mohave Ter #18,2.0,2.0,Fremont,"1,200 sqft","Dec 23, 2013","$478,000",37.491993,-121.92527,CA,Condo,478000,"$495,000",94539,Warm Springs,,,Sold,ALAMEDA
268,200 Mill Creek Rd,2.0,5.0,Fremont,"2,558 sqft","Dec 23, 2013","$1,610,000",37.538513,-121.91892,CA,Single-Family Home,1610000,"$1,526,000",94539,Mission San Jose,,,Sold,ALAMEDA
269,4726 Balboa Way,2.0,3.0,Fremont,"1,208 sqft","Dec 23, 2013","$530,000",37.552887,-122.0203,CA,Single-Family Home,530000,"$595,000",94536,Cabrillo,,,Sold,ALAMEDA
270,3728 Harlequin Ter,2.5,3.0,Fremont,"1,607 sqft","Dec 23, 2013","$665,000",37.579643,-122.04461,CA,Single-Family Home,665000,"$749,000",94555,Northgate,,,Sold,ALAMEDA
271,2712 Harrisburg Ave,2.0,3.0,Fremont,"1,671 sqft","Dec 23, 2013","$695,000",37.574028,-122.01273,CA,Single-Family Home,695000,"$814,000",94536,Brookvale,,,Sold,ALAMEDA
272,48095 Purpleleaf St,2.0,3.0,Fremont,"1,298 sqft","Dec 23, 2013","$712,000",37.4734,-121.91961,CA,Single-Family Home,712000,"$911,000",94539,Warm Springs,,,Sold,ALAMEDA
273,35813 Plumeria Way,2.0,3.0,Fremont,"1,626 sqft","Dec 20, 2013","$725,000",37.580936,-122.00056,CA,Single-Family Home,725000,"$736,000",94536,Niles,,,Sold,ALAMEDA
274,35590 Ebro Ct,2.0,4.0,Fremont,"1,387 sqft","Dec 20, 2013","$610,000",37.563736,-122.029884,CA,Single-Family Home,610000,"$671,000",94536,Cabrillo,,,Sold,ALAMEDA
275,38748 Huntington Cir,2.0,2.0,Fremont,840 sqft,"Dec 20, 2013","$368,000",37.563065,-121.97278,CA,Condo,368000,"$435,000",94536,Cherry - Guardino,,,Sold,ALAMEDA
276,5119 Silver Reef Dr,2.0,3.0,Fremont,"1,220 sqft","Dec 20, 2013","$530,000",37.529877,-121.98837,CA,Single-Family Home,530000,"$623,000",94538,28 Palms,,,Sold,ALAMEDA
277,33260 Palomino Cmn,2.5,3.0,Fremont,"1,856 sqft","Dec 20, 2013","$735,000",37.584408,-122.05201,CA,Single-Family Home,735000,"$774,000",94555,Lakes and Birds,,,Sold,ALAMEDA
278,264 Sequim Cmn,2.0,2.0,Fremont,897 sqft,"Dec 20, 2013","$425,500",37.490486,-121.924614,CA,Condo,425500,"$480,000",94539,Warm Springs,,,Sold,ALAMEDA
279,3375 Deodara St,2.0,3.0,Fremont,"1,156 sqft","Dec 20, 2013","$561,000",37.54467,-121.9703,CA,Single-Family Home,561000,"$618,000",94538,Central Downtown,,,Sold,ALAMEDA
280,4140 Thornton Ave,4.5,5.0,Fremont,"1,859 sqft","Dec 20, 2013","$570,000",37.558952,-122.01256,CA,Single-Family Home,570000,"$748,000",94536,Centerville,,,Sold,ALAMEDA
281,39877 Wyatt Ln,2.0,3.0,Fremont,"1,148 sqft","Dec 20, 2013","$76,500",37.534237,-121.980804,CA,Single-Family Home,76500,"$641,000",94538,Sundale,,,Sold,ALAMEDA
282,37082 Penzance Cmn,2.0,2.0,Fremont,945 sqft,"Dec 20, 2013","$355,500",37.55233,-122.017265,CA,Condo,355500,"$432,000",94536,Centerville,,,Sold,ALAMEDA
283,37755 Elliot St,2.5,3.0,Fremont,"2,044 sqft","Dec 20, 2013","$735,000",37.54386,-122.01155,CA,Single-Family Home,735000,"$856,000",94536,Glenmoor,,,Sold,ALAMEDA
284,4684 Devonshire Cmn,2.0,2.0,Fremont,"1,140 sqft","Dec 20, 2013","$365,000",37.55233,-122.017265,CA,Condo,365000,"$464,000",94536,Centerville,,,Sold,ALAMEDA
285,42995 Charleston Way,2.5,4.0,Fremont,"1,724 sqft","Dec 20, 2013","$758,000",37.5194,-121.95286,CA,Single-Family Home,758000,"$833,000",94538,Grimmer,,,Sold,ALAMEDA
286,43360 Newport Dr,2.0,4.0,Fremont,"1,340 sqft","Dec 19, 2013","$567,500",37.517677,-121.94817,CA,Single-Family Home,567500,"$641,000",94538,Grimmer,,,Sold,ALAMEDA
287,36323 Magellan Dr,1.0,3.0,Fremont,"1,111 sqft","Dec 19, 2013","$525,000",37.555126,-122.02489,CA,Single-Family Home,525000,"$551,000",94536,Cabrillo,,,Sold,ALAMEDA
288,48564 Avalon Heights Ter,5.5,4.0,Fremont,"4,904 sqft","Dec 19, 2013","$2,250,000",37.473045,-121.903694,CA,Single-Family Home,2250000,"$2,501,000",94539,Vineyards - Avalon,,,Sold,ALAMEDA
289,3106 Ingersoll Pl,2.5,3.0,Fremont,"1,914 sqft","Dec 19, 2013","$730,000",37.538303,-121.95715,CA,Single-Family Home,730000,"$856,000",94538,Irvington,,,Sold,ALAMEDA
290,39380 Sundale Dr,2.0,3.0,Fremont,"1,131 sqft","Dec 19, 2013","$500,000",37.53633,-121.98663,CA,Single-Family Home,500000,"$617,000",94538,Sundale,,,Sold,ALAMEDA
291,3416 Deerwood Ter #311,1.0,1.0,Fremont,936 sqft,"Dec 19, 2013","$325,000",37.56267,-122.005486,CA,Condo,325000,"$364,000",94536,Centerville,,,Sold,ALAMEDA
292,3279 Baylis St,2.0,3.0,Fremont,"1,222 sqft","Dec 19, 2013","$771,000",37.542053,-121.96526,CA,Single-Family Home,771000,"$658,000",94538,Central Downtown,,,Sold,ALAMEDA
293,38753 Huntington Cir,2.0,2.0,Fremont,724 sqft,"Dec 19, 2013","$415,000",37.563065,-121.97278,CA,Condo,415000,"$436,000",94536,Cherry - Guardino,,,Sold,ALAMEDA
294,38726 Chimaera Cir,2.0,3.0,Fremont,"1,114 sqft","Dec 19, 2013","$610,000",37.564323,-121.97319,CA,Single-Family Home,610000,"$646,000",94536,Cherry - Guardino,,,Sold,ALAMEDA
295,36883 Oak St,2.0,3.0,Fremont,"1,400 sqft","Dec 19, 2013","$655,000",37.558628,-122.01455,CA,Single-Family Home,655000,"$706,000",94536,Cabrillo,,,Sold,ALAMEDA
296,46850 Fernald Cmn,2.0,2.0,Fremont,"1,036 sqft","Dec 18, 2013","$445,000",37.489597,-121.92349,CA,Condo,445000,"$494,000",94539,Warm Springs,,,Sold,ALAMEDA
297,38047 Granville Dr,2.0,3.0,Fremont,"1,320 sqft","Dec 18, 2013","$549,000",37.536552,-122.01363,CA,Single-Family Home,549000,"$706,000",94536,Glenmoor,,,Sold,ALAMEDA
298,3550 Buttonwood Ter #112,1.0,1.0,Fremont,714 sqft,"Dec 18, 2013","$260,000",37.56149,-122.0051,CA,Condo,260000,"$295,000",94536,Centerville,,,Sold,ALAMEDA
299,5567 Greeley Pl,2.0,3.0,Fremont,"1,232 sqft","Dec 18, 2013","$505,000",37.526234,-121.9901,CA,Single-Family Home,505000,"$640,000",94538,28 Palms,,,Sold,ALAMEDA
300,49281 Park Ter,2.5,3.0,Fremont,"1,726 sqft","Dec 18, 2013","$713,000",37.45885,-121.916695,CA,Condo,713000,"$799,000",94539,East Industrial,,,Sold,ALAMEDA
301,473 D St,2.0,3.0,Fremont,"1,324 sqft","Dec 18, 2013","$632,500",37.574245,-121.98767,CA,Single-Family Home,632500,"$696,000",94536,Niles,,,Sold,ALAMEDA
302,38033 Vallejo St,2.5,3.0,Fremont,"1,945 sqft","Dec 18, 2013","$515,000",37.575207,-121.97255,CA,Single-Family Home,515000,"$703,000",94536,Niles,,,Sold,ALAMEDA
303,399 Camphor Ave,2.0,3.0,Fremont,"1,164 sqft","Dec 17, 2013","$785,000",37.476513,-121.91753,CA,Single-Family Home,785000,"$857,000",94539,Warm Springs,,,Sold,ALAMEDA
304,40298 Santa Teresa Cmn,1.0,2.0,Fremont,957 sqft,"Dec 17, 2013","$560,000",37.55459,-121.94987,CA,Townhouse,560000,"$636,000",94539,Kimber - Gomes,,,Sold,ALAMEDA
305,1235 Deer Rd,1.0,2.0,Fremont,"1,037 sqft","Dec 17, 2013","$535,000",37.58411,-121.96017,CA,Single-Family Home,535000,"$611,000",94536,Canyon Heights - Vallejo Mills,,,Sold,ALAMEDA
306,2816 Coleman Pl,2.0,5.0,Fremont,"2,016 sqft","Dec 17, 2013","$755,000",37.585033,-122.0334,CA,Single-Family Home,755000,"$836,000",94555,Northgate,,,Sold,ALAMEDA
307,34565 Vane Cmn,3.0,3.0,Fremont,"1,733 sqft","Dec 17, 2013","$830,000",37.553955,-122.05754,CA,Single-Family Home,830000,"$858,000",94555,Ardenwood,,,Sold,ALAMEDA
308,44441 Cavisson Ct,4.5,4.0,Fremont,"4,204 sqft","Dec 17, 2013","$1,830,000",37.516506,-121.92015,CA,Single-Family Home,1830000,"$2,559,000",94539,Mission San Jose,,,Sold,ALAMEDA
309,49035 Wedge Grass Ter,2.5,3.0,Fremont,"1,785 sqft","Dec 17, 2013","$790,000",37.460495,-121.917244,CA,Single-Family Home,790000,"$945,000",94539,East Industrial,,,Sold,ALAMEDA
310,5730 Birch Ter,1.5,2.0,Fremont,"1,006 sqft","Dec 17, 2013","$21,000",37.524414,-121.988846,CA,Townhouse,21000,"$340,000",94538,28 Palms,,,Sold,ALAMEDA
311,5871 Via Lugano,,,Fremont,,"Dec 16, 2013","$695,000",37.559128,-122.06261,CA,Condo,695000,,94555,Ardenwood,,,Sold,ALAMEDA
312,4162 Crestwood St,1.0,3.0,Fremont,"1,008 sqft","Dec 16, 2013","$600,000",37.516193,-121.95657,CA,Single-Family Home,600000,"$650,000",94538,Grimmer,,,Sold,ALAMEDA
313,39287 Marbella Terraza #9O,2.0,2.0,Fremont,"1,086 sqft","Dec 13, 2013","$465,000",37.55918,-121.966965,CA,Condo,465000,"$507,000",94538,Cherry - Guardino,,,Sold,ALAMEDA
314,4135 Margery Dr,2.0,3.0,Fremont,"1,107 sqft","Dec 13, 2013","$530,000",37.53763,-121.97203,CA,Single-Family Home,530000,"$641,000",94538,South Sundale,,,Sold,ALAMEDA
315,2757 Barrington Ter,3.0,2.0,Fremont,"1,466 sqft","Dec 13, 2013","$697,500",37.567234,-122.00665,CA,Single-Family Home,697500,"$713,000",94536,Brookvale,,,Sold,ALAMEDA
316,4140 Boyle Dr,2.0,4.0,Fremont,"1,714 sqft","Dec 13, 2013","$630,000",37.566677,-122.02855,CA,Single-Family Home,630000,"$694,000",94536,Cabrillo,,,Sold,ALAMEDA
317,39149 Guardino Dr #151,1.0,1.0,Fremont,693 sqft,"Dec 13, 2013","$249,000",37.55746,-121.970566,CA,Condo,249000,"$294,000",94538,Central Downtown,,,Sold,ALAMEDA
318,34871 Gladstone Pl,2.0,3.0,Fremont,"1,390 sqft","Dec 13, 2013","$649,000",37.576088,-122.02808,CA,Single-Family Home,649000,"$711,000",94555,Northgate,,,Sold,ALAMEDA
319,356 Sandstone Dr,2.5,4.0,Fremont,"1,789 sqft","Dec 13, 2013","$735,000",37.58616,-122.0016,CA,Single-Family Home,735000,"$807,000",94536,Niles,,,Sold,ALAMEDA
320,5815 Via Lugano,,,Fremont,,"Dec 13, 2013","$591,500",37.55931,-122.06231,CA,Condo,591500,,94555,Ardenwood,,,Sold,ALAMEDA
321,35848 Linda Dr,,,Fremont,"1,396 sqft","Dec 13, 2013","$670,000",37.58203,-121.997894,CA,Single-Family Home,670000,"$698,000",94536,Niles,,,Sold,ALAMEDA
322,87 Montevideo Cir,3.0,4.0,Fremont,"2,313 sqft","Dec 13, 2013","$1,230,000",37.53848,-121.924416,CA,Single-Family Home,1230000,"$1,427,000",94539,Mission San Jose,,,Sold,ALAMEDA
323,904 Cherry Glen Ter #129,2.0,2.0,Fremont,"1,284 sqft","Dec 13, 2013","$460,000",37.56224,-121.970116,CA,Condo,460000,"$542,000",94536,Cherry - Guardino,,,Sold,ALAMEDA
324,35643 Goldsmith Dr,3.0,4.0,Fremont,"2,975 sqft","Dec 13, 2013","$735,000",37.576977,-122.01212,CA,Single-Family Home,735000,"$944,000",94536,Brookvale,,,Sold,ALAMEDA
325,37220 Yolo Ter,2.0,2.0,Fremont,"1,052 sqft","Dec 13, 2013","$332,000",37.552467,-122.0134,CA,Condo,332000,"$385,000",94536,Centerville,,,Sold,ALAMEDA
326,39149 Guardino Dr #158,1.0,1.0,Fremont,693 sqft,"Dec 13, 2013","$275,000",37.55746,-121.970566,CA,Condo,275000,"$294,000",94538,Central Downtown,,,Sold,ALAMEDA
327,4532 Thornton Ave,1.0,1.0,Fremont,686 sqft,"Dec 13, 2013","$220,000",37.554214,-122.016045,CA,Condo,220000,"$255,000",94536,Centerville,,,Sold,ALAMEDA
328,34670 Tabu Ter,2.0,2.0,Fremont,892 sqft,"Dec 13, 2013","$408,000",37.563255,-122.048195,CA,Condo,408000,"$483,000",94555,Ardenwood,,,Sold,ALAMEDA
329,33289 Palomino Cmn,2.5,3.0,Fremont,"1,988 sqft","Dec 13, 2013","$725,000",37.584026,-122.051125,CA,Single-Family Home,725000,"$913,000",94555,Ardenwood,,,Sold,ALAMEDA
330,5813 Via Lugano,,,Fremont,,"Dec 12, 2013","$319,000",37.55931,-122.0623,CA,Condo,319000,,94555,Ardenwood,,,Sold,ALAMEDA
331,43372 Newport Dr,2.0,3.0,Fremont,"1,160 sqft","Dec 12, 2013","$518,000",37.517544,-121.94809,CA,Single-Family Home,518000,"$621,000",94538,Grimmer,,,Sold,ALAMEDA
332,4222 Deep Creek Rd,,,Fremont,"1,693 sqft","Dec 12, 2013","$738,000",37.577217,-122.05197,CA,Single-Family Home,738000,"$832,000",94555,Ardenwood,,,Sold,ALAMEDA
333,3215 Nathan Ct,3.0,4.0,Fremont,"2,591 sqft","Dec 12, 2013","$1,340,000",37.532978,-121.9509,CA,Single-Family Home,1340000,"$1,519,000",94539,Cameron Hills,,,Sold,ALAMEDA
334,3390 Baywood Ter #114,1.0,1.0,Fremont,936 sqft,"Dec 12, 2013","$329,500",37.563652,-122.00712,CA,Condo,329500,"$366,000",94536,Centerville,,,Sold,ALAMEDA
335,3176 Estero Ter,2.5,3.0,Fremont,"2,093 sqft","Dec 11, 2013","$750,000",37.537086,-121.9549,CA,Single-Family Home,750000,"$850,000",94538,Irvington,,,Sold,ALAMEDA
336,5811 Via Lugano,,,Fremont,,"Dec 11, 2013","$751,000",37.55931,-122.0623,CA,Unknown,751000,,94555,Ardenwood,,,Sold,ALAMEDA
337,4592 El Cajon Ave,4.0,5.0,Fremont,"3,776 sqft","Dec 11, 2013","$744,000",37.55723,-122.02497,CA,Single-Family Home,744000,"$1,062,000",94536,Cabrillo,,,Sold,ALAMEDA
338,4380 Mowry Ave,2.0,3.0,Fremont,996 sqft,"Dec 11, 2013","$439,000",37.54367,-121.9918,CA,Single-Family Home,439000,"$581,000",94538,Sundale,,,Sold,ALAMEDA
339,1972 Gomes Rd,2.0,2.0,Fremont,"1,120 sqft","Dec 11, 2013","$667,000",37.541367,-121.950356,CA,Single-Family Home,667000,"$842,000",94539,Kimber - Gomes,,,Sold,ALAMEDA
340,4347 Cambria St,2.0,3.0,Fremont,"1,948 sqft","Dec 11, 2013","$642,500",37.541718,-121.98668,CA,Single-Family Home,642500,"$701,000",94538,Sundale,,,Sold,ALAMEDA
341,2909 Alice Ct,2.5,3.0,Fremont,"1,716 sqft","Dec 11, 2013","$990,000",37.534805,-121.95001,CA,Single-Family Home,990000,"$1,117,000",94539,Mission Valley,,,Sold,ALAMEDA
342,46658 Winema Cmn,2.0,2.0,Fremont,897 sqft,"Dec 11, 2013","$426,000",37.491016,-121.92548,CA,Condo,426000,"$484,000",94539,Warm Springs,,,Sold,ALAMEDA
343,38864 Marlin Ter,2.5,2.0,Fremont,"1,178 sqft","Dec 11, 2013","$550,000",37.560467,-121.97357,CA,Single-Family Home,550000,"$601,000",94536,Cherry - Guardino,,,Sold,ALAMEDA
344,46942 Lundy Ter,1.0,2.0,Fremont,"1,045 sqft","Dec 11, 2013","$395,000",37.489162,-121.92277,CA,Condo,395000,"$491,000",94539,Warm Springs,,,Sold,ALAMEDA
345,5225 Vernon Ave,2.0,3.0,Fremont,"1,411 sqft","Dec 11, 2013","$731,000",37.536907,-122.006355,CA,Single-Family Home,731000,"$718,000",94536,Glenmoor,,,Sold,ALAMEDA
346,43372 Newport Dr,2.0,3.0,Fremont,"1,160 sqft","Dec 12, 2013","$518,000",37.517544,-121.94809,CA,Single-Family Home,518000,"$621,000",94538,Grimmer,,,Sold,ALAMEDA
347,4222 Deep Creek Rd,,,Fremont,"1,693 sqft","Dec 12, 2013","$738,000",37.577217,-122.05197,CA,Single-Family Home,738000,"$832,000",94555,Ardenwood,,,Sold,ALAMEDA
348,3215 Nathan Ct,3.0,4.0,Fremont,"2,591 sqft","Dec 12, 2013","$1,340,000",37.532978,-121.9509,CA,Single-Family Home,1340000,"$1,519,000",94539,Cameron Hills,,,Sold,ALAMEDA
349,3390 Baywood Ter #114,1.0,1.0,Fremont,936 sqft,"Dec 12, 2013","$329,500",37.563652,-122.00712,CA,Condo,329500,"$366,000",94536,Centerville,,,Sold,ALAMEDA
350,3176 Estero Ter,2.5,3.0,Fremont,"2,093 sqft","Dec 11, 2013","$750,000",37.537086,-121.9549,CA,Single-Family Home,750000,"$850,000",94538,Irvington,,,Sold,ALAMEDA
351,5811 Via Lugano,,,Fremont,,"Dec 11, 2013","$751,000",37.55931,-122.0623,CA,Unknown,751000,,94555,Ardenwood,,,Sold,ALAMEDA
352,4592 El Cajon Ave,4.0,5.0,Fremont,"3,776 sqft","Dec 11, 2013","$744,000",37.55723,-122.02497,CA,Single-Family Home,744000,"$1,062,000",94536,Cabrillo,,,Sold,ALAMEDA
353,4380 Mowry Ave,2.0,3.0,Fremont,996 sqft,"Dec 11, 2013","$439,000",37.54367,-121.9918,CA,Single-Family Home,439000,"$581,000",94538,Sundale,,,Sold,ALAMEDA
354,1972 Gomes Rd,2.0,2.0,Fremont,"1,120 sqft","Dec 11, 2013","$667,000",37.541367,-121.950356,CA,Single-Family Home,667000,"$842,000",94539,Kimber - Gomes,,,Sold,ALAMEDA
355,4347 Cambria St,2.0,3.0,Fremont,"1,948 sqft","Dec 11, 2013","$642,500",37.541718,-121.98668,CA,Single-Family Home,642500,"$701,000",94538,Sundale,,,Sold,ALAMEDA
356,2909 Alice Ct,2.5,3.0,Fremont,"1,716 sqft","Dec 11, 2013","$990,000",37.534805,-121.95001,CA,Single-Family Home,990000,"$1,117,000",94539,Mission Valley,,,Sold,ALAMEDA
357,46658 Winema Cmn,2.0,2.0,Fremont,897 sqft,"Dec 11, 2013","$426,000",37.491016,-121.92548,CA,Condo,426000,"$484,000",94539,Warm Springs,,,Sold,ALAMEDA
358,38864 Marlin Ter,2.5,2.0,Fremont,"1,178 sqft","Dec 11, 2013","$550,000",37.560467,-121.97357,CA,Single-Family Home,550000,"$601,000",94536,Cherry - Guardino,,,Sold,ALAMEDA
359,46942 Lundy Ter,1.0,2.0,Fremont,"1,045 sqft","Dec 11, 2013","$395,000",37.489162,-121.92277,CA,Condo,395000,"$491,000",94539,Warm Springs,,,Sold,ALAMEDA
360,5225 Vernon Ave,2.0,3.0,Fremont,"1,411 sqft","Dec 11, 2013","$731,000",37.536907,-122.006355,CA,Single-Family Home,731000,"$718,000",94536,Glenmoor,,,Sold,ALAMEDA
361,38448 Berkeley Cmn,1.0,2.0,Fremont,616 sqft,"Dec 6, 2013","$335,000",37.564163,-121.97797,CA,Townhouse,335000,"$365,000",94536,Cherry - Guardino,,,Sold,ALAMEDA
362,3816 Burton Cmn,2.5,2.0,Fremont,"1,400 sqft","Dec 6, 2013","$457,000",37.55481,-121.99763,CA,Townhouse,457000,"$540,000",94536,Centerville,,,Sold,ALAMEDA
363,4413 Caren St,2.0,3.0,Fremont,"1,251 sqft","Dec 6, 2013","$680,000",37.53052,-121.96718,CA,Single-Family Home,680000,"$797,000",94538,Irvington,,,Sold,ALAMEDA
364,39583 Buena Vista Ter,2.5,3.0,Fremont,"1,582 sqft","Dec 6, 2013","$515,000",37.542805,-121.98054,CA,Single-Family Home,515000,"$608,000",94538,Sundale,,,Sold,ALAMEDA
365,3575 Buttonwood Ter #104,2.0,2.0,Fremont,991 sqft,"Dec 6, 2013","$411,000",37.56149,-122.0051,CA,Condo,411000,"$413,000",94536,Centerville,,,Sold,ALAMEDA
366,41276 Mahoney St,3.0,5.0,Fremont,"3,134 sqft","Dec 6, 2013","$900,000",37.52939,-121.96181,CA,Single-Family Home,900000,"$1,025,000",94538,Irvington,,,Sold,ALAMEDA
367,636 Rancho Arroyo Pkwy,2.5,4.0,Fremont,"2,687 sqft","Dec 6, 2013","$750,000",37.575527,-121.993034,CA,Single-Family Home,750000,"$951,000",94536,Niles,,,Sold,ALAMEDA
368,48914 Tulare Dr,3.0,4.0,Fremont,"3,452 sqft","Dec 6, 2013","$1,250,000",37.466454,-121.90375,CA,Single-Family Home,1250000,"$1,687,000",94539,Vineyards - Avalon,,,Sold,ALAMEDA
369,46776 Fernald St,1.5,3.0,Fremont,"1,271 sqft","Dec 6, 2013","$520,000",37.49094,-121.92392,CA,Condo,520000,"$559,000",94539,Warm Springs,,,Sold,ALAMEDA
370,38053 Davy Ct,2.0,4.0,Fremont,"1,494 sqft","Dec 6, 2013","$640,000",37.563423,-121.99063,CA,Single-Family Home,640000,"$762,000",94536,Parkmont,,,Sold,ALAMEDA
371,40563 Ives Ct,2.0,3.0,Fremont,"1,148 sqft","Dec 6, 2013","$585,000",37.52851,-121.97389,CA,Single-Family Home,585000,"$594,000",94538,South Sundale,,,Sold,ALAMEDA
372,3404 Hart Cmn,2.5,3.0,Fremont,"1,637 sqft","Dec 6, 2013","$625,000",37.546497,-121.97476,CA,Townhouse,625000,"$723,000",94538,Central Downtown,,,Sold,ALAMEDA
373,4231 Westminster Cir,2.0,3.0,Fremont,"1,524 sqft","Dec 6, 2013","$700,000",37.55425,-122.00754,CA,Single-Family Home,700000,"$807,000",94536,Centerville,,,Sold,ALAMEDA
374,5595 Starfire Cir,3.0,4.0,Fremont,"1,763 sqft","Dec 5, 2013","$735,000",37.52336,-121.98427,CA,Single-Family Home,735000,"$927,000",94538,Blacow,,,Sold,ALAMEDA
375,34477 Redgrave Pl,2.0,4.0,Fremont,"1,400 sqft","Dec 5, 2013","$700,000",37.57693,-122.03597,CA,Single-Family Home,700000,"$756,000",94555,Northgate,,,Sold,ALAMEDA
376,38662 Country Ter,2.0,2.0,Fremont,928 sqft,"Dec 5, 2013","$330,000",37.553627,-121.98842,CA,Condo,330000,"$383,000",94536,Centerville,,,Sold,ALAMEDA
377,5839 Via Lugano,,,Fremont,,"Dec 5, 2013","$319,000",37.559303,-122.06232,CA,Condo,319000,,94555,Ardenwood,,,Sold,ALAMEDA
378,786 Wisteria Dr,3.0,4.0,Fremont,"2,304 sqft","Dec 5, 2013","$1,350,000",37.54042,-121.93544,CA,Single-Family Home,1350000,"$1,451,000",94539,Mission Valley,,,Sold,ALAMEDA
379,4335 Torres Ave,2.0,4.0,Fremont,"1,740 sqft","Dec 5, 2013","$702,000",37.559334,-122.02032,CA,Single-Family Home,702000,"$765,000",94536,Cabrillo,,,Sold,ALAMEDA
380,39471 Blue Fin Way,2.0,3.0,Fremont,"1,067 sqft","Dec 5, 2013","$490,000",37.5293,-121.99451,CA,Single-Family Home,490000,"$590,000",94538,28 Palms,,,Sold,ALAMEDA
381,3161 Estero Ter,2.5,3.0,Fremont,"1,712 sqft","Dec 5, 2013","$675,000",37.536877,-121.955124,CA,Single-Family Home,675000,"$789,000",94538,Irvington,,,Sold,ALAMEDA
382,32575 Lake Bridgeport St,2.0,3.0,Fremont,"1,180 sqft","Dec 5, 2013","$425,000",37.586254,-122.0622,CA,Single-Family Home,425000,"$612,000",94555,Lakes and Birds,,,Sold,ALAMEDA
383,38942 Langtry Ct,2.5,4.0,Fremont,"2,889 sqft","Dec 5, 2013","$915,000",37.56395,-121.96532,CA,Single-Family Home,915000,"$1,278,000",94536,Cherry - Guardino,,,Sold,ALAMEDA
384,4830 Canvasback Cmn,2.5,4.0,Fremont,"1,647 sqft","Dec 4, 2013","$735,500",37.565117,-122.04509,CA,Single-Family Home,735500,"$845,000",94555,Ardenwood,,,Sold,ALAMEDA
385,5837 Via Lugano,,,Fremont,,"Dec 4, 2013","$740,000",37.559303,-122.06232,CA,Condo,740000,,94555,Ardenwood,,,Sold,ALAMEDA
386,4179 Bell Cmn,2.5,3.0,Fremont,"1,924 sqft","Dec 4, 2013","$780,000",37.54937,-121.99351,CA,Single-Family Home,780000,"$802,000",94536,Glenmoor,,,Sold,ALAMEDA
387,42139 Edgewood St,3.0,5.0,Fremont,"2,525 sqft","Dec 4, 2013","$850,000",37.522724,-121.96184,CA,Single-Family Home,850000,"$867,000",94538,Grimmer,,,Sold,ALAMEDA
388,33514 Stephano Ct,2.5,4.0,Fremont,"2,052 sqft","Dec 4, 2013","$876,000",37.575584,-122.057,CA,Single-Family Home,876000,"$887,000",94555,Ardenwood,,,Sold,ALAMEDA
389,3402 Pinewood Ter #312,1.0,1.0,Fremont,714 sqft,"Dec 4, 2013","$244,000",37.563007,-122.00641,CA,Condo,244000,"$329,000",94536,Centerville,,,Sold,ALAMEDA
390,3359 Foxtail Ter,1.0,,Fremont,421 sqft,"Dec 4, 2013","$130,000",37.56198,-122.00339,CA,Condo,130000,"$182,000",94536,Centerville,,,Sold,ALAMEDA
391,39059 Guardino Dr #102,2.0,2.0,Fremont,"1,053 sqft","Dec 4, 2013","$386,000",37.558685,-121.97102,CA,Condo,386000,"$424,000",94538,Central Downtown,,,Sold,ALAMEDA
392,3516 Ellery Cmn,2.5,3.0,Fremont,"1,430 sqft","Dec 4, 2013","$615,000",37.547035,-121.97595,CA,Townhouse,615000,"$692,000",94538,Central Downtown,,,Sold,ALAMEDA
393,3219 Warwick Rd,2.0,3.0,Fremont,"1,390 sqft","Dec 3, 2013","$650,000",37.578125,-122.02947,CA,Single-Family Home,650000,"$717,000",94555,Northgate,,,Sold,ALAMEDA
394,5560 Cleveland Pl,2.0,3.0,Fremont,"1,390 sqft","Dec 3, 2013","$561,000",37.528427,-121.996956,CA,Single-Family Home,561000,"$647,000",94538,28 Palms,,,Sold,ALAMEDA
395,40044 Kelly St,1.0,3.0,Fremont,"1,412 sqft","Dec 3, 2013","$420,000",37.54303,-121.96997,CA,Single-Family Home,420000,"$608,000",94538,Central Downtown,,,Sold,ALAMEDA
396,15 Mission Ridge Ct,3.0,5.0,Fremont,"3,124 sqft","Dec 3, 2013","$1,460,000",37.546642,-121.933945,CA,Single-Family Home,1460000,"$1,763,000",94539,Mission Valley,,,Sold,ALAMEDA
397,5835 Via Lugano,,,Fremont,,"Dec 3, 2013","$319,000",37.559303,-122.06232,CA,Condo,319000,,94555,Ardenwood,,,Sold,ALAMEDA
398,34602 Pueblo Ter,2.0,2.0,Fremont,918 sqft,"Dec 3, 2013","$437,500",37.56353,-122.04696,CA,Condo,437500,"$470,000",94555,Ardenwood,,,Sold,ALAMEDA
399,5159 Silver Reef Dr,2.0,4.0,Fremont,"1,228 sqft","Dec 3, 2013","$605,000",37.529198,-121.98892,CA,Single-Family Home,605000,"$621,000",94538,28 Palms,,,Sold,ALAMEDA
400,4614 Devonshire Cmn,2.0,2.0,Fremont,"1,140 sqft","Dec 2, 2013","$393,000",37.55233,-122.017265,CA,Condo,393000,"$456,000",94536,Centerville,,,Sold,ALAMEDA
401,4425 Ladner St,2.0,4.0,Fremont,"1,419 sqft","Dec 2, 2013","$550,000",37.53228,-121.97037,CA,Single-Family Home,550000,"$623,000",94538,South Sundale,,,Sold,ALAMEDA
402,43037 Everglades Park Dr,2.0,4.0,Fremont,"1,736 sqft","Dec 2, 2013","$547,000",37.511086,-121.971054,CA,Single-Family Home,547000,"$719,000",94538,Blacow,,,Sold,ALAMEDA
403,39993 Fremont Blvd #301,2.0,2.0,Fremont,"1,465 sqft","Dec 2, 2013","$425,000",37.54082,-121.97438,CA,Condo,425000,"$495,000",94538,Sundale,,,Sold,ALAMEDA
404,5833 Via Lugano,,,Fremont,,"Dec 2, 2013","$615,000",37.559307,-122.06232,CA,Condo,615000,,94555,Ardenwood,,,Sold,ALAMEDA
405,4844 Montague Ave,2.0,3.0,Fremont,"1,532 sqft","Dec 2, 2013","$725,000",37.570072,-122.05487,CA,Single-Family Home,725000,"$820,000",94555,Ardenwood,,,Sold,ALAMEDA
406,438 King Ave,2.5,4.0,Fremont,"1,789 sqft","Nov 27, 2013","$712,500",37.585796,-122.00299,CA,Single-Family Home,712500,"$807,000",94536,Niles,,,Sold,ALAMEDA
407,40674 Sundale Dr,2.0,3.0,Fremont,"1,594 sqft","Nov 27, 2013","$550,000",37.526283,-121.97462,CA,Single-Family Home,550000,"$698,000",94538,South Sundale,,,Sold,ALAMEDA
408,36535 Nichols Ave,2.5,4.0,Fremont,"1,603 sqft","Nov 27, 2013","$755,000",37.580887,-121.987434,CA,Single-Family Home,755000,"$786,000",94536,Niles,,,Sold,ALAMEDA
409,845 Iroquois Way,,,Fremont,"1,692 sqft","Nov 27, 2013","$916,500",37.48596,-121.916954,CA,Single-Family Home,916500,"$1,051,000",94539,Warm Springs,,,Sold,ALAMEDA
410,34279 Platinum Ter,2.5,4.0,Fremont,"1,950 sqft","Nov 27, 2013","$801,000",37.563717,-122.05357,CA,Single-Family Home,801000,"$905,000",94555,Ardenwood,,,Sold,ALAMEDA
411,3575 Buttonwood Ter #202,2.0,2.0,Fremont,"1,083 sqft","Nov 27, 2013","$397,000",37.56149,-122.0051,CA,Condo,397000,"$419,000",94536,Centerville,,,Sold,ALAMEDA
412,4220 Providence Ter,3.5,3.0,Fremont,"1,437 sqft","Nov 27, 2013","$670,000",37.532604,-121.96623,CA,Townhouse,670000,"$693,000",94538,Irvington,,,Sold,ALAMEDA
413,4500 Merced Cmn,2.0,2.0,Fremont,"1,050 sqft","Nov 27, 2013","$350,000",37.552467,-122.0134,CA,Condo,350000,"$389,000",94536,Centerville,,,Sold,ALAMEDA
414,39951 Fremont Blvd #320,2.0,2.0,Fremont,"1,146 sqft","Nov 27, 2013","$412,500",37.54082,-121.97438,CA,Condo,412500,"$462,000",94538,Sundale,,,Sold,ALAMEDA
415,1543 Bridges Ct,2.0,3.0,Fremont,"1,487 sqft","Nov 27, 2013","$708,000",37.565,-121.984695,CA,Single-Family Home,708000,"$784,000",94536,Parkmont,,,Sold,ALAMEDA
416,5506 Truman Pl,2.0,4.0,Fremont,"1,555 sqft","Nov 27, 2013","$654,500",37.528156,-121.994194,CA,Single-Family Home,654500,"$739,000",94538,28 Palms,,,Sold,ALAMEDA
417,33069 Lake Wawasee St,2.0,3.0,Fremont,"1,148 sqft","Nov 27, 2013","$510,000",37.58457,-122.056175,CA,Single-Family Home,510000,"$545,000",94555,Lakes and Birds,,,Sold,ALAMEDA
418,2867 Welk Cmn,2.5,3.0,Fremont,"1,510 sqft","Nov 27, 2013","$610,000",37.58604,-122.03745,CA,Single-Family Home,610000,"$709,000",94555,Northgate,,,Sold,ALAMEDA
419,4652 Piper St,1.0,3.0,Fremont,"1,396 sqft","Nov 27, 2013","$569,000",37.530025,-121.97739,CA,Single-Family Home,569000,"$644,000",94538,South Sundale,,,Sold,ALAMEDA
420,4925 Northdale Dr,4.0,5.0,Fremont,"2,398 sqft","Nov 27, 2013","$1,010,000",37.540142,-122.003075,CA,Single-Family Home,1010000,"$1,146,000",94536,Glenmoor,,,Sold,ALAMEDA
421,38450 Hastings St,3.5,5.0,Fremont,"2,400 sqft","Nov 27, 2013","$700,000",37.55567,-121.98863,CA,Multi-Family,700000,"$1,067,000",94536,Centerville,,,Sold,ALAMEDA
422,33183 Lake Pyramid St,2.5,4.0,Fremont,"1,651 sqft","Nov 27, 2013","$607,000",37.58332,-122.05563,CA,Single-Family Home,607000,"$659,000",94555,Lakes and Birds,,,Sold,ALAMEDA
423,3845 Meeks Ter,2.5,3.0,Fremont,"1,316 sqft","Nov 27, 2013","$450,000",37.535385,-121.96111,CA,Townhouse,450000,"$553,000",94538,Irvington,,,Sold,ALAMEDA
424,623 Muirfield Ter,2.5,4.0,Fremont,"1,740 sqft","Nov 27, 2013","$725,000",37.568577,-121.975426,CA,Single-Family Home,725000,"$853,000",94536,Parkmont,,,Sold,ALAMEDA
425,38875 Stillwater Cmn,2.5,3.0,Fremont,"1,638 sqft","Nov 26, 2013","$575,000",37.563076,-121.968735,CA,Single-Family Home,575000,"$731,000",94536,Cherry - Guardino,,,Sold,ALAMEDA
426,255 Preston Ct,,,Fremont,"1,871 sqft","Nov 26, 2013","$745,000",37.566753,-121.96703,CA,Single-Family Home,745000,"$809,000",94536,Cherry - Guardino,,,Sold,ALAMEDA
427,37939 Palmer Dr,3.0,5.0,Fremont,"2,816 sqft","Nov 26, 2013","$860,000",37.551624,-122.0027,CA,Single-Family Home,860000,"$1,055,000",94536,Glenmoor,,,Sold,ALAMEDA
428,35416 Roca Dr,2.0,3.0,Fremont,"1,662 sqft","Nov 26, 2013","$167,500",37.561436,-122.03352,CA,Single-Family Home,167500,"$695,000",94536,Cabrillo,,,Sold,ALAMEDA
429,38378 Redwood Ter,2.5,2.0,Fremont,"1,400 sqft","Nov 26, 2013","$510,000",37.56636,-121.9775,CA,Condo,510000,"$562,000",94536,Parkmont,,,Sold,ALAMEDA
430,32459 Lake Temescal Ln,2.0,3.0,Fremont,"1,071 sqft","Nov 26, 2013","$557,000",37.59013,-122.0606,CA,Single-Family Home,557000,"$651,000",94555,,,,Sold,ALAMEDA
431,37710 Carriage Circle Cmn,2.5,3.0,Fremont,"1,546 sqft","Nov 26, 2013","$600,000",37.54182,-122.01377,CA,Single-Family Home,600000,"$647,000",94536,Glenmoor,,,Sold,ALAMEDA
432,37122 Hansen Ct,2.0,4.0,Fremont,"1,593 sqft","Nov 26, 2013","$550,000",37.551685,-122.01434,CA,Single-Family Home,550000,"$760,000",94536,Centerville,,,Sold,ALAMEDA
433,430 Bolinger Cmn #97,2.0,2.0,Fremont,894 sqft,"Nov 26, 2013","$380,000",37.48653,-121.92254,CA,Condo,380000,"$439,000",94539,Warm Springs,,,Sold,ALAMEDA
434,4502 Merced Cmn,2.0,2.0,Fremont,"1,050 sqft","Nov 25, 2013","$322,500",37.552467,-122.0134,CA,Condo,322500,"$387,000",94536,Centerville,,,Sold,ALAMEDA
435,4626 Devonshire Cmn,2.0,2.0,Fremont,945 sqft,"Nov 25, 2013","$365,000",37.55233,-122.017265,CA,Condo,365000,"$441,000",94536,Centerville,,,Sold,ALAMEDA
436,5698 Merit Way,2.0,3.0,Fremont,"1,204 sqft","Nov 22, 2013","$605,000",37.51572,-121.97507,CA,Single-Family Home,605000,"$633,000",94538,Blacow,,,Sold,ALAMEDA
437,5865 Via Lugano,,,Fremont,,"Nov 22, 2013","$319,000",37.559135,-122.0626,CA,Condo,319000,,94555,Ardenwood,,,Sold,ALAMEDA
438,4484 Doane St,2.0,4.0,Fremont,"1,424 sqft","Nov 22, 2013","$575,000",37.512703,-121.96045,CA,Single-Family Home,575000,"$721,000",94538,Grimmer,,,Sold,ALAMEDA
439,35629 Beeching Ln,,,Fremont,"2,966 sqft","Nov 22, 2013","$875,000",37.577625,-122.01172,CA,Single-Family Home,875000,"$860,000",94536,Brookvale,,,Sold,ALAMEDA
440,37311 Aspenwood Cmn #101,2.0,2.0,Fremont,"1,125 sqft","Nov 22, 2013","$407,500",37.56231,-122.005005,CA,Condo,407500,"$435,000",94536,Centerville,,,Sold,ALAMEDA
441,5869 Via Lugano,,,Fremont,,"Nov 22, 2013","$729,500",37.55913,-122.06261,CA,Condo,729500,,94555,Ardenwood,,,Sold,ALAMEDA
442,38846 Stonington Ter,2.0,2.0,Fremont,"1,001 sqft","Nov 22, 2013","$550,000",37.563087,-121.96907,CA,Single-Family Home,550000,"$579,000",94536,Cherry - Guardino,,,Sold,ALAMEDA
443,49002 Cinnamon Fern Cmn #311,2.0,2.0,Fremont,"1,229 sqft","Nov 22, 2013","$559,000",37.46167,-121.9141,CA,Condo,559000,"$682,000",94539,East Industrial,,,Sold,ALAMEDA
444,43051 Peachwood St,1.0,3.0,Fremont,"1,307 sqft","Nov 22, 2013","$580,000",37.517178,-121.961655,CA,Single-Family Home,580000,"$727,000",94538,Grimmer,,,Sold,ALAMEDA
445,4303 Sacramento Ave,1.0,1.0,Fremont,"1,221 sqft","Nov 22, 2013","$300,000",37.54398,-121.98936,CA,Condo,300000,"$327,000",94538,Sundale,,,Sold,ALAMEDA
446,41530 Devon Ct,3.0,4.0,Fremont,"2,344 sqft","Nov 22, 2013","$1,410,000",37.54138,-121.94074,CA,Single-Family Home,1410000,"$1,558,000",94539,Mission Valley,,,Sold,ALAMEDA
447,651 Vista Hill Ter,5.0,6.0,Fremont,"6,049 sqft","Nov 22, 2013","$2,770,000",37.522545,-121.913475,CA,Single-Family Home,2770000,"$2,469,000",94539,Mission Hills,,,Sold,ALAMEDA
448,2058 Bishop Ave,2.0,3.0,Fremont,"1,610 sqft","Nov 22, 2013","$715,000",37.564037,-121.989426,CA,Single-Family Home,715000,"$822,000",94536,Parkmont,,,Sold,ALAMEDA
449,40284 Cottage Rose Ter,4.5,4.0,Fremont,"1,917 sqft","Nov 22, 2013","$685,000",37.534836,-121.973656,CA,Townhouse,685000,"$885,000",94538,South Sundale,,,Sold,ALAMEDA
450,386 De Salle Ter,2.5,3.0,Fremont,"2,025 sqft","Nov 21, 2013","$673,000",37.572994,-121.976425,CA,Single-Family Home,673000,"$760,000",94536,Niles,,,Sold,ALAMEDA
451,38025 Temple Way,2.0,3.0,Fremont,"1,724 sqft","Nov 21, 2013","$680,000",37.564556,-121.9881,CA,Single-Family Home,680000,"$802,000",94536,Parkmont,,,Sold,ALAMEDA
452,4380 Peregrine Way,,,Fremont,"2,749 sqft","Nov 21, 2013","$800,000",37.57759,-122.05853,CA,Single-Family Home,800000,"$878,000",94555,Lakes and Birds,,,Sold,ALAMEDA
453,38138 Mila Ct,2.5,4.0,Fremont,"3,692 sqft","Nov 21, 2013","$1,285,000",37.55221,-121.99948,CA,Single-Family Home,1285000,"$1,277,000",94536,Glenmoor,,,Sold,ALAMEDA
454,4771 Shelborne Park Ct,2.0,4.0,Fremont,"1,692 sqft","Nov 21, 2013","$740,000",37.51573,-121.96636,CA,Single-Family Home,740000,"$774,000",94538,Grimmer,,,Sold,ALAMEDA
455,38627 Cherry Ln #105,1.5,2.0,Fremont,938 sqft,"Nov 21, 2013","$293,000",37.565502,-121.97237,CA,Condo,293000,"$347,000",94536,Cherry - Guardino,,,Sold,ALAMEDA
456,204 Hackamore Cmn,1.0,2.0,Fremont,878 sqft,"Nov 20, 2013","$370,000",37.486343,-121.92463,CA,Condo,370000,"$397,000",94539,Warm Springs,,,Sold,ALAMEDA
457,5873 Via Lugano,,,Fremont,,"Nov 20, 2013","$731,000",37.559128,-122.062614,CA,Condo,731000,,94555,Ardenwood,,,Sold,ALAMEDA
458,39078 Guardino Dr #102,2.0,2.0,Fremont,"1,053 sqft","Nov 20, 2013","$385,000",37.557594,-121.96961,CA,Condo,385000,"$419,000",94538,Central Downtown,,,Sold,ALAMEDA
459,38871 Riverbank Ter,3.0,4.0,Fremont,"1,563 sqft","Nov 20, 2013","$675,000",37.562607,-121.969284,CA,Single-Family Home,675000,"$777,000",94536,Cherry - Guardino,,,Sold,ALAMEDA
460,4695 Deep Creek Rd,2.0,4.0,Fremont,"1,707 sqft","Nov 20, 2013","$750,000",37.572254,-122.05553,CA,Single-Family Home,750000,"$884,000",94555,Ardenwood,,,Sold,ALAMEDA
461,4013 Randy Cmn,2.5,3.0,Fremont,"1,530 sqft","Nov 20, 2013","$550,000",37.526157,-121.958496,CA,Single-Family Home,550000,"$628,000",94538,Irvington,,,Sold,ALAMEDA
462,4437 Porter St,1.0,3.0,Fremont,"1,258 sqft","Nov 20, 2013","$500,000",37.533627,-121.97338,CA,Single-Family Home,500000,"$598,000",94538,South Sundale,,,Sold,ALAMEDA
463,37449 Parish Cir #2B,2.0,2.0,Fremont,"1,008 sqft","Nov 20, 2013","$380,000",37.560204,-122.00367,CA,Condo,380000,"$441,000",94536,Centerville,,,Sold,ALAMEDA
464,36821 Limeta Ter,1.5,2.0,Fremont,988 sqft,"Nov 20, 2013","$297,000",37.555084,-122.01876,CA,Townhouse,297000,"$379,000",94536,Cabrillo,,,Sold,ALAMEDA
465,188 Hackamore Cmn,1.0,2.0,Fremont,878 sqft,"Nov 20, 2013","$365,000",37.486343,-121.92463,CA,Condo,365000,"$396,000",94539,Warm Springs,,,Sold,ALAMEDA
466,39843 San Moreno Ct,3.0,4.0,Fremont,"1,914 sqft","Nov 19, 2013","$1,150,000",37.55697,-121.95454,CA,Single-Family Home,1150000,"$1,232,000",94539,Kimber - Gomes,,,Sold,ALAMEDA
467,4528 Virio Cmn,1.5,3.0,Fremont,"1,166 sqft","Nov 19, 2013","$339,000",37.555916,-122.01844,CA,Townhouse,339000,"$423,000",94536,Cabrillo,,,Sold,ALAMEDA
468,3813 Parish Ave,2.0,3.0,Fremont,"2,439 sqft","Nov 19, 2013","$786,000",37.55856,-122.00374,CA,Multi-Family,786000,"$727,000",94536,Centerville,,,Sold,ALAMEDA
469,4836 Natalie Ave,2.0,3.0,Fremont,"1,372 sqft","Nov 19, 2013","$550,000",37.52972,-121.9803,CA,Single-Family Home,550000,"$663,000",94538,South Sundale,,,Sold,ALAMEDA
470,42879 Hamilton Way,2.0,3.0,Fremont,"1,156 sqft","Nov 19, 2013","$477,000",37.519985,-121.955185,CA,Single-Family Home,477000,"$669,000",94538,Grimmer,,,Sold,ALAMEDA
471,4483 Maybeck Ter,4.5,3.0,Fremont,"1,917 sqft","Nov 19, 2013","$675,500",37.55172,-122.009995,CA,Single-Family Home,675500,"$818,000",94536,Centerville,,,Sold,ALAMEDA
472,4002 Horatio Ct,2.5,4.0,Fremont,"2,175 sqft","Nov 18, 2013","$855,000",37.57898,-122.0501,CA,Single-Family Home,855000,"$994,000",94555,Ardenwood,,,Sold,ALAMEDA
473,36805 Reynolds Dr,2.0,3.0,Fremont,"1,480 sqft","Nov 18, 2013","$580,000",37.567142,-122.00858,CA,Single-Family Home,580000,"$747,000",94536,Brookvale,,,Sold,ALAMEDA
474,3137 Orwell Pl,2.0,4.0,Fremont,"1,714 sqft","Nov 18, 2013","$708,500",37.569664,-122.0124,CA,Single-Family Home,708500,"$815,000",94536,Brookvale,,,Sold,ALAMEDA
475,41764 Chiltern Dr,3.0,4.0,Fremont,"2,013 sqft","Nov 18, 2013","$1,365,000",37.5408,-121.93967,CA,Single-Family Home,1365000,"$1,409,000",94539,Mission Valley,,,Sold,ALAMEDA
476,56 Valais Ct,3.5,4.0,Fremont,"4,239 sqft","Nov 18, 2013","$1,470,000",37.556618,-121.94957,CA,Single-Family Home,1470000,"$1,833,000",94539,Kimber - Gomes,,,Sold,ALAMEDA
477,4372 Hardwood St,2.0,3.0,Fremont,"1,198 sqft","Nov 18, 2013","$548,000",37.516323,-121.96086,CA,Single-Family Home,548000,"$687,000",94538,Grimmer,,,Sold,ALAMEDA
478,47669 Pima St,2.5,4.0,Fremont,"1,900 sqft","Nov 18, 2013","$750,000",37.480347,-121.91917,CA,Single-Family Home,750000,"$982,000",94539,Warm Springs,,,Sold,ALAMEDA
479,37409 Glenbrook Ter,2.5,3.0,Fremont,"1,519 sqft","Nov 18, 2013","$600,000",37.560688,-122.002235,CA,Single-Family Home,600000,"$680,000",94536,Centerville,,,Sold,ALAMEDA
480,34426 Bacon Pl,2.0,3.0,Fremont,"1,290 sqft","Nov 15, 2013","$615,000",37.580063,-122.03316,CA,Single-Family Home,615000,"$701,000",94555,Northgate,,,Sold,ALAMEDA
481,4171 Sora Cmn,2.0,2.0,Fremont,"1,405 sqft","Nov 15, 2013","$485,000",37.573566,-122.04478,CA,Townhouse,485000,"$563,000",94555,Northgate,,,Sold,ALAMEDA
482,34503 Nantucket Cmn,1.5,3.0,Fremont,"1,166 sqft","Nov 15, 2013","$370,000",37.573124,-122.03949,CA,Townhouse,370000,"$403,000",94555,Northgate,,,Sold,ALAMEDA
483,37649 Los Arboles Dr,2.0,4.0,Fremont,"1,583 sqft","Nov 15, 2013","$631,000",37.545433,-122.01189,CA,Single-Family Home,631000,"$726,000",94536,Glenmoor,,,Sold,ALAMEDA
484,38108 Cambridge Ct,2.5,4.0,Fremont,"2,240 sqft","Nov 15, 2013","$800,000",37.56228,-121.98751,CA,Single-Family Home,800000,"$1,051,000",94536,Parkmont,,,Sold,ALAMEDA
485,4643 Griffith Ave,2.0,4.0,Fremont,"1,901 sqft","Nov 15, 2013","$700,000",37.526577,-121.971306,CA,Single-Family Home,700000,"$774,000",94538,South Sundale,,,Sold,ALAMEDA
486,36418 Feliz Ct,2.0,3.0,Fremont,"1,330 sqft","Nov 15, 2013","$565,000",37.556873,-122.02139,CA,Single-Family Home,565000,"$639,000",94536,Cabrillo,,,Sold,ALAMEDA
487,41091 Pajaro Dr,2.5,4.0,Fremont,"1,902 sqft","Nov 15, 2013","$1,000,000",37.543407,-121.94689,CA,Single-Family Home,1000000,"$1,209,000",94539,Kimber - Gomes,,,Sold,ALAMEDA
488,33186 Lake Pyramid St,2.0,3.0,Fremont,"1,060 sqft","Nov 15, 2013","$490,000",37.58365,-122.0555,CA,Single-Family Home,490000,"$588,000",94555,Lakes and Birds,,,Sold,ALAMEDA
489,3655 Birchwood Ter #111,2.0,2.0,Fremont,"1,125 sqft","Nov 15, 2013","$335,000",37.562702,-122.00766,CA,Condo,335000,"$431,000",94536,Centerville,,,Sold,ALAMEDA
490,5867 Via Lugano,,,Fremont,,"Nov 15, 2013","$657,500",37.55913,-122.0626,CA,Condo,657500,,94555,Ardenwood,,,Sold,ALAMEDA
491,4224 Eugene St,1.0,3.0,Fremont,925 sqft,"Nov 14, 2013","$440,000",37.53456,-121.96789,CA,Single-Family Home,440000,"$518,000",94538,South Sundale,,,Sold,ALAMEDA
492,5863 Via Lugano,,,Fremont,,"Nov 14, 2013","$598,500",37.559135,-122.06259,CA,Unknown,598500,,94555,Ardenwood,,,Sold,ALAMEDA
493,41668 Gifford St,2.0,3.0,Fremont,"1,310 sqft","Nov 14, 2013","$740,000",37.526352,-121.962074,CA,Single-Family Home,740000,"$777,000",94538,Irvington,,,Sold,ALAMEDA
494,5635 Willkie Pl,2.0,3.0,Fremont,"1,232 sqft","Nov 14, 2013","$510,000",37.52611,-121.99246,CA,Single-Family Home,510000,"$601,000",94538,28 Palms,,,Sold,ALAMEDA
495,37699 Los Arboles Dr,2.0,3.0,Fremont,"1,370 sqft","Nov 14, 2013","$585,000",37.544796,-122.0117,CA,Single-Family Home,585000,"$606,000",94536,Glenmoor,,,Sold,ALAMEDA
496,33137 Lake Superior Pl,2.0,4.0,Fremont,"1,668 sqft","Nov 14, 2013","$566,000",37.585884,-122.053734,CA,Single-Family Home,566000,"$681,000",94555,Lakes and Birds,,,Sold,ALAMEDA
497,3300 Wolcott Cmn #206,1.0,1.0,Fremont,712 sqft,"Nov 14, 2013","$221,000",37.537746,-121.95786,CA,Condo,221000,"$294,000",94538,Irvington,,,Sold,ALAMEDA
498,3017 Mountain Dr,3.0,4.0,Fremont,"2,678 sqft","Nov 14, 2013","$950,000",37.586887,-122.042496,CA,Single-Family Home,950000,"$1,064,000",94555,Northgate,,,Sold,ALAMEDA
499,3963 Lake Woodland Cmn,1.5,2.0,Fremont,"1,056 sqft","Nov 14, 2013","$315,000",37.583996,-122.05805,CA,Townhouse,315000,"$410,000",94555,Lakes and Birds,,,Sold,ALAMEDA
500,3096 Nightingale Pl,4.0,6.0,Fremont,"1,858 sqft","Nov 14, 2013","$732,500",37.57821,-122.02764,CA,Single-Family Home,732500,"$824,000",94555,Northgate,,,Sold,ALAMEDA
501,4578 Porter St,2.0,3.0,Fremont,"1,148 sqft","Nov 13, 2013","$549,000",37.531185,-121.97567,CA,Single-Family Home,549000,"$621,000",94538,South Sundale,,,Sold,ALAMEDA
502,40326 Condon St,1.0,3.0,Fremont,950 sqft,"Nov 13, 2013","$455,000",37.541084,-121.96601,CA,Single-Family Home,455000,"$520,000",94538,Central Downtown,,,Sold,ALAMEDA
503,38623 Cherry Ln,1.5,3.0,Fremont,"1,101 sqft","Nov 13, 2013","$350,000",37.565502,-121.97237,CA,Condo,350000,"$359,000",94536,Cherry - Guardino,,,Sold,ALAMEDA
504,37031 Dondero Way,1.0,2.0,Fremont,747 sqft,"Nov 13, 2013","$515,000",37.549026,-122.02002,CA,Single-Family Home,515000,"$440,000",94536,Centerville,,,Sold,ALAMEDA
505,4295 Argonaut Ct,2.0,3.0,Fremont,"1,220 sqft","Nov 13, 2013","$630,000",37.545784,-121.99337,CA,Single-Family Home,630000,"$691,000",94536,Glenmoor,,,Sold,ALAMEDA
506,38037 Conrad St,2.0,4.0,Fremont,"1,494 sqft","Nov 13, 2013","$606,000",37.563126,-121.991714,CA,Single-Family Home,606000,"$756,000",94536,Parkmont,,,Sold,ALAMEDA
507,5541 Farina Ln,2.0,3.0,Fremont,"1,204 sqft","Nov 12, 2013","$612,000",37.51744,-121.97766,CA,Single-Family Home,612000,"$632,000",94538,Blacow,,,Sold,ALAMEDA
508,34203 Aberdeen Ter,1.5,2.0,Fremont,988 sqft,"Nov 12, 2013","$326,000",37.5778,-122.03866,CA,Townhouse,326000,"$388,000",94555,Northgate,,,Sold,ALAMEDA
509,1187 Angelfish Ter,2.5,3.0,Fremont,"1,610 sqft","Nov 12, 2013","$645,000",37.559742,-121.973045,CA,Single-Family Home,645000,"$737,000",94536,Cherry - Guardino,,,Sold,ALAMEDA
510,40733 Greystone Ter,4.0,4.0,Fremont,"1,568 sqft","Nov 12, 2013","$630,000",37.53328,-121.96774,CA,Condo,630000,"$724,000",94538,Irvington,,,Sold,ALAMEDA
511,39059 Guardino Dr #206,1.0,1.0,Fremont,693 sqft,"Nov 12, 2013","$270,000",37.558685,-121.97102,CA,Condo,270000,"$294,000",94538,Central Downtown,,,Sold,ALAMEDA
512,38730 Chimaera Cir,2.5,4.0,Fremont,"1,643 sqft","Nov 12, 2013","$715,000",37.564125,-121.97296,CA,Single-Family Home,715000,"$825,000",94536,Cherry - Guardino,,,Sold,ALAMEDA
513,41825 Paseo Padre Pkwy,2.0,3.0,Fremont,"1,470 sqft","Nov 8, 2013","$850,000",37.53875,-121.94097,CA,Single-Family Home,850000,"$1,065,000",94539,Mission Valley,,,Sold,ALAMEDA
514,38376 Timpanogas Cir,2.0,3.0,Fremont,"1,120 sqft","Nov 8, 2013","$520,000",37.57648,-121.96415,CA,Single-Family Home,520000,"$664,000",94536,Canyon Heights - Vallejo Mills,,,Sold,ALAMEDA
515,5987 Via Lugano,3.5,3.0,Fremont,"1,481 sqft","Nov 8, 2013","$614,000",37.55908,-122.0628,CA,Condo,614000,"$676,000",94555,Ardenwood,,,Sold,ALAMEDA
516,40959 Nunes Ct,2.0,3.0,Fremont,"1,364 sqft","Nov 8, 2013","$820,000",37.54172,-121.95093,CA,Single-Family Home,820000,"$974,000",94539,Kimber - Gomes,,,Sold,ALAMEDA
517,3542 Yorktown Rd,2.0,3.0,Fremont,"1,112 sqft","Nov 8, 2013","$520,000",37.517414,-121.94895,CA,Single-Family Home,520000,"$601,000",94538,Grimmer,,,Sold,ALAMEDA
518,39109 Guardino Dr #139,1.0,2.0,Fremont,857 sqft,"Nov 8, 2013","$320,000",37.55811,-121.97124,CA,Condo,320000,"$357,000",94538,Central Downtown,,,Sold,ALAMEDA
519,4128 Converse St,2.5,3.0,Fremont,"2,214 sqft","Nov 8, 2013","$696,500",37.515644,-121.95514,CA,Single-Family Home,696500,"$833,000",94538,Grimmer,,,Sold,ALAMEDA
520,40241 Fremont Blvd,2.0,3.0,Fremont,"1,150 sqft","Nov 8, 2013","$540,000",37.53883,-121.970474,CA,Single-Family Home,540000,"$612,000",94538,South Sundale,,,Sold,ALAMEDA
521,38912 Stillwater Cmn,3.0,5.0,Fremont,"1,771 sqft","Nov 8, 2013","$713,000",37.562603,-121.96851,CA,Single-Family Home,713000,"$806,000",94536,Cherry - Guardino,,,Sold,ALAMEDA
522,38717 Crane Ter,2.0,2.0,Fremont,"1,380 sqft","Nov 8, 2013","$499,000",37.569153,-121.9641,CA,Condo,499000,"$533,000",94536,Canyon Heights - Vallejo Mills,,,Sold,ALAMEDA
523,5069 Xavier Cmn,2.5,3.0,Fremont,"1,932 sqft","Nov 8, 2013","$830,000",37.56434,-122.05202,CA,Single-Family Home,830000,"$885,000",94555,Ardenwood,,,Sold,ALAMEDA
524,635 Pinot Blanc Way,3.0,4.0,Fremont,"2,305 sqft","Nov 8, 2013","$990,000",37.467026,-121.90819,CA,Single-Family Home,990000,"$1,148,000",94539,Warm Springs,,,Sold,ALAMEDA
525,39635 Buena Vista Ter,2.5,3.0,Fremont,"1,558 sqft","Nov 8, 2013","$520,000",37.542564,-121.98009,CA,Single-Family Home,520000,"$655,000",94538,Sundale,,,Sold,ALAMEDA
526,4040 Hemingway Cmn,2.5,3.0,Fremont,"1,669 sqft","Nov 8, 2013","$655,000",37.549965,-121.99357,CA,Single-Family Home,655000,"$757,000",94536,Glenmoor,,,Sold,ALAMEDA
527,40440 Carmelita Ct,2.0,3.0,Fremont,"1,689 sqft","Nov 8, 2013","$1,005,000",37.554104,-121.949905,CA,Single-Family Home,1005000,"$1,048,000",94539,Kimber - Gomes,,,Sold,ALAMEDA
528,4442 Ladner St,1.0,3.0,Fremont,"1,233 sqft","Nov 8, 2013","$460,000",37.531822,-121.97013,CA,Single-Family Home,460000,"$590,000",94538,South Sundale,,,Sold,ALAMEDA
529,38365 Anita Ct,2.0,4.0,Fremont,"2,039 sqft","Nov 7, 2013","$771,000",37.57389,-121.96678,CA,Single-Family Home,771000,"$833,000",94536,Canyon Heights - Vallejo Mills,,,Sold,ALAMEDA
530,37503 Mission Blvd,2.0,3.0,Fremont,"1,736 sqft","Nov 7, 2013","$480,000",37.578224,-121.97764,CA,Multi-Family,480000,,94536,Niles,,,Sold,ALAMEDA
531,43314 Jerome Ave,3.0,4.0,Fremont,"1,818 sqft","Nov 7, 2013","$869,000",37.532272,-121.92557,CA,Multi-Family,869000,"$1,091,000",94539,Mission San Jose,,,Sold,ALAMEDA
532,37131 Holly St,1.0,3.0,Fremont,"1,043 sqft","Nov 7, 2013","$660,000",37.55644,-122.01237,CA,Single-Family Home,660000,"$555,000",94536,Centerville,,,Sold,ALAMEDA
533,49080 Meadowfaire Cmn #300,2.0,2.0,Fremont,"1,087 sqft","Nov 7, 2013","$500,000",37.461098,-121.91336,CA,Condo,500000,"$587,000",94539,East Industrial,,,Sold,ALAMEDA
534,940 Sunrise Dr,2.5,3.0,Fremont,"2,052 sqft","Nov 7, 2013","$1,225,000",37.515137,-121.924805,CA,Single-Family Home,1225000,"$1,289,000",94539,Mission San Jose,,,Sold,ALAMEDA
535,2716 Benchmark Ave,3.0,4.0,Fremont,"2,278 sqft","Nov 7, 2013","$830,000",37.561764,-121.99386,CA,Single-Family Home,830000,"$858,000",94536,Parkmont,,,Sold,ALAMEDA
536,34354 Dunhill Dr,2.5,3.0,Fremont,"1,807 sqft","Nov 7, 2013","$761,000",37.55876,-122.05658,CA,Single-Family Home,761000,"$852,000",94555,Ardenwood,,,Sold,ALAMEDA
537,2084 Primrose Ct,2.0,3.0,Fremont,"1,484 sqft","Nov 7, 2013","$850,000",37.50987,-121.934845,CA,Single-Family Home,850000,"$955,000",94539,Weibel,,,Sold,ALAMEDA
538,4045 Caribbean Cmn,2.5,4.0,Fremont,"1,474 sqft","Nov 7, 2013","$377,500",37.57254,-122.03826,CA,Townhouse,377500,"$493,000",94555,Northgate,,,Sold,ALAMEDA
539,4505 Santee Rd,2.0,4.0,Fremont,"1,474 sqft","Nov 6, 2013","$625,000",37.56749,-122.04,CA,Single-Family Home,625000,"$778,000",94555,Northgate,,,Sold,ALAMEDA
540,42665 Queens Park Ct,2.0,4.0,Fremont,"1,551 sqft","Nov 6, 2013","$595,000",37.5173,-121.97344,CA,Single-Family Home,595000,"$703,000",94538,Blacow,,,Sold,ALAMEDA
541,35944 Mission Blvd,1.0,2.0,Fremont,"1,075 sqft","Nov 6, 2013","$440,000",37.58406,-121.9943,CA,Single-Family Home,440000,"$587,000",94536,Niles,,,Sold,ALAMEDA
542,44833 Camellia Dr,2.0,3.0,Fremont,"1,554 sqft","Nov 6, 2013","$752,500",37.508293,-121.93545,CA,Single-Family Home,752500,"$966,000",94539,Weibel,,,Sold,ALAMEDA
543,561 Lambert Ter,2.5,3.0,Fremont,"1,592 sqft","Nov 6, 2013","$550,000",37.5652,-121.97067,CA,Townhouse,550000,"$655,000",94536,Cherry - Guardino,,,Sold,ALAMEDA
544,3122 Keats St,2.0,3.0,Fremont,"1,500 sqft","Nov 6, 2013","$675,000",37.556248,-121.988594,CA,Single-Family Home,675000,"$811,000",94536,Centerville,,,Sold,ALAMEDA
545,39643 Royal Palm Dr,2.0,4.0,Fremont,"1,456 sqft","Nov 6, 2013","$520,000",37.529083,-121.99106,CA,Single-Family Home,520000,"$648,000",94538,28 Palms,,,Sold,ALAMEDA
546,3902 Springfield Cmn,2.5,4.0,Fremont,"1,898 sqft","Nov 5, 2013","$401,000",37.57732,-122.040794,CA,Single-Family Home,401000,"$895,000",94555,Northgate,,,Sold,ALAMEDA
547,36409 Frobisher Dr,2.0,3.0,Fremont,"1,168 sqft","Nov 5, 2013","$531,000",37.552982,-122.02547,CA,Single-Family Home,531000,"$584,000",94536,Cabrillo,,,Sold,ALAMEDA
548,34802 Warwick Ct,2.0,3.0,Fremont,"1,390 sqft","Nov 5, 2013","$649,000",37.57788,-122.029076,CA,Single-Family Home,649000,"$727,000",94555,Northgate,,,Sold,ALAMEDA
549,43219 Portofino Ter,2.5,2.0,Fremont,"1,196 sqft","Nov 5, 2013","$650,000",37.532967,-121.92823,CA,Townhouse,650000,"$801,000",94539,Mission San Jose,,,Sold,ALAMEDA
550,34249 Gadwall Cmn,2.0,2.0,Fremont,"1,405 sqft","Nov 5, 2013","$512,000",37.57517,-122.0456,CA,Townhouse,512000,"$551,000",94555,Northgate,,,Sold,ALAMEDA
551,1267 Casa Marcia Pl,3.0,4.0,Fremont,"1,939 sqft","Nov 5, 2013","$1,084,000",37.54768,-121.95287,CA,Single-Family Home,1084000,"$1,278,000",94539,Kimber - Gomes,,,Sold,ALAMEDA
552,35416 Cabral Dr,2.0,3.0,Fremont,"1,242 sqft","Nov 5, 2013","$500,000",37.560814,-122.03409,CA,Single-Family Home,500000,"$625,000",94536,Cabrillo,,,Sold,ALAMEDA
553,41225 Erma Ave,3.0,5.0,Fremont,"2,066 sqft","Nov 5, 2013","$950,000",37.5384,-121.94951,CA,Single-Family Home,950000,"$1,193,000",94539,Mission Valley,,,Sold,ALAMEDA
554,42658 Lemonwood St,2.0,3.0,Fremont,"1,214 sqft","Nov 5, 2013","$660,000",37.517906,-121.96374,CA,Single-Family Home,660000,"$684,000",94538,Grimmer,,,Sold,ALAMEDA
555,933 Ilima Ct,2.0,3.0,Fremont,"1,609 sqft","Nov 5, 2013","$650,000",37.580067,-122.000885,CA,Single-Family Home,650000,"$707,000",94536,Niles,,,Sold,ALAMEDA
556,39029 Guardino Dr #221,1.0,1.0,Fremont,693 sqft,"Nov 4, 2013","$270,000",37.55858,-121.9716,CA,Condo,270000,"$297,000",94538,Central Downtown,,,Sold,ALAMEDA
557,5566 Hughes Pl,2.0,3.0,Fremont,"1,089 sqft","Nov 4, 2013","$525,000",37.52716,-121.99301,CA,Single-Family Home,525000,"$575,000",94538,28 Palms,,,Sold,ALAMEDA
558,40940 Valero Dr,2.0,4.0,Fremont,"1,583 sqft","Nov 1, 2013","$905,000",37.53939,-121.953156,CA,Single-Family Home,905000,"$1,123,000",94539,Kimber - Gomes,,,Sold,ALAMEDA
559,43373 Jerome Ave,1.0,3.0,Fremont,"1,008 sqft","Nov 1, 2013","$861,000",37.531113,-121.92586,CA,Single-Family Home,861000,"$956,000",94539,Mission San Jose,,,Sold,ALAMEDA
560,37879 3rd St,1.0,3.0,Fremont,"1,158 sqft","Nov 1, 2013","$601,000",37.574116,-121.97792,CA,Single-Family Home,601000,"$585,000",94536,Niles,,,Sold,ALAMEDA
561,34987 Belvedere Ter,2.0,2.0,Fremont,"1,276 sqft","Nov 1, 2013","$435,000",37.568344,-122.035545,CA,Townhouse,435000,"$476,000",94555,Northgate,,,Sold,ALAMEDA
562,137 Gamma Grass Ter #U258,2.0,2.0,Fremont,"1,303 sqft","Nov 1, 2013","$631,000",37.462776,-121.91468,CA,Single-Family Home,631000,"$670,000",94539,East Industrial,,,Sold,ALAMEDA
563,38740 Tyson Ln #212B,2.0,2.0,Fremont,"1,124 sqft","Nov 1, 2013","$448,000",37.562252,-121.97412,CA,Condo,448000,"$511,000",94536,Cherry - Guardino,,,Sold,ALAMEDA
564,5014 Banff Park Ct,2.0,4.0,Fremont,"1,736 sqft","Nov 1, 2013","$675,000",37.51345,-121.97033,CA,Single-Family Home,675000,"$738,000",94538,Blacow,,,Sold,ALAMEDA
565,36530 Bedelio Ter,2.5,4.0,Fremont,"1,474 sqft","Nov 1, 2013","$426,500",37.557846,-122.01865,CA,Townhouse,426500,"$502,000",94536,Cabrillo,,,Sold,ALAMEDA
566,41610 Covington Dr,2.0,4.0,Fremont,"1,539 sqft","Nov 1, 2013","$1,041,000",37.543262,-121.93861,CA,Single-Family Home,1041000,"$1,180,000",94539,Mission Valley,,,Sold,ALAMEDA
567,3228 Woodside Ter,4.5,5.0,Fremont,"3,712 sqft","Nov 1, 2013","$1,968,000",37.480316,-121.901,CA,Single-Family Home,1968000,"$2,235,000",94539,Vineyards - Avalon,,,Sold,ALAMEDA
568,1670 Vinehill Cir,4.0,5.0,Fremont,"4,601 sqft","Nov 1, 2013","$1,866,000",37.50681,-121.91002,CA,Single-Family Home,1866000,"$1,946,000",94539,Vineyards - Avalon,,,Sold,ALAMEDA
569,36923 Bolina Ter,2.0,4.0,Fremont,"1,300 sqft","Oct 31, 2013","$435,000",37.554905,-122.0186,CA,Townhouse,435000,"$486,000",94536,Cabrillo,,,Sold,ALAMEDA
570,33225 Sandpiper Pl,,,Fremont,"1,871 sqft","Oct 31, 2013","$770,000",37.577663,-122.0606,CA,Single-Family Home,770000,"$818,000",94555,Lakes and Birds,,,Sold,ALAMEDA
571,1272 Kruger Ave,2.5,4.0,Fremont,"2,185 sqft","Oct 31, 2013","$755,000",37.564697,-121.981285,CA,Single-Family Home,755000,"$968,000",94536,Parkmont,,,Sold,ALAMEDA
572,4840 Creekwood Dr,2.5,4.0,Fremont,"1,863 sqft","Oct 31, 2013","$735,000",37.56695,-122.047714,CA,Single-Family Home,735000,"$864,000",94555,Ardenwood,,,Sold,ALAMEDA
573,40001 Dolerita Ave,,,Fremont,"1,958 sqft","Oct 31, 2013","$1,225,000",37.557957,-121.9504,CA,Single-Family Home,1225000,"$1,242,000",94539,Kimber - Gomes,,,Sold,ALAMEDA
574,931 Seville Pl,3.0,4.0,Fremont,"1,914 sqft","Oct 31, 2013","$1,130,000",37.552025,-121.95401,CA,Single-Family Home,1130000,"$1,164,000",94539,Kimber - Gomes,,,Sold,ALAMEDA
575,4067 Darwin Dr,2.0,4.0,Fremont,"1,476 sqft","Oct 31, 2013","$580,000",37.573406,-122.03992,CA,Single-Family Home,580000,"$722,000",94555,Northgate,,,Sold,ALAMEDA
576,2333 Grapevine Ter,4.0,5.0,Fremont,"4,328 sqft","Oct 31, 2013","$1,750,000",37.50893,-121.90684,CA,Single-Family Home,1750000,"$2,041,000",94539,Vineyards - Avalon,,,Sold,ALAMEDA
577,34755 Tuxedo Cmn,1.5,2.0,Fremont,991 sqft,"Oct 31, 2013","$445,000",37.562443,-122.04546,CA,Condo,445000,"$472,000",94555,Ardenwood,,,Sold,ALAMEDA
578,4965 Hyde Park Dr,2.0,3.0,Fremont,"1,285 sqft","Oct 31, 2013","$600,000",37.512157,-121.96893,CA,Single-Family Home,600000,"$649,000",94538,Blacow,,,Sold,ALAMEDA
579,37452 Rockwood Dr,2.0,3.0,Fremont,"1,167 sqft","Oct 31, 2013","$527,500",37.548775,-122.01251,CA,Single-Family Home,527500,"$626,000",94536,Centerville,,,Sold,ALAMEDA
580,37439 Joseph St,2.0,3.0,Fremont,"1,700 sqft","Oct 31, 2013","$685,000",37.555103,-122.0072,CA,Single-Family Home,685000,"$806,000",94536,Centerville,,,Sold,ALAMEDA
581,38527 Royal Ann Cmn,1.5,3.0,Fremont,"1,180 sqft","Oct 31, 2013","$349,000",37.56696,-121.971535,CA,Townhouse,349000,"$404,000",94536,Cherry - Guardino,,,Sold,ALAMEDA
582,3147 Salisbury Ct,2.0,3.0,Fremont,"1,390 sqft","Oct 31, 2013","$660,000",37.57815,-122.03052,CA,Single-Family Home,660000,"$717,000",94555,Northgate,,,Sold,ALAMEDA
583,41339 Alline St,2.0,4.0,Fremont,"1,576 sqft","Oct 31, 2013","$855,000",37.528027,-121.967575,CA,Single-Family Home,855000,"$828,000",94538,Irvington,,,Sold,ALAMEDA
584,34633 Lang Ave,2.0,3.0,Fremont,"1,603 sqft","Oct 31, 2013","$646,000",37.57487,-122.0346,CA,Single-Family Home,646000,"$810,000",94555,Northgate,,,Sold,ALAMEDA
585,4383 Torres Ave,2.0,4.0,Fremont,"1,740 sqft","Oct 31, 2013","$340,000",37.5584,-122.0208,CA,Single-Family Home,340000,"$732,000",94536,Cabrillo,,,Sold,ALAMEDA
586,4371 Bidwell Dr,2.0,5.0,Fremont,"1,938 sqft","Oct 31, 2013","$545,000",37.539,-121.98092,CA,Single-Family Home,545000,"$716,000",94538,Sundale,,,Sold,ALAMEDA
587,38695 Adcock Dr,2.5,4.0,Fremont,"1,871 sqft","Oct 31, 2013","$737,000",37.565796,-121.96867,CA,Single-Family Home,737000,"$826,000",94536,Cherry - Guardino,,,Sold,ALAMEDA
588,4440 Caren St,2.0,3.0,Fremont,"1,318 sqft","Oct 31, 2013","$635,000",37.530594,-121.9683,CA,Single-Family Home,635000,"$734,000",94538,Irvington,,,Sold,ALAMEDA
589,4102 Polonius Cir,,,Fremont,"1,380 sqft","Oct 31, 2013","$635,000",37.577217,-122.04967,CA,Single-Family Home,635000,"$796,000",94555,Ardenwood,,,Sold,ALAMEDA
590,37903 Essanay Pl,1.5,2.0,Fremont,891 sqft,"Oct 30, 2013","$410,000",37.57609,-121.974075,CA,Single-Family Home,410000,"$513,000",94536,Niles,,,Sold,ALAMEDA
591,4838 Regents Park Ln,2.0,3.0,Fremont,"1,285 sqft","Oct 30, 2013","$588,000",37.51385,-121.96621,CA,Single-Family Home,588000,"$634,000",94538,Blacow,,,Sold,ALAMEDA
592,4374 Eggers Dr,2.0,3.0,Fremont,"1,340 sqft","Oct 30, 2013","$650,000",37.548027,-121.999664,CA,Single-Family Home,650000,"$701,000",94536,Glenmoor,,,Sold,ALAMEDA
593,35435 Ronda Ct,2.5,4.0,Fremont,"1,868 sqft","Oct 30, 2013","$771,000",37.569923,-122.02567,CA,Single-Family Home,771000,"$833,000",94536,Brookvale,,,Sold,ALAMEDA
594,3155 Lake Pillsbury Dr,2.0,4.0,Fremont,"1,234 sqft","Oct 30, 2013","$570,000",37.5924,-122.05717,CA,Single-Family Home,570000,"$742,000",94555,,,,Sold,ALAMEDA
595,34714 Powder River Pl,2.0,3.0,Fremont,"1,709 sqft","Oct 30, 2013","$630,000",37.57149,-122.03619,CA,Single-Family Home,630000,"$794,000",94555,Northgate,,,Sold,ALAMEDA
596,3026 Rockett Dr,1.0,3.0,Fremont,950 sqft,"Oct 30, 2013","$352,000",37.54171,-121.96214,CA,Single-Family Home,352000,"$476,000",94538,Central Downtown,,,Sold,ALAMEDA
597,4213 Chetwood Ave,2.0,4.0,Fremont,"1,680 sqft","Oct 30, 2013","$685,000",37.52335,-121.960335,CA,Single-Family Home,685000,"$758,000",94538,Grimmer,,,Sold,ALAMEDA
598,35965 Caxton Pl,3.0,6.0,Fremont,"2,359 sqft","Oct 29, 2013","$776,500",37.56786,-122.01959,CA,Single-Family Home,776500,"$851,000",94536,Brookvale,,,Sold,ALAMEDA
599,1361 Bedford St,2.0,3.0,Fremont,"2,014 sqft","Oct 29, 2013","$1,190,000",37.54063,-121.94282,CA,Single-Family Home,1190000,"$1,218,000",94539,Mission Valley,,,Sold,ALAMEDA
600,34336 Gadwall Cmn,2.0,2.0,Fremont,"1,405 sqft","Oct 29, 2013","$495,000",37.57503,-122.04435,CA,Townhouse,495000,"$542,000",94555,Northgate,,,Sold,ALAMEDA
601,4520 Norocco Cir,2.5,4.0,Fremont,"1,717 sqft","Oct 29, 2013","$743,000",37.5737,-122.04919,CA,Single-Family Home,743000,"$854,000",94555,Ardenwood,,,Sold,ALAMEDA
602,1170 Gilbert Ct,,,Fremont,"1,785 sqft","Oct 29, 2013","$784,000",37.566635,-121.98009,CA,Single-Family Home,784000,"$805,000",94536,Parkmont,,,Sold,ALAMEDA
603,37311 Aspenwood Cmn #204,1.0,1.0,Fremont,936 sqft,"Oct 29, 2013","$310,000",37.56231,-122.005005,CA,Condo,310000,"$339,000",94536,Centerville,,,Sold,ALAMEDA
604,5998 Pompei Ter #128,2.5,3.0,Fremont,"1,514 sqft","Oct 29, 2013","$629,000",37.557438,-122.06123,CA,Condo,629000,"$646,000",94555,Ardenwood,,,Sold,ALAMEDA
605,4630 Westwood Ave,2.0,3.0,Fremont,"1,148 sqft","Oct 29, 2013","$491,000",37.54642,-122.00767,CA,Single-Family Home,491000,"$616,000",94536,Glenmoor,,,Sold,ALAMEDA
