id,address,bathroom,bedroom,city,formattedSqft,lastSaleDate,lastSalePrice,latitude,longitude,stateCode,typeDisplay,price,formattedTruliaEstimate,zipCode,neighborhood,walkScore,transitScore,status,county
1,88 King St #1322,2.0,3.0,San Francisco,"1,369 sqft","Feb 28, 2014","$1,800,000",37.78063,-122.389626,CA,Condo,1800000,"$2,078,000",94107,South Beach,,,Sold,SAN FRANCISCO
2,55 Page St #514,1.0,1.0,San Francisco,476 sqft,"Feb 28, 2014","$530,000",37.77389,-122.421875,CA,Condo,530000,"$477,000",94102,Hayes Valley,,,Sold,SAN FRANCISCO
3,750 2nd St #401,2.0,2.0,San Francisco,"1,591 sqft","Feb 28, 2014","$1,935,000",37.780006,-122.390274,CA,Condo,1935000,"$1,722,000",94107,South Beach,,,Sold,SAN FRANCISCO
4,572 Missouri St #572A,2.0,2.0,San Francisco,"1,765 sqft","Feb 28, 2014","$1,250,000",37.759083,-122.39633,CA,Condo,1250000,"$1,228,000",94107,Potrero Hill,,,Sold,SAN FRANCISCO
5,334 Holladay Ave,1.0,,San Francisco,"1,275 sqft","Feb 28, 2014","$760,000",37.744442,-122.40603,CA,Single-Family Home,760000,"$1,202,000",94110,Bernal Heights,,,Sold,SAN FRANCISCO
6,1580 Sanchez St #1582,3.0,,San Francisco,"3,100 sqft","Feb 28, 2014","$1,550,000",37.743805,-122.42923,CA,Multi-Family,1550000,,94131,Noe Valley,,,Sold,SAN FRANCISCO
7,249 Shipley St #2,1.0,1.0,San Francisco,892 sqft,"Feb 28, 2014","$695,000",37.77889,-122.40376,CA,Condo,695000,"$773,000",94107,SoMa,,,Sold,SAN FRANCISCO
8,1025 17th St #8,2.0,,San Francisco,829 sqft,"Feb 28, 2014","$589,000",37.765003,-122.39434,CA,Condo,589000,"$743,000",94107,Potrero Hill,,,Sold,SAN FRANCISCO
9,650 Delancey St #105,2.0,,San Francisco,"1,554 sqft","Feb 28, 2014","$1,375,000",37.782776,-122.38969,CA,Condo,1375000,"$1,433,000",94107,South Beach,,,Sold,SAN FRANCISCO
10,1455 41st Ave,1.0,,San Francisco,"1,250 sqft","Feb 28, 2014","$823,500",37.759613,-122.500824,CA,Single-Family Home,823500,"$1,034,000",94122,Outer Sunset,,,Sold,SAN FRANCISCO
11,355 1st St #S810,1.0,1.0,San Francisco,675 sqft,"Feb 28, 2014","$740,000",37.78703,-122.39364,CA,Condo,740000,"$768,000",94105,South Beach,,,Sold,SAN FRANCISCO
12,85 Turquoise Way,2.0,,San Francisco,"2,200 sqft","Feb 28, 2014","$1,425,000",37.74383,-122.44497,CA,Single-Family Home,1425000,"$1,474,000",94131,Diamond Heights,,,Sold,SAN FRANCISCO
13,435 Dolores St,1.0,3.0,San Francisco,"1,400 sqft","Feb 28, 2014","$1,335,000",37.762512,-122.42578,CA,Condo,1335000,"$1,313,000",94110,Mission Dolores,,,Sold,SAN FRANCISCO
14,2206 38th Ave,1.0,3.0,San Francisco,"1,300 sqft","Feb 28, 2014","$800,000",37.745686,-122.49603,CA,Single-Family Home,800000,"$831,000",94116,Outer Sunset,,,Sold,SAN FRANCISCO
15,1743 Golden Gate Ave #1753,12.0,12.0,San Francisco,"9,651 sqft","Feb 28, 2014","$4,190,000",37.778343,-122.439285,CA,Multi-Family,4190000,,94115,North Park,,,Sold,SAN FRANCISCO
16,913 Alvarado St,3.0,4.0,San Francisco,"2,461 sqft","Feb 28, 2014","$2,490,000",37.753025,-122.4414,CA,Single-Family Home,2490000,"$2,635,000",94114,Noe Valley,,,Sold,SAN FRANCISCO
17,206 Silliman St #208,2.0,,San Francisco,"1,500 sqft","Feb 28, 2014","$670,000",37.73087,-122.40737,CA,Multi-Family,670000,,94134,Portola,,,Sold,SAN FRANCISCO
18,2209 Bryant St,1.0,2.0,San Francisco,"1,212 sqft","Feb 28, 2014","$1,100,000",37.75895,-122.4094,CA,Condo,1100000,"$1,101,000",94110,Potrero Hill,,,Sold,SAN FRANCISCO
19,180 Laura St,2.0,3.0,San Francisco,"1,125 sqft","Feb 28, 2014","$725,000",37.71161,-122.45222,CA,Single-Family Home,725000,"$714,000",94112,Outer Mission,,,Sold,SAN FRANCISCO
20,2586 San Jose Ave,1.0,,San Francisco,"1,025 sqft","Feb 28, 2014","$895,000",37.7167,-122.45031,CA,Single-Family Home,895000,"$734,000",94112,Ingleside,,,Sold,SAN FRANCISCO
21,2001 Mcallister St #238,1.0,1.0,San Francisco,681 sqft,"Feb 28, 2014","$630,000",37.776382,-122.44569,CA,Condo,630000,"$688,000",94118,North Park,,,Sold,SAN FRANCISCO
22,1450 Post St #502,,,San Francisco,565 sqft,"Feb 28, 2014","$115,000",37.78636,-122.425835,CA,Condo,115000,"$240,000",94109,Lower Pacific Heights,,,Sold,SAN FRANCISCO
23,219 Brannan St #12A,1.0,1.0,San Francisco,808 sqft,"Feb 28, 2014","$995,000",37.782646,-122.39039,CA,Condo,995000,"$1,016,000",94107,South Beach,,,Sold,SAN FRANCISCO
24,48 Langton St #3,2.0,2.0,San Francisco,"1,266 sqft","Feb 28, 2014","$1,100,000",37.7768,-122.40926,CA,Condo,1100000,"$1,176,000",94103,SoMa,,,Sold,SAN FRANCISCO
25,1495 Shafter Ave,1.0,,San Francisco,"1,025 sqft","Feb 28, 2014","$465,000",37.729748,-122.38887,CA,Single-Family Home,465000,"$505,000",94124,Bayview,,,Sold,SAN FRANCISCO
26,690 Market St #1705,1.0,1.0,San Francisco,952 sqft,"Feb 28, 2014","$1,300,000",37.788246,-122.40323,CA,Condo,1300000,"$1,443,000",94104,Downtown,,,Sold,SAN FRANCISCO
27,3223 Jennings St,2.0,3.0,San Francisco,"2,355 sqft","Feb 28, 2014","$601,000",37.719685,-122.39494,CA,Single-Family Home,601000,"$680,000",94124,Bayview,,,Sold,SAN FRANCISCO
28,132 Brewster St,2.0,3.0,San Francisco,"1,932 sqft","Feb 28, 2014","$1,250,000",37.744556,-122.40722,CA,Single-Family Home,1250000,"$1,380,000",94110,Bernal Heights,,,Sold,SAN FRANCISCO
29,2001 Mcallister St #146,1.0,1.0,San Francisco,682 sqft,"Feb 28, 2014","$335,000",37.776382,-122.44569,CA,Condo,335000,"$678,000",94118,North Park,,,Sold,SAN FRANCISCO
30,555 Paris St,1.0,,San Francisco,"1,200 sqft","Feb 28, 2014","$680,000",37.719837,-122.43598,CA,Single-Family Home,680000,"$746,000",94112,Excelsior,,,Sold,SAN FRANCISCO
31,400 Alemany Blvd #8,1.0,2.0,San Francisco,866 sqft,"Feb 28, 2014","$340,000",37.733143,-122.414566,CA,Condo,340000,"$666,000",94110,Bernal Heights,,,Sold,SAN FRANCISCO
32,321 Langton St #1,2.0,,San Francisco,"1,367 sqft","Feb 28, 2014","$985,000",37.773624,-122.40472,CA,Condo,985000,"$928,000",94103,Mission Bay,,,Sold,SAN FRANCISCO
33,200 Townsend St #12,1.0,,San Francisco,818 sqft,"Feb 28, 2014","$699,000",37.778885,-122.3933,CA,Condo,699000,"$786,000",94107,Mission Bay,,,Sold,SAN FRANCISCO
34,743 45th Ave,3.0,4.0,San Francisco,"2,125 sqft","Feb 28, 2014","$932,000",37.774475,-122.50616,CA,Single-Family Home,932000,"$1,171,000",94121,Outer Richmond,,,Sold,SAN FRANCISCO
35,733 Front St #407,1.0,1.0,San Francisco,843 sqft,"Feb 28, 2014","$799,500",37.798027,-122.40009,CA,Condo,799500,"$798,000",94111,Financial District,,,Sold,SAN FRANCISCO
36,2367 Bay St #2367A,1.0,,San Francisco,418 sqft,"Feb 28, 2014","$555,000",37.80121,-122.44591,CA,Condo,555000,"$618,000",94123,Marina,,,Sold,SAN FRANCISCO
37,174 Byxbee St,1.0,,San Francisco,"1,168 sqft","Feb 28, 2014","$669,500",37.717445,-122.46956,CA,Single-Family Home,669500,"$786,000",94132,Merced Heights,,,Sold,SAN FRANCISCO
38,1329 16th Ave,5.0,,San Francisco,"4,959 sqft","Feb 28, 2014","$1,550,000",37.763107,-122.4742,CA,Multi-Family,1550000,,94122,Inner Sunset,,,Sold,SAN FRANCISCO
39,22 Brighton Ave,1.0,,San Francisco,"1,268 sqft","Feb 28, 2014","$914,000",37.71868,-122.454796,CA,Single-Family Home,914000,"$787,000",94112,Ingleside,,,Sold,SAN FRANCISCO
40,960 Bush St #113,1.0,1.0,San Francisco,550 sqft,"Feb 28, 2014","$407,500",37.789944,-122.41273,CA,Condo,407500,"$534,000",94109,Downtown,,,Sold,SAN FRANCISCO
41,901 Bush St #103,,,San Francisco,426 sqft,"Feb 28, 2014","$535,000",37.78952,-122.41228,CA,Condo,535000,"$586,000",94109,Downtown,,,Sold,SAN FRANCISCO
42,3499 Sacramento St,,,San Francisco,828 sqft,"Feb 28, 2014","$750,000",37.78766,-122.45006,CA,Condo,750000,"$950,000",94118,Presidio Heights,,,Sold,SAN FRANCISCO
43,555 4th St #732,1.0,1.0,San Francisco,680 sqft,"Feb 28, 2014","$621,000",37.779423,-122.39671,CA,Condo,621000,"$722,000",94107,Mission Bay,,,Sold,SAN FRANCISCO
44,970 Duncan St #104F,2.0,,San Francisco,"1,175 sqft","Feb 28, 2014","$599,000",37.745384,-122.44203,CA,Condo,599000,"$698,000",94131,Diamond Heights,,,Sold,SAN FRANCISCO
45,2168 Grove St #2170,2.0,,San Francisco,"3,026 sqft","Feb 28, 2014","$1,425,000",37.77436,-122.45236,CA,Multi-Family,1425000,,94117,North Park,,,Sold,SAN FRANCISCO
46,1450 Guerrero St,4.0,,San Francisco,"3,180 sqft","Feb 28, 2014","$2,250,000",37.74783,-122.42274,CA,Multi-Family,2250000,,94110,Noe Valley,,,Sold,SAN FRANCISCO
47,317 29th St #208,,,San Francisco,908 sqft,"Feb 28, 2014","$1,050,000",37.743374,-122.42747,CA,Condo,1050000,"$1,047,000",94131,Noe Valley,,,Sold,SAN FRANCISCO
48,4107 Folsom St,1.0,2.0,San Francisco,822 sqft,"Feb 28, 2014","$795,000",37.735786,-122.413414,CA,Condo,795000,"$814,000",94110,Bernal Heights,,,Sold,SAN FRANCISCO
49,665 Moultrie St #667,2.0,,San Francisco,"2,200 sqft","Feb 28, 2014","$1,008,000",37.736332,-122.41585,CA,Multi-Family,1008000,,94110,Bernal Heights,,,Sold,SAN FRANCISCO
50,900 Bush St,2.0,2.0,San Francisco,831 sqft,"Feb 28, 2014","$620,000",37.789944,-122.41273,CA,Condo,620000,"$715,000",94109,Downtown,,,Sold,SAN FRANCISCO
51,2363 Larkin St #4,1.0,,San Francisco,663 sqft,"Feb 28, 2014","$560,000",37.799706,-122.421135,CA,Condo,560000,"$825,000",94109,Russian Hill,,,Sold,SAN FRANCISCO
52,601 Van Ness Ave #422,2.0,2.0,San Francisco,"1,099 sqft","Feb 28, 2014","$740,000",37.781387,-122.42141,CA,Condo,740000,"$772,000",94102,Civic Center,,,Sold,SAN FRANCISCO
53,45 Dellbrook Ave,2.0,4.0,San Francisco,"1,275 sqft","Feb 27, 2014","$1,001,000",37.750004,-122.453766,CA,Single-Family Home,1001000,"$1,214,000",94131,Midtown Terrace,,,Sold,SAN FRANCISCO
54,615 Bosworth St #617,2.0,,San Francisco,"1,970 sqft","Feb 27, 2014","$850,000",37.733353,-122.43453,CA,Multi-Family,850000,,94131,Glen Park,,,Sold,SAN FRANCISCO
55,161 Girard St,2.0,,San Francisco,"1,475 sqft","Feb 27, 2014","$820,000",37.73029,-122.40547,CA,Single-Family Home,820000,"$823,000",94134,Portola,,,Sold,SAN FRANCISCO
56,1235 Mcallister St #311,,,San Francisco,636 sqft,"Feb 27, 2014","$256,000",37.778034,-122.43251,CA,Condo,256000,"$552,000",94115,Alamo Square,,,Sold,SAN FRANCISCO
57,601 4th St #321,1.0,1.0,San Francisco,"1,502 sqft","Feb 27, 2014","$1,195,000",37.778164,-122.395775,CA,Condo,1195000,"$1,169,000",94107,Mission Bay,,,Sold,SAN FRANCISCO
58,688 Teresita Blvd,1.0,,San Francisco,"1,288 sqft","Feb 27, 2014","$837,000",37.73586,-122.446655,CA,Single-Family Home,837000,"$936,000",94127,Miraloma,,,Sold,SAN FRANCISCO
59,587 18th Ave,2.0,,San Francisco,"2,000 sqft","Feb 27, 2014","$1,219,000",37.77691,-122.47724,CA,Single-Family Home,1219000,"$1,322,000",94121,Central Richmond,,,Sold,SAN FRANCISCO
60,109 Ottawa Ave,1.0,,San Francisco,"1,220 sqft","Feb 27, 2014","$723,000",37.71536,-122.44627,CA,Single-Family Home,723000,"$730,000",94112,Outer Mission,,,Sold,SAN FRANCISCO
61,1440 Jones St,7.0,,San Francisco,"6,111 sqft","Feb 27, 2014","$2,612,500",37.79466,-122.4144,CA,Multi-Family,2612500,,94109,Nob Hill,,,Sold,SAN FRANCISCO
62,8400 Oceanview Ter #111,1.0,1.0,San Francisco,669 sqft,"Feb 27, 2014","$390,000",37.71042,-122.467705,CA,Condo,390000,"$456,000",94132,Ingleside Heights,,,Sold,SAN FRANCISCO
63,415 Amazon Ave,1.0,,San Francisco,"1,155 sqft","Feb 27, 2014","$630,000",37.716087,-122.43659,CA,Single-Family Home,630000,"$684,000",94112,Excelsior,,,Sold,SAN FRANCISCO
64,650 2nd St #204,2.0,,San Francisco,"1,798 sqft","Feb 27, 2014","$1,300,000",37.78096,-122.391556,CA,Condo,1300000,"$1,406,000",94107,South Beach,,,Sold,SAN FRANCISCO
65,151 Alice B Toklas Pl #512,2.0,2.0,San Francisco,"1,856 sqft","Feb 27, 2014","$1,400,000",37.785088,-122.42068,CA,Condo,1400000,"$1,573,000",94109,Civic Center,,,Sold,SAN FRANCISCO
66,66 Cleary Ct #703,2.0,5.0,San Francisco,"1,102 sqft","Feb 27, 2014","$735,000",37.784386,-122.42697,CA,Condo,735000,"$827,000",94109,Western Addition,,,Sold,SAN FRANCISCO
67,1310 Minnesota St #17,1.0,,San Francisco,932 sqft,"Feb 27, 2014","$755,000",37.7537,-122.39007,CA,Condo,755000,"$767,000",94107,Central Waterfront,,,Sold,SAN FRANCISCO
68,139 Stillman St #4,,,San Francisco,715 sqft,"Feb 27, 2014","$510,000",37.780907,-122.39715,CA,Condo,510000,"$679,000",94107,Mission Bay,,,Sold,SAN FRANCISCO
69,1207 Guerrero St,,,San Francisco,,"Feb 27, 2014","$850,000",37.751698,-122.42261,CA,Condo,850000,,94110,Noe Valley,,,Sold,SAN FRANCISCO
70,2001 Mcallister St #118,2.0,2.0,San Francisco,"1,011 sqft","Feb 27, 2014","$926,000",37.776382,-122.44569,CA,Condo,926000,"$929,000",94118,North Park,,,Sold,SAN FRANCISCO
71,60 Danvers St #62,,,San Francisco,"2,732 sqft","Feb 27, 2014","$1,159,000",37.76053,-122.44382,CA,Multi-Family,1159000,,94114,Castro,,,Sold,SAN FRANCISCO
72,1800 Washington St #212,,,San Francisco,745 sqft,"Feb 27, 2014","$775,000",37.79343,-122.42343,CA,Condo,775000,"$892,000",94109,Pacific Heights,,,Sold,SAN FRANCISCO
73,260 King St #801,1.0,1.0,San Francisco,832 sqft,"Feb 27, 2014","$750,000",37.77764,-122.39342,CA,Condo,750000,"$788,000",94107,Mission Bay,,,Sold,SAN FRANCISCO
74,145 Elmira St,2.0,4.0,San Francisco,"2,044 sqft","Feb 27, 2014","$715,000",37.73556,-122.40341,CA,Single-Family Home,715000,"$786,000",94124,Silver Terrace,,,Sold,SAN FRANCISCO
75,130 21st Ave,2.0,4.0,San Francisco,"2,362 sqft","Feb 27, 2014","$2,375,000",37.78528,-122.480484,CA,Single-Family Home,2375000,"$2,062,000",94121,Lake Street,,,Sold,SAN FRANCISCO
76,180 Vienna St,1.0,,San Francisco,432 sqft,"Feb 27, 2014","$383,000",37.72565,-122.426834,CA,Single-Family Home,383000,"$504,000",94112,Excelsior,,,Sold,SAN FRANCISCO
77,88 King St #906,2.0,2.0,San Francisco,"1,096 sqft","Feb 27, 2014","$1,280,000",37.78063,-122.389626,CA,Condo,1280000,"$1,177,000",94107,South Beach,,,Sold,SAN FRANCISCO
78,155 Harriet St #5,2.0,2.0,San Francisco,981 sqft,"Feb 27, 2014","$704,000",37.777615,-122.40499,CA,Condo,704000,"$824,000",94103,SoMa,,,Sold,SAN FRANCISCO
79,829 Folsom St #704,,,San Francisco,700 sqft,"Feb 26, 2014","$700,000",37.781155,-122.40165,CA,Condo,700000,"$844,000",94107,SoMa,,,Sold,SAN FRANCISCO
80,66 Cleary Ct #1009,2.0,3.0,San Francisco,"1,102 sqft","Feb 26, 2014","$610,000",37.784386,-122.42697,CA,Condo,610000,"$770,000",94109,Western Addition,,,Sold,SAN FRANCISCO
81,2200 Mariposa St,1.0,3.0,San Francisco,"1,525 sqft","Feb 26, 2014","$1,400,000",37.763515,-122.405655,CA,Single-Family Home,1400000,"$1,382,000",94110,Potrero Hill,,,Sold,SAN FRANCISCO
82,45 Lucerne St #D,1.0,1.0,San Francisco,"1,448 sqft","Feb 26, 2014","$1,050,000",37.773727,-122.401535,CA,Condo,1050000,"$1,158,000",94103,Mission Bay,,,Sold,SAN FRANCISCO
83,3024 Market St,1.0,2.0,San Francisco,"1,242 sqft","Feb 26, 2014","$1,140,000",37.761284,-122.44165,CA,Condo,1140000,"$1,133,000",94114,Castro,,,Sold,SAN FRANCISCO
84,155 Hancock St #2,1.0,2.0,San Francisco,868 sqft,"Feb 26, 2014","$940,000",37.76004,-122.43177,CA,Condo,940000,"$1,025,000",94114,Castro,,,Sold,SAN FRANCISCO
85,12 Crestlake Dr,1.0,,San Francisco,"1,805 sqft","Feb 26, 2014","$783,000",37.735023,-122.479996,CA,Single-Family Home,783000,"$1,013,000",94132,Central Sunset,,,Sold,SAN FRANCISCO
86,2143 39th Ave,2.0,2.0,San Francisco,"2,200 sqft","Feb 26, 2014","$1,100,000",37.746857,-122.49778,CA,Single-Family Home,1100000,"$1,151,000",94116,Outer Sunset,,,Sold,SAN FRANCISCO
87,3319 Divisadero St,1.0,2.0,San Francisco,"1,386 sqft","Feb 26, 2014","$1,550,000",37.800266,-122.443214,CA,Condo,1550000,"$1,507,000",94123,Marina,,,Sold,SAN FRANCISCO
88,1720 Quesada Ave #1722,2.0,,San Francisco,"3,140 sqft","Feb 26, 2014","$780,000",37.733784,-122.3917,CA,Multi-Family,780000,,94124,Bayview,,,Sold,SAN FRANCISCO
89,1261 Sanchez St,1.0,,San Francisco,885 sqft,"Feb 26, 2014","$734,500",37.748913,-122.429115,CA,Single-Family Home,734500,"$1,249,000",94114,Noe Valley,,,Sold,SAN FRANCISCO
90,2172 16th Ave,1.0,,San Francisco,"1,325 sqft","Feb 26, 2014","$952,000",37.74747,-122.47245,CA,Single-Family Home,952000,"$962,000",94116,Inner Parkside,,,Sold,SAN FRANCISCO
91,630 27th St,1.0,,San Francisco,890 sqft,"Feb 26, 2014","$3,775,000",37.746693,-122.43441,CA,Single-Family Home,3775000,"$1,598,000",94131,Noe Valley,,,Sold,SAN FRANCISCO
92,526 Hugo St #528,2.0,,San Francisco,"2,584 sqft","Feb 26, 2014","$2,100,000",37.765312,-122.46368,CA,Multi-Family,2100000,,94122,Inner Sunset,,,Sold,SAN FRANCISCO
93,8 15th Ave,1.0,,San Francisco,"1,550 sqft","Feb 26, 2014","$1,177,000",37.7869,-122.47408,CA,Condo,1177000,"$1,316,000",94118,Lake Street,,,Sold,SAN FRANCISCO
94,421 Tehama St,2.0,2.0,San Francisco,"5,279 sqft","Feb 26, 2014","$3,102,000",37.780537,-122.40479,CA,Condo,3102000,"$2,766,000",94103,SoMa,,,Sold,SAN FRANCISCO
95,900 Bush St #502,1.0,1.0,San Francisco,627 sqft,"Feb 26, 2014","$515,000",37.789944,-122.41273,CA,Condo,515000,"$583,000",94109,Downtown,,,Sold,SAN FRANCISCO
96,1154 Key Ave,1.0,,San Francisco,484 sqft,"Feb 26, 2014","$455,000",37.720795,-122.39879,CA,Single-Family Home,455000,"$516,000",94124,Bayview,,,Sold,SAN FRANCISCO
97,563 18th Ave,,,San Francisco,,"Feb 26, 2014","$1,295,000",37.777317,-122.47734,CA,Condo,1295000,,94121,Central Richmond,,,Sold,SAN FRANCISCO
98,237 Bocana St,2.0,,San Francisco,"1,612 sqft","Feb 25, 2014","$1,550,000",37.739887,-122.41793,CA,Single-Family Home,1550000,"$1,555,000",94110,Bernal Heights,,,Sold,SAN FRANCISCO
99,449 Gates St,1.0,,San Francisco,841 sqft,"Feb 25, 2014","$700,000",37.737686,-122.413864,CA,Single-Family Home,700000,"$714,000",94110,Bernal Heights,,,Sold,SAN FRANCISCO
100,2371 17th Ave,1.0,,San Francisco,"1,000 sqft","Feb 25, 2014","$700,000",37.743687,-122.47392,CA,Single-Family Home,700000,"$864,000",94116,Inner Parkside,,,Sold,SAN FRANCISCO
101,34 Rhine St,1.0,,San Francisco,"1,360 sqft","Feb 25, 2014","$540,000",37.709454,-122.461105,CA,Single-Family Home,540000,"$774,000",94112,Outer Mission,,,Sold,SAN FRANCISCO
102,900 Bush St #801,1.0,1.0,San Francisco,643 sqft,"Feb 25, 2014","$540,000",37.789944,-122.41273,CA,Condo,540000,"$598,000",94109,Downtown,,,Sold,SAN FRANCISCO
103,346 Mangels Ave,1.0,,San Francisco,918 sqft,"Feb 25, 2014","$705,000",37.733315,-122.44542,CA,Single-Family Home,705000,"$828,000",94127,Sunnyside,,,Sold,SAN FRANCISCO
104,59 Annapolis Ter #61,3.0,,San Francisco,"3,180 sqft","Feb 25, 2014","$2,075,000",37.777664,-122.448105,CA,Multi-Family,2075000,,94118,Lone Mountain,,,Sold,SAN FRANCISCO
105,403 Main St #614N,,,San Francisco,536 sqft,"Feb 25, 2014","$535,000",37.78801,-122.38964,CA,Condo,535000,"$657,000",94105,South Beach,,,Sold,SAN FRANCISCO
106,126 Bridgeview Dr,2.0,3.0,San Francisco,"1,404 sqft","Feb 25, 2014","$705,000",37.735207,-122.396,CA,Single-Family Home,705000,"$720,000",94124,Silver Terrace,,,Sold,SAN FRANCISCO
107,280 Gates St,1.0,3.0,San Francisco,"1,150 sqft","Feb 25, 2014","$1,225,000",37.739212,-122.41421,CA,Single-Family Home,1225000,"$1,416,000",94110,Bernal Heights,,,Sold,SAN FRANCISCO
108,4508 Balboa St,1.0,,San Francisco,"2,000 sqft","Feb 25, 2014","$1,122,000",37.77549,-122.50727,CA,Single-Family Home,1122000,"$1,206,000",94121,Outer Richmond,,,Sold,SAN FRANCISCO
109,801 27th St,3.0,3.0,San Francisco,"2,182 sqft","Feb 25, 2014","$2,200,000",37.74605,-122.438156,CA,Single-Family Home,2200000,"$2,395,000",94131,Noe Valley,,,Sold,SAN FRANCISCO
110,54 Eastwood Dr,,2.0,San Francisco,"2,548 sqft","Feb 25, 2014","$1,098,000",37.72652,-122.457,CA,Multi-Family,1098000,,94112,Westwood Park,,,Sold,SAN FRANCISCO
111,556 Elizabeth St,3.0,4.0,San Francisco,"2,547 sqft","Feb 25, 2014","$2,500,000",37.752396,-122.433205,CA,Single-Family Home,2500000,"$3,175,000",94114,Noe Valley,,,Sold,SAN FRANCISCO
112,145 Del Vale Ave,2.0,3.0,San Francisco,"1,625 sqft","Feb 25, 2014","$1,250,000",37.741295,-122.447136,CA,Single-Family Home,1250000,"$1,149,000",94127,Miraloma,,,Sold,SAN FRANCISCO
113,3132 Scott St,5.0,10.0,San Francisco,"8,585 sqft","Feb 25, 2014","$1,100,000",37.79888,-122.4406,CA,Multi-Family,1100000,,94123,Cow Hollow,,,Sold,SAN FRANCISCO
114,1925 Vicente St,1.0,,San Francisco,"1,285 sqft","Feb 25, 2014","$910,000",37.738525,-122.487854,CA,Single-Family Home,910000,"$913,000",94116,Central Sunset,,,Sold,SAN FRANCISCO
115,733 Front St #202,2.0,2.0,San Francisco,"1,207 sqft","Feb 25, 2014","$1,250,000",37.798027,-122.40009,CA,Condo,1250000,"$1,240,000",94111,Financial District,,,Sold,SAN FRANCISCO
116,2172 Fell St,2.0,2.0,San Francisco,"1,534 sqft","Feb 25, 2014","$1,534,500",37.772266,-122.45358,CA,Condo,1534500,"$1,428,000",94117,Panhandle,,,Sold,SAN FRANCISCO
117,263 Byxbee St,2.0,,San Francisco,"1,666 sqft","Feb 25, 2014","$885,000",37.718983,-122.47012,CA,Single-Family Home,885000,"$932,000",94132,Merced Heights,,,Sold,SAN FRANCISCO
118,142 27th St #142A,1.0,1.0,San Francisco,"1,300 sqft","Feb 25, 2014","$1,125,000",37.747353,-122.423485,CA,Condo,1125000,"$1,070,000",94110,Noe Valley,,,Sold,SAN FRANCISCO
119,169 Stanyan St,5.0,4.0,San Francisco,"3,365 sqft","Feb 24, 2014","$1,699,000",37.778362,-122.45565,CA,Single-Family Home,1699000,"$2,393,000",94118,Lone Mountain,,,Sold,SAN FRANCISCO
120,249 Shipley St #12,1.0,1.0,San Francisco,"1,174 sqft","Feb 24, 2014","$850,000",37.77889,-122.40376,CA,Condo,850000,"$921,000",94107,SoMa,,,Sold,SAN FRANCISCO
121,690 Market St #2102,2.0,2.0,San Francisco,"1,192 sqft","Feb 24, 2014","$1,300,000",37.788246,-122.40323,CA,Condo,1300000,"$1,753,000",94104,Downtown,,,Sold,SAN FRANCISCO
122,471 Rolph St,1.0,,San Francisco,"1,423 sqft","Feb 24, 2014","$630,000",37.71249,-122.433754,CA,Single-Family Home,630000,"$757,000",94112,Crocker Amazon,,,Sold,SAN FRANCISCO
123,138 28th St #1,1.0,1.0,San Francisco,609 sqft,"Feb 24, 2014","$620,000",37.74562,-122.42554,CA,Condo,620000,"$739,000",94131,Noe Valley,,,Sold,SAN FRANCISCO
124,370 De Haro St #B10,2.0,2.0,San Francisco,"1,622 sqft","Feb 24, 2014","$1,400,000",37.76546,-122.40214,CA,Condo,1400000,"$1,309,000",94103,Potrero Hill,,,Sold,SAN FRANCISCO
125,1074 Goettingen St,1.0,,San Francisco,830 sqft,"Feb 24, 2014","$550,000",37.71871,-122.40343,CA,Single-Family Home,550000,"$605,000",94134,Visitacion Valley,,,Sold,SAN FRANCISCO
126,501 Beale St #14E,1.0,1.0,San Francisco,759 sqft,"Feb 24, 2014","$730,000",37.786236,-122.38907,CA,Condo,730000,"$868,000",94105,South Beach,,,Sold,SAN FRANCISCO
127,3452 18th St #3452A,1.0,,San Francisco,700 sqft,"Feb 24, 2014","$732,000",37.76197,-122.42053,CA,Condo,732000,"$811,000",94110,Mission,,,Sold,SAN FRANCISCO
128,1331 Washington St,2.0,,San Francisco,"3,060 sqft","Feb 21, 2014","$1,515,000",37.79387,-122.415306,CA,Multi-Family,1515000,,94109,Nob Hill,,,Sold,SAN FRANCISCO
129,2385 Bush St,1.0,,San Francisco,"1,706 sqft","Feb 21, 2014","$1,492,000",37.786423,-122.4365,CA,Single-Family Home,1492000,"$1,768,000",94115,Lower Pacific Heights,,,Sold,SAN FRANCISCO
130,38 Avila St,1.0,,San Francisco,"1,550 sqft","Feb 21, 2014","$2,750,000",37.800858,-122.44018,CA,Single-Family Home,2750000,"$2,619,000",94123,Marina,,,Sold,SAN FRANCISCO
131,876 Girard St,1.0,2.0,San Francisco,"1,250 sqft","Feb 21, 2014","$700,000",37.721684,-122.402565,CA,Single-Family Home,700000,"$804,000",94134,Portola,,,Sold,SAN FRANCISCO
132,3239 Steiner St #3241,2.0,,San Francisco,"2,830 sqft","Feb 21, 2014","$1,739,000",37.799286,-122.43789,CA,Multi-Family,1739000,,94123,Cow Hollow,,,Sold,SAN FRANCISCO
133,400 Beale St #1407,,,San Francisco,"1,102 sqft","Feb 21, 2014","$993,000",37.786903,-122.39092,CA,Condo,993000,"$1,014,000",94105,South Beach,,,Sold,SAN FRANCISCO
134,150 Riverton Dr,2.0,3.0,San Francisco,"1,696 sqft","Feb 21, 2014","$1,010,000",37.73151,-122.48683,CA,Single-Family Home,1010000,"$1,022,000",94132,Merced Manor,,,Sold,SAN FRANCISCO
135,51 Beaver St,1.0,,San Francisco,"1,867 sqft","Feb 21, 2014","$2,308,000",37.76475,-122.434326,CA,Single-Family Home,2308000,"$2,309,000",94114,Duboce Triangle,,,Sold,SAN FRANCISCO
136,4631 Balboa St #4633,3.0,,San Francisco,"4,140 sqft","Feb 21, 2014","$2,070,000",37.774963,-122.50859,CA,Multi-Family,2070000,,94121,Outer Richmond,,,Sold,SAN FRANCISCO
137,1746 48th Ave,2.0,,San Francisco,"1,312 sqft","Feb 21, 2014","$892,000",37.753853,-122.507286,CA,Single-Family Home,892000,"$898,000",94122,Outer Sunset,,,Sold,SAN FRANCISCO
138,173 Bonview St,1.0,2.0,San Francisco,"1,300 sqft","Feb 21, 2014","$1,360,000",37.74129,-122.417755,CA,Single-Family Home,1360000,"$1,422,000",94110,Bernal Heights,,,Sold,SAN FRANCISCO
139,38 Lloyd St,2.0,,San Francisco,"1,920 sqft","Feb 21, 2014","$860,000",37.769966,-122.43575,CA,Condo,860000,"$1,360,000",94117,Hayes Valley,,,Sold,SAN FRANCISCO
140,467 Duboce Ave #471,10.0,,San Francisco,"4,550 sqft","Feb 21, 2014","$1,200,000",37.769108,-122.43069,CA,Multi-Family,1200000,"$1,228,000",94117,Duboce Triangle,,,Sold,SAN FRANCISCO
141,331 Chenery St,3.0,3.0,San Francisco,"1,520 sqft","Feb 21, 2014","$1,485,000",37.73677,-122.42797,CA,Single-Family Home,1485000,"$1,642,000",94131,Glen Park,,,Sold,SAN FRANCISCO
142,106 19th Ave #108,2.0,3.0,San Francisco,"1,168 sqft","Feb 21, 2014","$1,020,000",37.7857,-122.478516,CA,Multi-Family,1020000,,94121,Lake Street,,,Sold,SAN FRANCISCO
143,1452 Bush St #19,2.0,3.0,San Francisco,"1,766 sqft","Feb 21, 2014","$1,535,000",37.788837,-122.42127,CA,Condo,1535000,"$1,534,000",94109,Civic Center,,,Sold,SAN FRANCISCO
144,28 Whittier St,1.0,,San Francisco,"1,423 sqft","Feb 21, 2014","$649,500",37.709778,-122.44831,CA,Single-Family Home,649500,"$720,000",94112,Crocker Amazon,,,Sold,SAN FRANCISCO
145,5800 3rd St #1311,1.0,1.0,San Francisco,817 sqft,"Feb 21, 2014","$451,000",37.72505,-122.39513,CA,Condo,451000,"$319,000",94124,Bayview,,,Sold,SAN FRANCISCO
146,428 Grove St,2.0,,San Francisco,"1,375 sqft","Feb 21, 2014","$1,327,000",37.77793,-122.423744,CA,Single-Family Home,1327000,"$1,463,000",94102,Hayes Valley,,,Sold,SAN FRANCISCO
147,541 Ivy St,1.0,2.0,San Francisco,893 sqft,"Feb 21, 2014","$773,000",37.77674,-122.42704,CA,Condo,773000,"$809,000",94102,Hayes Valley,,,Sold,SAN FRANCISCO
148,999 Green St #2604,2.0,2.0,San Francisco,"1,686 sqft","Feb 21, 2014","$2,900,000",37.798447,-122.415215,CA,Condo,2900000,"$2,339,000",94133,Russian Hill,,,Sold,SAN FRANCISCO
149,4800 3rd St #201,1.0,1.0,San Francisco,712 sqft,"Feb 21, 2014","$156,000",37.734745,-122.39108,CA,Condo,156000,"$211,000",94124,Bayview,,,Sold,SAN FRANCISCO
150,1927 Golden Gate Ave,2.0,2.0,San Francisco,"1,800 sqft","Feb 21, 2014","$1,729,000",37.778023,-122.44237,CA,Single-Family Home,1729000,"$1,661,000",94115,North Park,,,Sold,SAN FRANCISCO
151,3412 18th St #3416,3.0,,San Francisco,"4,590 sqft","Feb 21, 2014","$1,880,000",37.762012,-122.419846,CA,Multi-Family,1880000,,94110,Mission,,,Sold,SAN FRANCISCO
152,1 Federal St #13,,,San Francisco,745 sqft,"Feb 21, 2014","$750,000",37.783966,-122.39111,CA,Condo,750000,"$870,000",94107,South Beach,,,Sold,SAN FRANCISCO
153,2068 3rd St #5,2.0,1.0,San Francisco,854 sqft,"Feb 21, 2014","$728,000",37.76345,-122.38911,CA,Condo,728000,"$814,000",94107,Central Waterfront,,,Sold,SAN FRANCISCO
154,763 30th Ave,2.0,2.0,San Francisco,"1,705 sqft","Feb 21, 2014","$1,595,000",37.774868,-122.49006,CA,Single-Family Home,1595000,"$1,429,000",94121,Central Richmond,,,Sold,SAN FRANCISCO
155,1200 Gough St #23C,1.0,1.0,San Francisco,840 sqft,"Feb 21, 2014","$815,000",37.78478,-122.424126,CA,Condo,815000,"$835,000",94109,Civic Center,,,Sold,SAN FRANCISCO
156,1083 Jamestown Ave,3.0,,San Francisco,"1,785 sqft","Feb 21, 2014","$784,000",37.71914,-122.39527,CA,Single-Family Home,784000,"$781,000",94124,Bayview,,,Sold,SAN FRANCISCO
157,190 7th St #15,1.0,1.0,San Francisco,939 sqft,"Feb 21, 2014","$750,000",37.777992,-122.40979,CA,Condo,750000,"$767,000",94103,SoMa,,,Sold,SAN FRANCISCO
158,403 Main St #213,1.0,1.0,San Francisco,811 sqft,"Feb 21, 2014","$750,000",37.78801,-122.38964,CA,Condo,750000,"$780,000",94105,South Beach,,,Sold,SAN FRANCISCO
159,1177 California St #204,1.0,,San Francisco,645 sqft,"Feb 21, 2014","$540,000",37.791027,-122.41365,CA,Condo,540000,"$659,000",94108,Downtown,,,Sold,SAN FRANCISCO
160,300 Beale St #418,,,San Francisco,954 sqft,"Feb 20, 2014","$835,000",37.78814,-122.39258,CA,Condo,835000,"$910,000",94105,South Beach,,,Sold,SAN FRANCISCO
161,2553 Folsom St,2.0,2.0,San Francisco,"1,133 sqft","Feb 20, 2014","$1,000,000",37.756428,-122.41409,CA,Condo,1000000,"$1,147,000",94110,Mission,,,Sold,SAN FRANCISCO
162,63 Sears St,1.0,2.0,San Francisco,"1,137 sqft","Feb 20, 2014","$450,000",37.70998,-122.45313,CA,Single-Family Home,450000,"$633,000",94112,Outer Mission,,,Sold,SAN FRANCISCO
163,310 Townsend St #308,1.0,1.0,San Francisco,803 sqft,"Feb 20, 2014","$700,000",37.777027,-122.39574,CA,Condo,700000,"$794,000",94107,Mission Bay,,,Sold,SAN FRANCISCO
164,2124 Market St #2126,6.0,,San Francisco,"4,956 sqft","Feb 20, 2014","$930,500",37.767338,-122.42969,CA,Multi-Family,930500,,94114,Duboce Triangle,,,Sold,SAN FRANCISCO
165,990 Oshaughnessy Blvd,3.0,3.0,San Francisco,"1,694 sqft","Feb 20, 2014","$1,406,000",37.735622,-122.44237,CA,Single-Family Home,1406000,"$1,398,000",94131,Miraloma,,,Sold,SAN FRANCISCO
166,425 1st St #2306,2.0,2.0,San Francisco,"1,238 sqft","Feb 20, 2014","$1,380,000",37.786064,-122.39217,CA,Condo,1380000,"$1,569,000",94105,South Beach,,,Sold,SAN FRANCISCO
167,1441 Vallejo St,1.0,3.0,San Francisco,"2,012 sqft","Feb 20, 2014","$1,400,000",37.7968,-122.42103,CA,Condo,1400000,"$1,603,000",94109,Russian Hill,,,Sold,SAN FRANCISCO
168,141 Hancock St,1.0,1.0,San Francisco,966 sqft,"Feb 20, 2014","$774,500",37.760178,-122.43143,CA,Condo,774500,"$997,000",94114,Castro,,,Sold,SAN FRANCISCO
169,121 Fair Oaks St #121B,1.0,,San Francisco,850 sqft,"Feb 20, 2014","$750,000",37.75476,-122.424095,CA,Condo,750000,"$993,000",94110,Noe Valley,,,Sold,SAN FRANCISCO
170,219 Brannan St #11B,1.0,1.0,San Francisco,723 sqft,"Feb 20, 2014","$835,000",37.782646,-122.39039,CA,Condo,835000,"$952,000",94107,South Beach,,,Sold,SAN FRANCISCO
171,139 San Pablo Ave,2.0,,San Francisco,"2,301 sqft","Feb 20, 2014","$1,910,000",37.737637,-122.462,CA,Single-Family Home,1910000,"$1,948,000",94127,Saint Francis Wood,,,Sold,SAN FRANCISCO
172,1695 18th St #303,1.0,,San Francisco,569 sqft,"Feb 20, 2014","$480,000",37.76203,-122.399155,CA,Condo,480000,"$585,000",94107,Potrero Hill,,,Sold,SAN FRANCISCO
173,200 Townsend St #7,1.0,,San Francisco,"1,032 sqft","Feb 20, 2014","$830,000",37.778885,-122.3933,CA,Condo,830000,"$859,000",94107,Mission Bay,,,Sold,SAN FRANCISCO
174,833 Shrader St,3.0,4.0,San Francisco,"2,539 sqft","Feb 20, 2014","$2,370,000",37.766884,-122.45162,CA,Single-Family Home,2370000,"$2,309,000",94117,Haight,,,Sold,SAN FRANCISCO
175,371 Prospect Ave,1.0,,San Francisco,785 sqft,"Feb 20, 2014","$1,144,000",37.740433,-122.42047,CA,Single-Family Home,1144000,"$1,265,000",94110,Bernal Heights,,,Sold,SAN FRANCISCO
176,1177 California St #1511,1.0,,San Francisco,437 sqft,"Feb 20, 2014","$470,000",37.791027,-122.41365,CA,Condo,470000,"$506,000",94108,Downtown,,,Sold,SAN FRANCISCO
177,3121 20th St #4,2.0,,San Francisco,"2,191 sqft","Feb 20, 2014","$1,700,000",37.758827,-122.41196,CA,Condo,1700000,"$1,464,000",94110,Mission,,,Sold,SAN FRANCISCO
178,131 Crescent Ave,2.0,,San Francisco,"1,725 sqft","Feb 20, 2014","$1,255,000",37.735367,-122.421906,CA,Single-Family Home,1255000,"$1,170,000",94110,Bernal Heights,,,Sold,SAN FRANCISCO
179,810 Potrero Ave,1.0,,San Francisco,965 sqft,"Feb 20, 2014","$740,000",37.758953,-122.40725,CA,Single-Family Home,740000,"$919,000",94110,Potrero Hill,,,Sold,SAN FRANCISCO
180,342 Madison St,1.0,,San Francisco,"1,125 sqft","Feb 20, 2014","$700,000",37.724754,-122.4224,CA,Single-Family Home,700000,"$685,000",94134,Excelsior,,,Sold,SAN FRANCISCO
181,506 Fell St #C,2.0,2.0,San Francisco,"1,215 sqft","Feb 20, 2014","$900,000",37.775753,-122.42639,CA,Condo,900000,"$985,000",94102,Hayes Valley,,,Sold,SAN FRANCISCO
182,2018 46th Ave,2.0,,San Francisco,"1,254 sqft","Feb 19, 2014","$695,000",37.74883,-122.50478,CA,Single-Family Home,695000,"$837,000",94116,Outer Sunset,,,Sold,SAN FRANCISCO
183,1106 Treat Ave,3.0,4.0,San Francisco,"3,800 sqft","Feb 19, 2014","$915,000",37.75224,-122.41319,CA,Multi-Family,915000,,94110,Mission,,,Sold,SAN FRANCISCO
184,451 Kansas St #561,1.0,,San Francisco,450 sqft,"Feb 19, 2014","$469,000",37.764114,-122.402985,CA,Condo,469000,"$498,000",94107,Potrero Hill,,,Sold,SAN FRANCISCO
185,116 Caselli Ave,2.0,3.0,San Francisco,"2,443 sqft","Feb 19, 2014","$2,600,000",37.759884,-122.44187,CA,Single-Family Home,2600000,"$2,505,000",94114,Castro,,,Sold,SAN FRANCISCO
186,1678 41st Ave,1.0,2.0,San Francisco,"1,025 sqft","Feb 19, 2014","$750,000",37.7555,-122.49988,CA,Single-Family Home,750000,"$902,000",94122,Outer Sunset,,,Sold,SAN FRANCISCO
187,901 Bush St #306,,,San Francisco,341 sqft,"Feb 19, 2014","$385,000",37.78952,-122.41228,CA,Condo,385000,"$559,000",94109,Downtown,,,Sold,SAN FRANCISCO
188,631 Folsom St #19C,2.0,2.0,San Francisco,"1,054 sqft","Feb 19, 2014","$1,160,000",37.784714,-122.39687,CA,Condo,1160000,"$1,174,000",94107,South Beach,,,Sold,SAN FRANCISCO
189,239 Castro St,1.0,,San Francisco,"2,259 sqft","Feb 19, 2014","$2,100,000",37.76515,-122.4351,CA,Single-Family Home,2100000,"$2,171,000",94114,Duboce Triangle,,,Sold,SAN FRANCISCO
190,726 Brussels St,1.0,,San Francisco,"1,349 sqft","Feb 19, 2014","$775,000",37.72307,-122.40423,CA,Single-Family Home,775000,"$797,000",94134,Portola,,,Sold,SAN FRANCISCO
191,197 Randall St,,,San Francisco,975 sqft,"Feb 19, 2014","$819,000",37.73955,-122.427475,CA,Condo,819000,"$835,000",94131,Glen Park,,,Sold,SAN FRANCISCO
192,235 Berry St #102,,2.0,San Francisco,"1,255 sqft","Feb 19, 2014","$1,125,000",37.774704,-122.39409,CA,Condo,1125000,"$1,344,000",94158,Mission Bay,,,Sold,SAN FRANCISCO
193,228 Ellsworth St,1.0,,San Francisco,725 sqft,"Feb 19, 2014","$1,600,000",37.739513,-122.4148,CA,Single-Family Home,1600000,"$1,024,000",94110,Bernal Heights,,,Sold,SAN FRANCISCO
194,40 Montclair Ter,3.0,4.0,San Francisco,"2,840 sqft","Feb 19, 2014","$3,900,000",37.802616,-122.41879,CA,Single-Family Home,3900000,"$3,936,000",94109,Russian Hill,,,Sold,SAN FRANCISCO
195,2128 Vallejo St #3,3.0,,San Francisco,"1,595 sqft","Feb 19, 2014","$1,365,000",37.795856,-122.4324,CA,Condo,1365000,"$2,039,000",94123,Pacific Heights,,,Sold,SAN FRANCISCO
196,220 Jersey St,3.0,3.0,San Francisco,"1,540 sqft","Feb 19, 2014","$2,315,000",37.750973,-122.43014,CA,Single-Family Home,2315000,"$2,586,000",94114,Noe Valley,,,Sold,SAN FRANCISCO
197,388 Townsend St #4,2.0,1.0,San Francisco,940 sqft,"Feb 19, 2014","$740,000",37.77587,-122.39701,CA,Condo,740000,"$814,000",94107,Mission Bay,,,Sold,SAN FRANCISCO
198,383 Lombard St #205,2.0,2.0,San Francisco,947 sqft,"Feb 19, 2014","$989,000",37.803272,-122.40783,CA,Condo,989000,"$1,104,000",94133,Telegraph Hill,,,Sold,SAN FRANCISCO
199,255 Arch St,1.0,,San Francisco,"1,252 sqft","Feb 19, 2014","$710,000",37.71531,-122.467384,CA,Single-Family Home,710000,"$713,000",94132,Ingleside Heights,,,Sold,SAN FRANCISCO
200,300 Berry St #915,1.0,2.0,San Francisco,730 sqft,"Feb 18, 2014","$815,000",37.77393,-122.39624,CA,Condo,815000,"$864,000",94158,Mission Bay,,,Sold,SAN FRANCISCO
201,21 Eureka St,1.0,,San Francisco,939 sqft,"Feb 18, 2014","$950,000",37.761982,-122.438065,CA,Condo,950000,"$952,000",94114,Castro,,,Sold,SAN FRANCISCO
202,1612 York St,1.0,,San Francisco,"1,400 sqft","Feb 18, 2014","$1,265,000",37.747276,-122.4069,CA,Single-Family Home,1265000,"$1,226,000",94110,Bernal Heights,,,Sold,SAN FRANCISCO
203,45 Deming St,1.0,,San Francisco,"1,200 sqft","Feb 18, 2014","$1,450,000",37.760296,-122.44533,CA,Single-Family Home,1450000,"$1,438,000",94114,Buena Vista Park,,,Sold,SAN FRANCISCO
204,30 Miller Pl #3,2.0,,San Francisco,"1,782 sqft","Feb 18, 2014","$1,160,000",37.793415,-122.40895,CA,Condo,1160000,"$1,540,000",94108,Chinatown,,,Sold,SAN FRANCISCO
205,250 King St #422,2.0,2.0,San Francisco,"1,126 sqft","Feb 14, 2014","$1,000,500",37.77764,-122.39342,CA,Condo,1000500,"$1,029,000",94107,Mission Bay,,,Sold,SAN FRANCISCO
206,425 1st St #4707,1.0,1.0,San Francisco,819 sqft,"Feb 14, 2014","$1,140,000",37.786064,-122.39217,CA,Condo,1140000,"$976,000",94105,South Beach,,,Sold,SAN FRANCISCO
207,931 Stanyan St,1.0,3.0,San Francisco,"1,528 sqft","Feb 14, 2014","$1,220,000",37.765938,-122.45317,CA,Condo,1220000,"$1,531,000",94117,Ashbury Heights,,,Sold,SAN FRANCISCO
208,70 Arroyo Way,1.0,,San Francisco,"1,293 sqft","Feb 14, 2014","$975,000",37.73848,-122.44739,CA,Single-Family Home,975000,"$1,133,000",94127,Miraloma,,,Sold,SAN FRANCISCO
209,396 Connecticut St,1.0,,San Francisco,"1,282 sqft","Feb 14, 2014","$1,252,500",37.76135,-122.3977,CA,Condo,1252500,"$1,160,000",94107,Potrero Hill,,,Sold,SAN FRANCISCO
210,710 Cole St,1.0,,San Francisco,"2,000 sqft","Feb 14, 2014","$2,699,000",37.76834,-122.45019,CA,Single-Family Home,2699000,"$2,626,000",94117,Haight,,,Sold,SAN FRANCISCO
211,425 1st St #2606,2.0,2.0,San Francisco,"1,238 sqft","Feb 14, 2014","$1,400,000",37.786064,-122.39217,CA,Condo,1400000,"$1,613,000",94105,South Beach,,,Sold,SAN FRANCISCO
212,457 Broderick St #459,3.0,,San Francisco,"2,000 sqft","Feb 14, 2014","$2,100,000",37.774548,-122.43971,CA,Multi-Family,2100000,,94117,Panhandle,,,Sold,SAN FRANCISCO
213,917 Central Ave,1.0,4.0,San Francisco,"1,830 sqft","Feb 14, 2014","$1,700,000",37.77842,-122.44557,CA,Single-Family Home,1700000,"$1,735,000",94115,North Park,,,Sold,SAN FRANCISCO
214,2316 Leavenworth St,1.0,2.0,San Francisco,"1,710 sqft","Feb 14, 2014","$2,500,000",37.802532,-122.41779,CA,Single-Family Home,2500000,"$2,988,000",94133,Russian Hill,,,Sold,SAN FRANCISCO
215,3 Bennington St,1.0,,San Francisco,"1,100 sqft","Feb 14, 2014","$1,500,000",37.74033,-122.41747,CA,Single-Family Home,1500000,"$1,490,000",94110,Bernal Heights,,,Sold,SAN FRANCISCO
216,604 Clarendon Ave,2.0,,San Francisco,"1,485 sqft","Feb 14, 2014","$820,000",37.751934,-122.458015,CA,Condo,820000,"$908,000",94131,Midtown Terrace,,,Sold,SAN FRANCISCO
217,1980 Fell St #1982,2.0,,San Francisco,"2,934 sqft","Feb 14, 2014","$1,525,000",37.77266,-122.450485,CA,Multi-Family,1525000,,94117,Panhandle,,,Sold,SAN FRANCISCO
218,1066 Francisco St,3.0,,San Francisco,"2,414 sqft","Feb 14, 2014","$3,300,000",37.80374,-122.42273,CA,Single-Family Home,3300000,"$3,151,000",94109,Russian Hill,,,Sold,SAN FRANCISCO
219,10 S Park St #1,2.0,1.0,San Francisco,"1,196 sqft","Feb 14, 2014","$1,269,000",37.782356,-122.3935,CA,Condo,1269000,"$1,208,000",94107,South Beach,,,Sold,SAN FRANCISCO
220,1886 28th Ave,1.0,2.0,San Francisco,"1,400 sqft","Feb 14, 2014","$935,000",37.752247,-122.485725,CA,Single-Family Home,935000,"$990,000",94122,Central Sunset,,,Sold,SAN FRANCISCO
221,2924 Rivera St,1.0,,San Francisco,"1,012 sqft","Feb 14, 2014","$785,000",37.74606,-122.497894,CA,Single-Family Home,785000,"$830,000",94116,Outer Sunset,,,Sold,SAN FRANCISCO
222,1529 11th Ave #1531,4.0,,San Francisco,"3,200 sqft","Feb 14, 2014","$770,000",37.75958,-122.468475,CA,Multi-Family,770000,,94122,Inner Sunset,,,Sold,SAN FRANCISCO
223,3819 23rd St #3821,2.0,,San Francisco,"3,080 sqft","Feb 14, 2014","$1,795,000",37.753086,-122.42806,CA,Multi-Family,1795000,,94114,Noe Valley,,,Sold,SAN FRANCISCO
224,138 Elsie St,3.0,3.0,San Francisco,"2,005 sqft","Feb 14, 2014","$1,689,000",37.742455,-122.41814,CA,Single-Family Home,1689000,"$1,758,000",94110,Bernal Heights,,,Sold,SAN FRANCISCO
225,642 Russia Ave #644,2.0,,San Francisco,"1,850 sqft","Feb 14, 2014","$680,000",37.718853,-122.43182,CA,Multi-Family,680000,,94112,Excelsior,,,Sold,SAN FRANCISCO
226,601 Van Ness Ave #26,2.0,2.0,San Francisco,"1,030 sqft","Feb 14, 2014","$760,000",37.781387,-122.42141,CA,Condo,760000,"$760,000",94102,Civic Center,,,Sold,SAN FRANCISCO
227,301 Main St #14F,2.0,2.0,San Francisco,"1,307 sqft","Feb 14, 2014","$1,330,000",37.789333,-122.39155,CA,Condo,1330000,"$1,464,000",94105,South Beach,,,Sold,SAN FRANCISCO
228,370 7th St #12,2.0,2.0,San Francisco,"2,231 sqft","Feb 14, 2014","$985,000",37.775715,-122.40695,CA,Condo,985000,"$1,223,000",94103,SoMa,,,Sold,SAN FRANCISCO
229,2999 California St #605,1.0,1.0,San Francisco,615 sqft,"Feb 14, 2014","$500,000",37.787445,-122.44349,CA,Condo,500000,"$626,000",94115,Lower Pacific Heights,,,Sold,SAN FRANCISCO
230,200 Brannan St #204,2.0,1.0,San Francisco,"1,263 sqft","Feb 14, 2014","$1,101,000",37.7836,-122.39071,CA,Condo,1101000,"$1,241,000",94107,South Beach,,,Sold,SAN FRANCISCO
231,1032 Goettingen St,1.0,,San Francisco,830 sqft,"Feb 14, 2014","$575,000",37.719147,-122.4037,CA,Single-Family Home,575000,"$614,000",94134,Visitacion Valley,,,Sold,SAN FRANCISCO
232,465 Diamond St #467,2.0,3.0,San Francisco,"1,915 sqft","Feb 14, 2014","$2,395,000",37.75501,-122.43631,CA,Multi-Family,2395000,,94114,Noe Valley,,,Sold,SAN FRANCISCO
233,11 Argent Aly #3,1.0,2.0,San Francisco,946 sqft,"Feb 14, 2014","$725,000",37.75259,-122.44321,CA,Condo,725000,"$820,000",94131,Twin Peaks,,,Sold,SAN FRANCISCO
234,1807 20th Ave,2.0,,San Francisco,"1,480 sqft","Feb 14, 2014","$830,000",37.753902,-122.47782,CA,Single-Family Home,830000,"$951,000",94122,Central Sunset,,,Sold,SAN FRANCISCO
235,54 Commonwealth Ave,4.0,,San Francisco,"3,801 sqft","Feb 14, 2014","$4,050,000",37.784946,-122.45544,CA,Single-Family Home,4050000,"$3,710,000",94118,Laurel Heights,,,Sold,SAN FRANCISCO
236,1849 Lyon St,3.0,4.0,San Francisco,"1,973 sqft","Feb 14, 2014","$2,000,000",37.788193,-122.445854,CA,Condo,2000000,"$2,383,000",94115,Presidio Heights,,,Sold,SAN FRANCISCO
237,1864 Golden Gate Ave #1868,3.0,9.0,San Francisco,"5,070 sqft","Feb 14, 2014","$1,330,000",37.778652,-122.44137,CA,Multi-Family,1330000,,94115,North Park,,,Sold,SAN FRANCISCO
238,217 Ellsworth St,2.0,,San Francisco,"1,572 sqft","Feb 14, 2014","$1,450,000",37.740044,-122.41438,CA,Single-Family Home,1450000,"$1,561,000",94110,Bernal Heights,,,Sold,SAN FRANCISCO
239,1536 Mcallister St,2.0,3.0,San Francisco,"3,675 sqft","Feb 14, 2014","$2,250,000",37.778206,-122.437386,CA,Single-Family Home,2250000,"$2,585,000",94115,Alamo Square,,,Sold,SAN FRANCISCO
240,1762 Alemany Blvd,1.0,,San Francisco,"1,525 sqft","Feb 14, 2014","$762,000",37.724194,-122.437706,CA,Single-Family Home,762000,"$844,000",94112,Mission Terrace,,,Sold,SAN FRANCISCO
241,1424 Ulloa St,1.0,,San Francisco,"1,130 sqft","Feb 14, 2014","$870,000",37.74161,-122.471725,CA,Single-Family Home,870000,"$907,000",94116,Inner Parkside,,,Sold,SAN FRANCISCO
242,754 41st Ave,1.0,,San Francisco,"1,200 sqft","Feb 14, 2014","$901,000",37.774498,-122.5012,CA,Single-Family Home,901000,"$973,000",94121,Outer Richmond,,,Sold,SAN FRANCISCO
243,545 Valley St,2.0,3.0,San Francisco,"1,630 sqft","Feb 14, 2014","$2,458,000",37.743793,-122.43443,CA,Single-Family Home,2458000,"$2,156,000",94131,Noe Valley,,,Sold,SAN FRANCISCO
244,1845 Judah St,1.0,,San Francisco,800 sqft,"Feb 14, 2014","$690,000",37.761326,-122.482124,CA,Single-Family Home,690000,"$749,000",94122,Central Sunset,,,Sold,SAN FRANCISCO
245,332 Arkansas St,2.0,2.0,San Francisco,988 sqft,"Feb 13, 2014","$975,000",37.761887,-122.398766,CA,Condo,975000,"$977,000",94107,Potrero Hill,,,Sold,SAN FRANCISCO
246,80 Williar Ave,1.0,,San Francisco,"1,112 sqft","Feb 13, 2014","$575,000",37.72026,-122.45237,CA,Single-Family Home,575000,"$786,000",94112,Ingleside,,,Sold,SAN FRANCISCO
247,73 Majestic Ave,2.0,3.0,San Francisco,"1,425 sqft","Feb 13, 2014","$535,000",37.717197,-122.45139,CA,Single-Family Home,535000,"$844,000",94112,Ingleside,,,Sold,SAN FRANCISCO
248,209 Upper Ter,4.0,3.0,San Francisco,"2,068 sqft","Feb 13, 2014","$300,000",37.763706,-122.4443,CA,Single-Family Home,300000,"$1,713,000",94117,Buena Vista Park,,,Sold,SAN FRANCISCO
249,918 Teresita Blvd,2.0,2.0,San Francisco,"1,589 sqft","Feb 13, 2014","$975,000",37.73428,-122.44652,CA,Single-Family Home,975000,"$1,180,000",94127,Miraloma,,,Sold,SAN FRANCISCO
250,2133 Pine St #2137,3.0,,San Francisco,"5,085 sqft","Feb 13, 2014","$700,000",37.78799,-122.431496,CA,Multi-Family,700000,,94115,Lower Pacific Heights,,,Sold,SAN FRANCISCO
251,527 Central Ave #2,1.0,2.0,San Francisco,757 sqft,"Feb 13, 2014","$770,000",37.774544,-122.44482,CA,Condo,770000,"$800,000",94117,North Park,,,Sold,SAN FRANCISCO
252,29 Forest Knolls Dr,2.0,,San Francisco,"1,282 sqft","Feb 13, 2014","$925,000",37.756226,-122.45472,CA,Single-Family Home,925000,"$1,044,000",94131,Forest Knolls,,,Sold,SAN FRANCISCO
253,95 Red Rock Way #101M,1.0,,San Francisco,592 sqft,"Feb 13, 2014","$395,000",37.746323,-122.44152,CA,Condo,395000,"$501,000",94131,Diamond Heights,,,Sold,SAN FRANCISCO
254,101 Thornton Ave,1.0,,San Francisco,"1,175 sqft","Feb 13, 2014","$350,000",37.730618,-122.39346,CA,Single-Family Home,350000,"$605,000",94124,Bayview,,,Sold,SAN FRANCISCO
255,488 4th Ave #494,4.0,,San Francisco,"3,750 sqft","Feb 13, 2014","$1,450,000",37.779415,-122.461754,CA,Multi-Family,1450000,,94118,Inner Richmond,,,Sold,SAN FRANCISCO
256,6038 California St #1,1.0,2.0,San Francisco,708 sqft,"Feb 12, 2014","$620,000",37.784245,-122.48253,CA,Condo,620000,"$767,000",94121,Sea Cliff,,,Sold,SAN FRANCISCO
257,821 Folsom St #415,,,San Francisco,"1,074 sqft","Feb 12, 2014","$915,000",37.781384,-122.40136,CA,Condo,915000,"$933,000",94107,SoMa,,,Sold,SAN FRANCISCO
258,325 Berry St #405,2.0,2.0,San Francisco,"1,303 sqft","Feb 12, 2014","$1,145,000",37.773384,-122.39576,CA,Condo,1145000,"$1,345,000",94158,Mission Bay,,,Sold,SAN FRANCISCO
259,1200 Page St,,,San Francisco,"3,086 sqft","Feb 12, 2014","$2,137,000",37.77195,-122.44082,CA,Condo,2137000,"$2,756,000",94117,Panhandle,,,Sold,SAN FRANCISCO
260,629 Pennsylvania Ave,3.0,,San Francisco,"2,378 sqft","Feb 12, 2014","$966,500",37.758556,-122.392876,CA,Multi-Family,966500,,94107,Potrero Hill,,,Sold,SAN FRANCISCO
261,657 44th Ave #659,2.0,,San Francisco,"2,198 sqft","Feb 12, 2014","$1,115,000",37.77613,-122.5052,CA,Multi-Family,1115000,,94121,Outer Richmond,,,Sold,SAN FRANCISCO
262,547 35th Ave,1.0,,San Francisco,"1,322 sqft","Feb 12, 2014","$900,000",37.778633,-122.49571,CA,Single-Family Home,900000,"$1,091,000",94121,Outer Richmond,,,Sold,SAN FRANCISCO
263,828 Innes Ave #101,2.0,,San Francisco,"1,030 sqft","Feb 12, 2014","$442,500",37.73183,-122.37434,CA,Condo,442500,"$454,000",94124,Hunters Point,,,Sold,SAN FRANCISCO
264,741 Ashbury St,1.0,,San Francisco,"1,289 sqft","Feb 12, 2014","$1,250,000",37.768257,-122.446884,CA,Condo,1250000,"$1,239,000",94117,Haight,,,Sold,SAN FRANCISCO
265,1301 Indiana St #405,2.0,3.0,San Francisco,"1,463 sqft","Feb 12, 2014","$1,100,000",37.75411,-122.39063,CA,Condo,1100000,"$1,244,000",94107,Central Waterfront,,,Sold,SAN FRANCISCO
266,2722 Irving St,2.0,3.0,San Francisco,"2,100 sqft","Feb 12, 2014","$1,175,000",37.763367,-122.48728,CA,Single-Family Home,1175000,"$1,242,000",94122,Central Sunset,,,Sold,SAN FRANCISCO
267,171 Miraloma Dr,5.0,4.0,San Francisco,"3,266 sqft","Feb 12, 2014","$2,500,000",37.736256,-122.46077,CA,Single-Family Home,2500000,"$2,719,000",94127,Sherwood Forest,,,Sold,SAN FRANCISCO
268,714 Castro St,2.0,,San Francisco,"2,020 sqft","Feb 12, 2014","$2,300,000",37.757107,-122.435005,CA,Single-Family Home,2300000,"$2,237,000",94114,Castro,,,Sold,SAN FRANCISCO
269,346 1st St #104,1.0,1.0,San Francisco,"1,160 sqft","Feb 12, 2014","$916,000",37.78654,-122.394035,CA,Condo,916000,"$961,000",94105,South Beach,,,Sold,SAN FRANCISCO
270,734 Green St #740,7.0,,San Francisco,"8,670 sqft","Feb 11, 2014","$625,000",37.799503,-122.41135,CA,Multi-Family,625000,,94133,North Beach,,,Sold,SAN FRANCISCO
271,162 Clifford Ter,2.0,3.0,San Francisco,"1,614 sqft","Feb 11, 2014","$1,650,000",37.76435,-122.445435,CA,Condo,1650000,"$1,763,000",94117,Ashbury Heights,,,Sold,SAN FRANCISCO
272,2442 Polk St #2446,3.0,8.0,San Francisco,"4,565 sqft","Feb 11, 2014","$1,930,000",37.7994,-122.42217,CA,Multi-Family,1930000,,94109,Russian Hill,,,Sold,SAN FRANCISCO
273,49 Beideman St #59,6.0,,San Francisco,"4,605 sqft","Feb 11, 2014","$525,000",37.782288,-122.4386,CA,Multi-Family,525000,,94115,Western Addition,,,Sold,SAN FRANCISCO
274,375 Arlington St,2.0,3.0,San Francisco,"1,600 sqft","Feb 11, 2014","$1,085,000",37.735943,-122.42795,CA,Single-Family Home,1085000,"$1,495,000",94131,Glen Park,,,Sold,SAN FRANCISCO
275,102 Anderson St,1.0,,San Francisco,700 sqft,"Feb 11, 2014","$1,105,000",37.741432,-122.415276,CA,Single-Family Home,1105000,"$1,207,000",94110,Bernal Heights,,,Sold,SAN FRANCISCO
276,199 New Montgomery St #601,,,San Francisco,"1,019 sqft","Feb 11, 2014","$856,000",37.786606,-122.3991,CA,Condo,856000,"$941,000",94105,South Beach,,,Sold,SAN FRANCISCO
277,382 Union St #386,3.0,,San Francisco,"3,375 sqft","Feb 11, 2014","$2,000,000",37.801075,-122.40577,CA,Multi-Family,2000000,,94133,Telegraph Hill,,,Sold,SAN FRANCISCO
278,160 Encline Ct,3.0,3.0,San Francisco,"2,071 sqft","Feb 11, 2014","$1,285,000",37.74208,-122.44881,CA,Single-Family Home,1285000,"$1,586,000",94127,Miraloma,,,Sold,SAN FRANCISCO
279,1483 Sutter St #1204,2.0,2.0,San Francisco,"1,316 sqft","Feb 11, 2014","$900,000",37.786716,-122.4242,CA,Condo,900000,"$1,072,000",94109,Civic Center,,,Sold,SAN FRANCISCO
280,122 Lyon St,5.0,,San Francisco,"3,814 sqft","Feb 11, 2014","$1,700,000",37.772343,-122.44206,CA,Multi-Family,1700000,,94117,Panhandle,,,Sold,SAN FRANCISCO
281,239 Brannan St #2J,2.0,2.0,San Francisco,837 sqft,"Feb 11, 2014","$775,000",37.782646,-122.39039,CA,Condo,775000,"$1,232,000",94107,South Beach,,,Sold,SAN FRANCISCO
282,3561 Sacramento St,,,San Francisco,"1,276 sqft","Feb 11, 2014","$1,465,000",37.78736,-122.451256,CA,Condo,1465000,"$1,507,000",94118,Presidio Heights,,,Sold,SAN FRANCISCO
283,3981 Alemany Blvd #302,1.0,1.0,San Francisco,670 sqft,"Feb 11, 2014","$430,000",37.71042,-122.467705,CA,Condo,430000,"$490,000",94132,Ingleside Heights,,,Sold,SAN FRANCISCO
284,162 Tioga Ave,1.0,,San Francisco,872 sqft,"Feb 11, 2014","$585,000",37.71718,-122.40686,CA,Single-Family Home,585000,"$635,000",94134,Visitacion Valley,,,Sold,SAN FRANCISCO
285,2154 20th Ave,1.0,3.0,San Francisco,"1,654 sqft","Feb 11, 2014","$903,000",37.747593,-122.47675,CA,Single-Family Home,903000,"$994,000",94116,Central Sunset,,,Sold,SAN FRANCISCO
286,88 Townsend St #319,2.0,2.0,San Francisco,"1,150 sqft","Feb 11, 2014","$1,085,000",37.781166,-122.39069,CA,Condo,1085000,"$1,322,000",94107,South Beach,,,Sold,SAN FRANCISCO
287,85 Coleridge St #85A,1.0,1.0,San Francisco,675 sqft,"Feb 11, 2014","$700,000",37.74433,-122.41907,CA,Condo,700000,"$1,078,000",94110,Bernal Heights,,,Sold,SAN FRANCISCO
288,658 43rd Ave,1.0,,San Francisco,"1,605 sqft","Feb 11, 2014","$1,005,000",37.776196,-122.50347,CA,Single-Family Home,1005000,"$1,087,000",94121,Outer Richmond,,,Sold,SAN FRANCISCO
289,355 1st St #S1504,1.0,1.0,San Francisco,691 sqft,"Feb 11, 2014","$318,000",37.78703,-122.39364,CA,Condo,318000,"$745,000",94105,South Beach,,,Sold,SAN FRANCISCO
290,83 Mcallister St #202,,,San Francisco,256 sqft,"Feb 11, 2014","$395,000",37.7807,-122.41327,CA,Condo,395000,"$493,000",94102,Civic Center,,,Sold,SAN FRANCISCO
291,285 Arch St,1.0,2.0,San Francisco,"1,000 sqft","Feb 11, 2014","$596,500",37.71579,-122.46735,CA,Single-Family Home,596500,"$651,000",94132,Ingleside Heights,,,Sold,SAN FRANCISCO
292,167 Stillings Ave,2.0,2.0,San Francisco,"1,412 sqft","Feb 11, 2014","$1,600,000",37.73434,-122.44358,CA,Single-Family Home,1600000,"$1,287,000",94131,Miraloma,,,Sold,SAN FRANCISCO
293,2144 Hayes St,1.0,,San Francisco,"2,295 sqft","Feb 11, 2014","$950,000",37.773537,-122.45179,CA,Single-Family Home,950000,"$1,393,000",94117,North Park,,,Sold,SAN FRANCISCO
294,1080 Church St,1.0,,San Francisco,885 sqft,"Feb 11, 2014","$975,000",37.75364,-122.42797,CA,Condo,975000,"$1,017,000",94114,Noe Valley,,,Sold,SAN FRANCISCO
295,2447 Vallejo St #3,1.0,,San Francisco,"1,325 sqft","Feb 11, 2014","$1,230,000",37.79463,-122.43751,CA,Condo,1230000,"$1,386,000",94123,Pacific Heights,,,Sold,SAN FRANCISCO
296,323 Mississippi St,3.0,3.0,San Francisco,"1,775 sqft","Feb 11, 2014","$1,400,000",37.762245,-122.39424,CA,Condo,1400000,"$1,724,000",94107,Potrero Hill,,,Sold,SAN FRANCISCO
297,795 8th Ave #406,1.0,1.0,San Francisco,672 sqft,"Feb 11, 2014","$575,000",37.77364,-122.466255,CA,Condo,575000,"$585,000",94118,Inner Richmond,,,Sold,SAN FRANCISCO
298,1834 Broderick St,1.0,,San Francisco,"1,769 sqft","Feb 11, 2014","$1,680,000",37.78744,-122.44171,CA,Condo,1680000,"$1,735,000",94115,Lower Pacific Heights,,,Sold,SAN FRANCISCO
299,690 Market St #2204,1.0,1.0,San Francisco,"1,257 sqft","Feb 11, 2014","$1,723,000",37.788246,-122.40323,CA,Condo,1723000,"$1,891,000",94104,Downtown,,,Sold,SAN FRANCISCO
300,50 Burr Ave,2.0,,San Francisco,"1,728 sqft","Feb 11, 2014","$475,000",37.7097,-122.41427,CA,Single-Family Home,475000,"$537,000",94134,Visitacion Valley,,,Sold,SAN FRANCISCO
301,750 Van Ness Ave #1102,1.0,1.0,San Francisco,391 sqft,"Feb 10, 2014","$455,000",37.78238,-122.420166,CA,Condo,455000,"$477,000",94102,Civic Center,,,Sold,SAN FRANCISCO
302,1250 Eucalyptus Dr,2.0,,San Francisco,"1,660 sqft","Feb 10, 2014","$1,075,000",37.7311,-122.48506,CA,Single-Family Home,1075000,"$1,098,000",94132,Merced Manor,,,Sold,SAN FRANCISCO
303,1 Clarence Pl #10,2.0,2.0,San Francisco,"1,400 sqft","Feb 10, 2014","$1,425,000",37.78006,-122.39318,CA,Condo,1425000,"$1,475,000",94107,South Beach,,,Sold,SAN FRANCISCO
304,2681 Sutter St,1.0,2.0,San Francisco,"1,210 sqft","Feb 10, 2014","$715,000",37.784424,-122.44442,CA,Condo,715000,"$914,000",94115,Lower Pacific Heights,,,Sold,SAN FRANCISCO
305,3245 Anza St,1.0,2.0,San Francisco,"1,650 sqft","Feb 10, 2014","$1,900,000",37.777977,-122.483246,CA,Single-Family Home,1900000,"$1,312,000",94121,Central Richmond,,,Sold,SAN FRANCISCO
306,946 Stockton St #6D,2.0,3.0,San Francisco,991 sqft,"Feb 10, 2014","$601,000",37.794716,-122.4078,CA,Condo,601000,"$755,000",94108,Chinatown,,,Sold,SAN FRANCISCO
307,200 Niagara Ave,1.0,,San Francisco,900 sqft,"Feb 10, 2014","$450,000",37.718235,-122.44469,CA,Single-Family Home,450000,"$621,000",94112,Outer Mission,,,Sold,SAN FRANCISCO
308,2130 Harrison St #22,2.0,1.0,San Francisco,"1,061 sqft","Feb 7, 2014","$945,000",37.762814,-122.413216,CA,Condo,945000,"$950,000",94110,Mission,,,Sold,SAN FRANCISCO
309,411 Vallejo St,1.0,,San Francisco,"1,240 sqft","Feb 7, 2014","$1,125,000",37.798958,-122.404495,CA,Single-Family Home,1125000,"$1,414,000",94133,Telegraph Hill,,,Sold,SAN FRANCISCO
310,2024 15th St,,,San Francisco,"1,060 sqft","Feb 7, 2014","$1,000,000",37.766323,-122.429375,CA,Condo,1000000,"$1,092,000",94114,Castro,,,Sold,SAN FRANCISCO
311,4800 3rd St #306,,,San Francisco,"1,073 sqft","Feb 7, 2014","$181,500",37.734745,-122.39108,CA,Condo,181500,"$238,000",94124,Bayview,,,Sold,SAN FRANCISCO
312,550 S Van Ness Ave #304,1.0,,San Francisco,734 sqft,"Feb 7, 2014","$587,500",37.764355,-122.417854,CA,Condo,587500,"$576,000",94110,Mission,,,Sold,SAN FRANCISCO
313,2250 24th St #331,1.0,2.0,San Francisco,809 sqft,"Feb 7, 2014","$571,000",37.753902,-122.402016,CA,Condo,571000,"$660,000",94107,Potrero Hill,,,Sold,SAN FRANCISCO
314,921 Alvarado St,1.0,4.0,San Francisco,"2,000 sqft","Feb 7, 2014","$2,150,000",37.75301,-122.44166,CA,Single-Family Home,2150000,"$2,588,000",94114,Noe Valley,,,Sold,SAN FRANCISCO
315,403 Main St #618N,,,San Francisco,"1,360 sqft","Feb 7, 2014","$1,300,000",37.78801,-122.38964,CA,Condo,1300000,"$1,157,000",94105,South Beach,,,Sold,SAN FRANCISCO
316,80 Goethe St #82,3.0,,San Francisco,"2,565 sqft","Feb 7, 2014","$710,000",37.708336,-122.458275,CA,Multi-Family,710000,,94112,Outer Mission,,,Sold,SAN FRANCISCO
317,1920 Ocean Ave,,,San Francisco,976 sqft,"Feb 7, 2014","$502,000",37.725807,-122.462975,CA,Condo,502000,"$612,000",94127,Mount Davidson Manor,,,Sold,SAN FRANCISCO
318,150 Stoneridge Ln,2.0,2.0,San Francisco,"1,068 sqft","Feb 7, 2014","$442,000",37.71023,-122.42626,CA,Condo,442000,"$520,000",94134,Crocker Amazon,,,Sold,SAN FRANCISCO
319,68 Williar Ave,1.0,,San Francisco,"1,112 sqft","Feb 7, 2014","$640,000",37.720383,-122.45229,CA,Single-Family Home,640000,"$751,000",94112,Ingleside,,,Sold,SAN FRANCISCO
320,700 12th Ave,6.0,,San Francisco,"7,650 sqft","Feb 7, 2014","$2,985,000",37.774837,-122.47011,CA,Multi-Family,2985000,,94118,Inner Richmond,,,Sold,SAN FRANCISCO
321,560 Gellert Dr,3.0,4.0,San Francisco,"2,655 sqft","Feb 7, 2014","$1,520,000",37.730312,-122.48742,CA,Single-Family Home,1520000,"$1,617,000",94132,Merced Manor,,,Sold,SAN FRANCISCO
322,647 39th Ave,1.0,2.0,San Francisco,"1,175 sqft","Feb 7, 2014","$666,500",37.776566,-122.499855,CA,Single-Family Home,666500,"$1,047,000",94121,Outer Richmond,,,Sold,SAN FRANCISCO
323,2401 Jackson St #1,2.0,2.0,San Francisco,"1,375 sqft","Feb 7, 2014","$750,000",37.79229,-122.43482,CA,Condo,750000,"$1,548,000",94115,Pacific Heights,,,Sold,SAN FRANCISCO
324,1774 38th Ave,1.0,,San Francisco,"1,637 sqft","Feb 7, 2014","$830,000",37.753845,-122.496544,CA,Single-Family Home,830000,"$961,000",94122,Outer Sunset,,,Sold,SAN FRANCISCO
325,677 5th Ave,1.0,2.0,San Francisco,"1,234 sqft","Feb 7, 2014","$1,011,000",37.77589,-122.463165,CA,Condo,1011000,"$1,027,000",94118,Inner Richmond,,,Sold,SAN FRANCISCO
326,175 Red Rock Way #303K,1.0,,San Francisco,592 sqft,"Feb 7, 2014","$382,000",37.745823,-122.44187,CA,Condo,382000,"$463,000",94131,Diamond Heights,,,Sold,SAN FRANCISCO
327,1658 Sacramento St,12.0,,San Francisco,"8,508 sqft","Feb 7, 2014","$3,290,000",37.791843,-122.42029,CA,Multi-Family,3290000,,94109,Nob Hill,,,Sold,SAN FRANCISCO
328,2322 Francisco St,2.0,2.0,San Francisco,"1,611 sqft","Feb 7, 2014","$1,725,000",37.80107,-122.44359,CA,Condo,1725000,"$1,759,000",94123,Marina,,,Sold,SAN FRANCISCO
329,778 35th Ave,1.0,,San Francisco,"1,960 sqft","Feb 7, 2014","$960,000",37.77437,-122.49474,CA,Single-Family Home,960000,"$1,319,000",94121,Outer Richmond,,,Sold,SAN FRANCISCO
330,620 Haight St,2.0,3.0,San Francisco,"1,784 sqft","Feb 7, 2014","$1,430,000",37.772087,-122.43286,CA,Condo,1430000,"$1,665,000",94117,Hayes Valley,,,Sold,SAN FRANCISCO
331,1250 42nd Ave,1.0,3.0,San Francisco,"1,170 sqft","Feb 6, 2014","$625,000",37.763386,-122.5015,CA,Single-Family Home,625000,"$811,000",94122,Outer Sunset,,,Sold,SAN FRANCISCO
332,750 Van Ness Ave #901,1.0,1.0,San Francisco,396 sqft,"Feb 6, 2014","$454,500",37.78238,-122.420166,CA,Condo,454500,"$477,000",94102,Civic Center,,,Sold,SAN FRANCISCO
333,15 Almaden Ct,1.0,,San Francisco,"1,302 sqft","Feb 6, 2014","$1,250,000",37.780422,-122.458206,CA,Single-Family Home,1250000,"$1,398,000",94118,Lone Mountain,,,Sold,SAN FRANCISCO
334,403 Main St #313N,,,San Francisco,811 sqft,"Feb 6, 2014","$735,000",37.78801,-122.38964,CA,Condo,735000,"$797,000",94105,South Beach,,,Sold,SAN FRANCISCO
335,401 Bella Vista Way,2.0,3.0,San Francisco,"1,299 sqft","Feb 6, 2014","$1,020,000",37.736107,-122.451256,CA,Single-Family Home,1020000,"$975,000",94127,Miraloma,,,Sold,SAN FRANCISCO
336,95 Aptos Ave,2.0,,San Francisco,"1,266 sqft","Feb 6, 2014","$1,266,500",37.73042,-122.46596,CA,Single-Family Home,1266500,"$1,311,000",94127,Balboa Terrace,,,Sold,SAN FRANCISCO
337,1155 Palou Ave,2.0,3.0,San Francisco,"1,212 sqft","Feb 6, 2014","$500,000",37.729065,-122.38278,CA,Single-Family Home,500000,"$573,000",94124,Bayview,,,Sold,SAN FRANCISCO
338,117 Frederick St #117A,,,San Francisco,923 sqft,"Feb 6, 2014","$935,000",37.76708,-122.44562,CA,Condo,935000,"$1,084,000",94117,Ashbury Heights,,,Sold,SAN FRANCISCO
339,149 19th Ave,1.0,3.0,San Francisco,"1,868 sqft","Feb 6, 2014","$1,155,000",37.78506,-122.47897,CA,Condo,1155000,"$1,356,000",94121,Lake Street,,,Sold,SAN FRANCISCO
340,319 Roanoke St,2.0,4.0,San Francisco,"1,535 sqft","Feb 6, 2014","$915,000",37.734898,-122.42927,CA,Multi-Family,915000,,94131,Glen Park,,,Sold,SAN FRANCISCO
341,1450 Post St #1005,,,San Francisco,535 sqft,"Feb 6, 2014","$105,000",37.78636,-122.425835,CA,Condo,105000,"$219,000",94109,Lower Pacific Heights,,,Sold,SAN FRANCISCO
342,420 33rd Ave #2,2.0,2.0,San Francisco,"1,733 sqft","Feb 6, 2014","$945,000",37.781216,-122.4931,CA,Condo,945000,"$951,000",94121,Outer Richmond,,,Sold,SAN FRANCISCO
343,2563 30th Ave,1.0,,San Francisco,"1,370 sqft","Feb 5, 2014","$475,000",37.739483,-122.487595,CA,Single-Family Home,475000,"$928,000",94116,Central Sunset,,,Sold,SAN FRANCISCO
344,1242 Pierce St #1244,2.0,,San Francisco,"1,700 sqft","Feb 5, 2014","$980,000",37.781647,-122.43546,CA,Multi-Family,980000,,94115,Western Addition,,,Sold,SAN FRANCISCO
345,875 Indiana St #515,2.0,2.0,San Francisco,"1,586 sqft","Feb 5, 2014","$1,340,000",37.75967,-122.39086,CA,Condo,1340000,"$1,517,000",94107,Central Waterfront,,,Sold,SAN FRANCISCO
346,2946 21st Ave,1.0,,San Francisco,"1,340 sqft","Feb 5, 2014","$1,200,000",37.73361,-122.476746,CA,Single-Family Home,1200000,"$1,050,000",94132,Merced Manor,,,Sold,SAN FRANCISCO
347,138 Elmira St,2.0,3.0,San Francisco,"2,000 sqft","Feb 5, 2014","$635,000",37.735596,-122.40397,CA,Single-Family Home,635000,"$768,000",94124,Silver Terrace,,,Sold,SAN FRANCISCO
348,176 6th Ave,4.0,6.0,San Francisco,"3,706 sqft","Feb 5, 2014","$1,700,000",37.785454,-122.46428,CA,Multi-Family,1700000,,94118,Lake Street,,,Sold,SAN FRANCISCO
349,829 Rhode Island St,2.0,,San Francisco,"1,253 sqft","Feb 5, 2014","$949,000",37.75925,-122.401726,CA,Single-Family Home,949000,"$1,341,000",94107,Potrero Hill,,,Sold,SAN FRANCISCO
350,986 Guerrero St,1.0,,San Francisco,"2,080 sqft","Feb 5, 2014","$2,040,000",37.755447,-122.42355,CA,Single-Family Home,2040000,"$1,977,000",94110,Noe Valley,,,Sold,SAN FRANCISCO
351,2546 28th Ave,1.0,,San Francisco,"1,410 sqft","Feb 5, 2014","$475,000",37.73988,-122.48482,CA,Single-Family Home,475000,"$941,000",94116,Central Sunset,,,Sold,SAN FRANCISCO
352,1998 Broadway,2.0,2.0,San Francisco,"1,170 sqft","Feb 5, 2014","$1,126,500",37.795277,-122.42979,CA,Condo,1126500,"$1,188,000",94109,Pacific Heights,,,Sold,SAN FRANCISCO
353,555 4th St #505,1.0,1.0,San Francisco,787 sqft,"Feb 5, 2014","$675,000",37.779423,-122.39671,CA,Condo,675000,"$757,000",94107,Mission Bay,,,Sold,SAN FRANCISCO
354,39 Montana St,1.0,,San Francisco,850 sqft,"Feb 5, 2014","$536,000",37.71639,-122.454735,CA,Single-Family Home,536000,"$687,000",94112,Oceanview,,,Sold,SAN FRANCISCO
355,555 4th St #617,2.0,2.0,San Francisco,"1,111 sqft","Feb 5, 2014","$960,000",37.779423,-122.39671,CA,Condo,960000,"$1,094,000",94107,Mission Bay,,,Sold,SAN FRANCISCO
356,2790 19th Ave #12,2.0,,San Francisco,"1,240 sqft","Feb 5, 2014","$680,000",37.736015,-122.47405,CA,Condo,680000,"$752,000",94132,Saint Francis Wood,,,Sold,SAN FRANCISCO
357,1 Hawthorne St #19G,,,San Francisco,950 sqft,"Feb 5, 2014","$1,087,000",37.78577,-122.39887,CA,Condo,1087000,"$1,038,000",94105,South Beach,,,Sold,SAN FRANCISCO
358,895 34th Ave #897,5.0,7.0,San Francisco,"4,840 sqft","Feb 5, 2014","$1,595,000",37.772266,-122.494125,CA,Multi-Family,1595000,,94121,Outer Richmond,,,Sold,SAN FRANCISCO
359,166 Eucalyptus Dr,1.0,,San Francisco,"1,146 sqft","Feb 5, 2014","$125,000",37.73129,-122.473946,CA,Single-Family Home,125000,"$853,000",94132,Merced Manor,,,Sold,SAN FRANCISCO
360,50 Seville St,2.0,,San Francisco,"2,333 sqft","Feb 5, 2014","$725,000",37.712074,-122.43496,CA,Single-Family Home,725000,"$915,000",94112,Crocker Amazon,,,Sold,SAN FRANCISCO
361,718 47th Ave,2.0,5.0,San Francisco,"2,060 sqft","Feb 4, 2014","$1,160,000",37.77484,-122.50767,CA,Single-Family Home,1160000,"$1,586,000",94121,Outer Richmond,,,Sold,SAN FRANCISCO
362,435 9th Ave,6.0,,San Francisco,"4,312 sqft","Feb 4, 2014","$2,000,000",37.780106,-122.467766,CA,Multi-Family,2000000,,94118,Inner Richmond,,,Sold,SAN FRANCISCO
363,501 Mississippi St #1,,,San Francisco,"1,408 sqft","Feb 4, 2014","$1,400,000",37.76004,-122.39403,CA,Condo,1400000,"$1,252,000",94107,Potrero Hill,,,Sold,SAN FRANCISCO
364,208 States St #4,,,San Francisco,430 sqft,"Feb 4, 2014","$465,000",37.764004,-122.43963,CA,Condo,465000,"$588,000",94114,Buena Vista Park,,,Sold,SAN FRANCISCO
365,555 4th St #825,1.0,1.0,San Francisco,563 sqft,"Feb 4, 2014","$650,000",37.779423,-122.39671,CA,Condo,650000,"$659,000",94107,Mission Bay,,,Sold,SAN FRANCISCO
366,8300 Oceanview Ter #312,1.0,1.0,San Francisco,667 sqft,"Feb 4, 2014","$410,000",37.71042,-122.467705,CA,Condo,410000,"$426,000",94132,Ingleside Heights,,,Sold,SAN FRANCISCO
367,5800 3rd St #1107,2.0,2.0,San Francisco,"1,035 sqft","Feb 4, 2014","$284,500",37.72505,-122.39513,CA,Condo,284500,"$441,000",94124,Bayview,,,Sold,SAN FRANCISCO
368,2034 Baker St,1.0,3.0,San Francisco,"1,945 sqft","Feb 4, 2014","$1,735,000",37.789967,-122.44392,CA,Condo,1735000,"$1,820,000",94115,Pacific Heights,,,Sold,SAN FRANCISCO
369,614 Fillmore St,3.0,,San Francisco,"3,390 sqft","Feb 4, 2014","$1,980,000",37.775196,-122.43082,CA,Multi-Family,1980000,,94117,Hayes Valley,,,Sold,SAN FRANCISCO
370,2106 Scott St #C,2.0,3.0,San Francisco,"2,045 sqft","Feb 4, 2014","$1,850,000",37.789658,-122.438736,CA,Condo,1850000,"$1,821,000",94115,Pacific Heights,,,Sold,SAN FRANCISCO
371,888 7th St #202,1.0,,San Francisco,503 sqft,"Feb 4, 2014","$490,000",37.77038,-122.40106,CA,Condo,490000,"$540,000",94107,Potrero Hill,,,Sold,SAN FRANCISCO
372,1915 Eddy St #C,1.0,1.0,San Francisco,874 sqft,"Feb 4, 2014","$735,000",37.780205,-122.439674,CA,Condo,735000,"$818,000",94115,Anza Vista,,,Sold,SAN FRANCISCO
373,250 King St #514,1.0,1.0,San Francisco,962 sqft,"Feb 4, 2014","$618,000",37.77764,-122.39342,CA,Condo,618000,"$768,000",94107,Mission Bay,,,Sold,SAN FRANCISCO
374,3100 Rivera St,1.0,2.0,San Francisco,"1,137 sqft","Feb 4, 2014","$820,000",37.745872,-122.49978,CA,Single-Family Home,820000,"$816,000",94116,Outer Sunset,,,Sold,SAN FRANCISCO
375,145 Gardenside Dr #5,2.0,2.0,San Francisco,"1,007 sqft","Feb 4, 2014","$811,000",37.754333,-122.444984,CA,Condo,811000,"$856,000",94131,Twin Peaks,,,Sold,SAN FRANCISCO
376,152 Lombard St #506,1.0,1.0,San Francisco,709 sqft,"Feb 4, 2014","$675,000",37.80445,-122.404175,CA,Condo,675000,"$732,000",94111,Fisherman's Wharf,,,Sold,SAN FRANCISCO
377,251 Carl St,1.0,3.0,San Francisco,"1,300 sqft","Feb 4, 2014","$1,350,000",37.765053,-122.45357,CA,Condo,1350000,"$1,424,000",94117,Ashbury Heights,,,Sold,SAN FRANCISCO
378,260 Faxon Ave,2.0,3.0,San Francisco,"1,685 sqft","Feb 4, 2014","$985,000",37.719357,-122.4599,CA,Single-Family Home,985000,"$895,000",94112,Ingleside,,,Sold,SAN FRANCISCO
379,2701 Larkin St,13.0,,San Francisco,"13,020 sqft","Feb 3, 2014","$939,000",37.802822,-122.421844,CA,Multi-Family,939000,,94109,Russian Hill,,,Sold,SAN FRANCISCO
380,700 Illinois St #206,3.0,,San Francisco,"1,862 sqft","Feb 3, 2014","$1,300,000",37.76227,-122.3883,CA,Condo,1300000,"$1,311,000",94107,Central Waterfront,,,Sold,SAN FRANCISCO
381,333 1st St #N1201,2.0,2.0,San Francisco,958 sqft,"Feb 3, 2014","$1,120,000",37.78703,-122.39364,CA,Condo,1120000,"$1,230,000",94105,South Beach,,,Sold,SAN FRANCISCO
382,664 Teresita Blvd,1.0,2.0,San Francisco,"1,050 sqft","Feb 3, 2014","$891,000",37.736256,-122.44628,CA,Single-Family Home,891000,"$968,000",94127,Miraloma,,,Sold,SAN FRANCISCO
383,574 Arguello Blvd #576,2.0,4.0,San Francisco,"3,240 sqft","Feb 3, 2014","$730,000",37.779873,-122.45843,CA,Multi-Family,730000,,94118,Lone Mountain,,,Sold,SAN FRANCISCO
384,386 Winding Way,1.0,,San Francisco,"1,129 sqft","Feb 3, 2014","$553,500",37.70977,-122.43842,CA,Single-Family Home,553500,"$678,000",94112,Crocker Amazon,,,Sold,SAN FRANCISCO
385,795 Dolores St,1.0,2.0,San Francisco,"1,161 sqft","Feb 3, 2014","$1,350,000",37.756844,-122.42526,CA,Condo,1350000,"$1,357,000",94110,Castro,,,Sold,SAN FRANCISCO
386,2134 Green St #3,1.0,,San Francisco,"1,165 sqft","Jan 31, 2014","$999,000",37.796577,-122.43425,CA,Condo,999000,"$1,259,000",94123,Cow Hollow,,,Sold,SAN FRANCISCO
387,355 1st St #S305,1.0,1.0,San Francisco,675 sqft,"Jan 31, 2014","$607,500",37.78703,-122.39364,CA,Condo,607500,"$791,000",94105,South Beach,,,Sold,SAN FRANCISCO
388,242 Winding Way,1.0,3.0,San Francisco,"1,300 sqft","Jan 31, 2014","$655,500",37.70959,-122.43561,CA,Single-Family Home,655500,"$692,000",94112,Crocker Amazon,,,Sold,SAN FRANCISCO
389,501 Beale St #15A,2.0,3.0,San Francisco,"1,469 sqft","Jan 31, 2014","$1,850,000",37.786236,-122.38907,CA,Condo,1850000,"$2,463,000",94105,South Beach,,,Sold,SAN FRANCISCO
390,520 College Ave,1.0,2.0,San Francisco,"1,838 sqft","Jan 31, 2014","$1,075,000",37.732468,-122.42383,CA,Single-Family Home,1075000,"$1,120,000",94112,Bernal Heights,,,Sold,SAN FRANCISCO
391,360 Guerrero St #404,1.0,1.0,San Francisco,822 sqft,"Jan 31, 2014","$780,000",37.76546,-122.42492,CA,Condo,780000,"$737,000",94103,Mission Dolores,,,Sold,SAN FRANCISCO
392,400 Beale St #405,,,San Francisco,826 sqft,"Jan 31, 2014","$326,000",37.786903,-122.39092,CA,Condo,326000,"$935,000",94105,South Beach,,,Sold,SAN FRANCISCO
393,200 Townsend St #4,1.0,,San Francisco,877 sqft,"Jan 31, 2014","$755,000",37.778885,-122.3933,CA,Condo,755000,"$807,000",94107,Mission Bay,,,Sold,SAN FRANCISCO
394,219 Brannan St #16D,2.0,2.0,San Francisco,"1,347 sqft","Jan 31, 2014","$2,100,000",37.782646,-122.39039,CA,Condo,2100000,"$1,659,000",94107,South Beach,,,Sold,SAN FRANCISCO
395,355 Buena Vista Ave E #212W,1.0,1.0,San Francisco,589 sqft,"Jan 31, 2014","$605,000",37.767284,-122.43985,CA,Condo,605000,"$724,000",94117,Buena Vista Park,,,Sold,SAN FRANCISCO
396,1753 Fulton St #1763,6.0,,San Francisco,"6,660 sqft","Jan 31, 2014","$2,610,000",37.7756,-122.44569,CA,Multi-Family,2610000,,94117,North Park,,,Sold,SAN FRANCISCO
397,2526 16th Ave,1.0,,San Francisco,"1,300 sqft","Jan 31, 2014","$375,000",37.740776,-122.47197,CA,Single-Family Home,375000,"$1,076,000",94116,Inner Parkside,,,Sold,SAN FRANCISCO
398,140 S Van Ness Ave #343,,,San Francisco,830 sqft,"Jan 31, 2014","$550,000",37.771564,-122.4188,CA,Condo,550000,"$661,000",94103,SoMa,,,Sold,SAN FRANCISCO
399,795 Sutter St #401,2.0,2.0,San Francisco,"17,844 sqft","Jan 31, 2014","$1,365,000",37.788403,-122.41326,CA,Condo,1365000,"$3,790,000",94109,Downtown,,,Sold,SAN FRANCISCO
400,300 Berry St #441,2.0,3.0,San Francisco,"1,274 sqft","Jan 31, 2014","$1,177,000",37.77393,-122.39624,CA,Condo,1177000,"$1,437,000",94158,Mission Bay,,,Sold,SAN FRANCISCO
401,881 Corbett Ave #3,3.0,3.0,San Francisco,"2,545 sqft","Jan 31, 2014","$1,629,500",37.75274,-122.44353,CA,Condo,1629500,"$1,908,000",94131,Twin Peaks,,,Sold,SAN FRANCISCO
402,2174 Fell St,2.0,3.0,San Francisco,"1,547 sqft","Jan 31, 2014","$1,285,000",37.772255,-122.45367,CA,Condo,1285000,"$1,381,000",94117,Panhandle,,,Sold,SAN FRANCISCO
403,325 China Basin St #417,2.0,2.0,San Francisco,"1,391 sqft","Jan 31, 2014","$1,250,000",37.771664,-122.38745,CA,Condo,1250000,"$1,366,000",94158,Mission Bay,,,Sold,SAN FRANCISCO
404,671 Connecticut St #673,2.0,,San Francisco,"2,440 sqft","Jan 31, 2014","$1,620,000",37.75784,-122.396736,CA,Single-Family Home,1620000,"$1,729,000",94107,Potrero Hill,,,Sold,SAN FRANCISCO
405,1013 Rhode Island St,2.0,2.0,San Francisco,"2,120 sqft","Jan 31, 2014","$1,410,000",37.75654,-122.40147,CA,Single-Family Home,1410000,"$1,773,000",94107,Potrero Hill,,,Sold,SAN FRANCISCO
406,435 China Basin St #634,2.0,2.0,San Francisco,"1,131 sqft","Jan 31, 2014","$1,200,000",37.771587,-122.388535,CA,Condo,1200000,"$1,371,000",94158,Mission Bay,,,Sold,SAN FRANCISCO
407,783 22nd Ave,2.0,4.0,San Francisco,"1,780 sqft","Jan 31, 2014","$1,200,000",37.773056,-122.48127,CA,Multi-Family,1200000,,94121,Central Richmond,,,Sold,SAN FRANCISCO
408,794 Rhode Island St,2.0,,San Francisco,"1,330 sqft","Jan 31, 2014","$1,320,000",37.75978,-122.402405,CA,Single-Family Home,1320000,"$1,372,000",94107,Potrero Hill,,,Sold,SAN FRANCISCO
409,2 Arbor St,2.0,4.0,San Francisco,"2,332 sqft","Jan 31, 2014","$1,500,000",37.738266,-122.43483,CA,Single-Family Home,1500000,"$1,579,000",94131,Glen Park,,,Sold,SAN FRANCISCO
410,1160 Mission St #2103,1.0,1.0,San Francisco,629 sqft,"Jan 31, 2014","$605,000",37.778706,-122.412636,CA,Condo,605000,"$662,000",94103,SoMa,,,Sold,SAN FRANCISCO
411,5160 Diamond Heights Blvd #102C,1.0,1.0,San Francisco,744 sqft,"Jan 31, 2014","$475,000",37.7459,-122.44047,CA,Condo,475000,"$542,000",94131,Diamond Heights,,,Sold,SAN FRANCISCO
412,2267 29th Ave,1.0,,San Francisco,"1,190 sqft","Jan 31, 2014","$680,000",37.745056,-122.48691,CA,Single-Family Home,680000,"$845,000",94116,Central Sunset,,,Sold,SAN FRANCISCO
413,24 Bennington St,1.0,,San Francisco,"1,750 sqft","Jan 31, 2014","$1,510,000",37.73982,-122.41795,CA,Single-Family Home,1510000,"$1,753,000",94110,Bernal Heights,,,Sold,SAN FRANCISCO
414,8400 Oceanview Ter #113,1.0,1.0,San Francisco,743 sqft,"Jan 30, 2014","$401,000",37.71042,-122.467705,CA,Condo,401000,"$434,000",94132,Ingleside Heights,,,Sold,SAN FRANCISCO
415,415 Missouri St,1.0,,San Francisco,"1,407 sqft","Jan 30, 2014","$1,250,000",37.76106,-122.39607,CA,Condo,1250000,"$1,237,000",94107,Potrero Hill,,,Sold,SAN FRANCISCO
416,438 Capp St #440,2.0,,San Francisco,"1,540 sqft","Jan 30, 2014","$300,000",37.75954,-122.41836,CA,Multi-Family,300000,,94110,Mission,,,Sold,SAN FRANCISCO
417,791 Colby St,1.0,,San Francisco,"1,034 sqft","Jan 30, 2014","$650,000",37.72068,-122.41032,CA,Single-Family Home,650000,"$708,000",94134,Portola,,,Sold,SAN FRANCISCO
418,260 King St #1503,2.0,2.0,San Francisco,"1,286 sqft","Jan 30, 2014","$1,250,000",37.77764,-122.39342,CA,Condo,1250000,"$1,204,000",94107,Mission Bay,,,Sold,SAN FRANCISCO
419,142 Henry St #F,1.0,,San Francisco,538 sqft,"Jan 30, 2014","$646,000",37.76684,-122.43432,CA,Condo,646000,"$703,000",94114,Duboce Triangle,,,Sold,SAN FRANCISCO
420,41 Vienna St,1.0,,San Francisco,800 sqft,"Jan 30, 2014","$530,000",37.72779,-122.42453,CA,Single-Family Home,530000,"$627,000",94112,Excelsior,,,Sold,SAN FRANCISCO
421,2165 Revere Ave,1.0,,San Francisco,"1,125 sqft","Jan 30, 2014","$528,000",37.73746,-122.40091,CA,Single-Family Home,528000,"$508,000",94124,Silver Terrace,,,Sold,SAN FRANCISCO
422,2009 Revere Ave,1.0,,San Francisco,910 sqft,"Jan 30, 2014","$515,000",37.73562,-122.39829,CA,Single-Family Home,515000,"$588,000",94124,Silver Terrace,,,Sold,SAN FRANCISCO
423,1861 19th Ave,2.0,4.0,San Francisco,"2,012 sqft","Jan 30, 2014","$670,000",37.753056,-122.47672,CA,Condo,670000,"$834,000",94122,Central Sunset,,,Sold,SAN FRANCISCO
424,131 Congo St,2.0,3.0,San Francisco,"1,190 sqft","Jan 29, 2014","$870,000",37.730385,-122.44229,CA,Single-Family Home,870000,"$1,083,000",94131,Sunnyside,,,Sold,SAN FRANCISCO
425,421 Nevada St,1.0,2.0,San Francisco,700 sqft,"Jan 29, 2014","$479,000",37.736637,-122.41145,CA,Single-Family Home,479000,"$748,000",94110,Bernal Heights,,,Sold,SAN FRANCISCO
426,10 Brighton Ave,1.0,,San Francisco,875 sqft,"Jan 29, 2014","$730,000",37.718475,-122.454865,CA,Single-Family Home,730000,"$667,000",94112,Ingleside,,,Sold,SAN FRANCISCO
427,258 Farallones St,3.0,7.0,San Francisco,"3,939 sqft","Jan 29, 2014","$960,000",37.714294,-122.4613,CA,Single-Family Home,960000,"$1,175,000",94112,Oceanview,,,Sold,SAN FRANCISCO
428,955 Burnett Ave,4.0,,San Francisco,"2,940 sqft","Jan 29, 2014","$1,528,000",37.74804,-122.44474,CA,Multi-Family,1528000,,94131,Midtown Terrace,,,Sold,SAN FRANCISCO
429,4078 18th St #4080,2.0,,San Francisco,"2,765 sqft","Jan 29, 2014","$186,000",37.76115,-122.4344,CA,Multi-Family,186000,,94114,Castro,,,Sold,SAN FRANCISCO
430,550 Davis St #25,3.0,3.0,San Francisco,"2,251 sqft","Jan 29, 2014","$2,225,500",37.797626,-122.39779,CA,Condo,2225500,"$2,588,000",94111,Financial District,,,Sold,SAN FRANCISCO
431,174 Laura St,1.0,,San Francisco,"1,000 sqft","Jan 29, 2014","$545,000",37.71156,-122.452156,CA,Single-Family Home,545000,"$667,000",94112,Outer Mission,,,Sold,SAN FRANCISCO
432,68 Mccoppin St #3,1.0,,San Francisco,696 sqft,"Jan 29, 2014","$350,000",37.77186,-122.42187,CA,Condo,350000,"$470,000",94103,SoMa,,,Sold,SAN FRANCISCO
433,929 Stanyan St,2.0,3.0,San Francisco,"1,382 sqft","Jan 29, 2014","$1,150,000",37.765938,-122.45317,CA,Condo,1150000,"$1,390,000",94117,Ashbury Heights,,,Sold,SAN FRANCISCO
434,246 Corbett Ave,2.0,3.0,San Francisco,"1,300 sqft","Jan 29, 2014","$573,000",37.761513,-122.44396,CA,Single-Family Home,573000,"$1,528,000",94114,Buena Vista Park,,,Sold,SAN FRANCISCO
435,122 Olmstead St,1.0,,San Francisco,960 sqft,"Jan 29, 2014","$640,000",37.7226,-122.40312,CA,Single-Family Home,640000,"$699,000",94134,Portola,,,Sold,SAN FRANCISCO
436,162 College Ave,1.0,2.0,San Francisco,"1,205 sqft","Jan 29, 2014","$650,000",37.735157,-122.425705,CA,Single-Family Home,650000,"$977,000",94112,Bernal Heights,,,Sold,SAN FRANCISCO
437,555 4th St #927,1.0,1.0,San Francisco,699 sqft,"Jan 29, 2014","$627,500",37.779423,-122.39671,CA,Condo,627500,"$732,000",94107,Mission Bay,,,Sold,SAN FRANCISCO
438,260 King St #1107,1.0,1.0,San Francisco,896 sqft,"Jan 29, 2014","$720,000",37.77764,-122.39342,CA,Condo,720000,"$821,000",94107,Mission Bay,,,Sold,SAN FRANCISCO
439,1388 Gough St #606,2.0,2.0,San Francisco,"1,190 sqft","Jan 28, 2014","$950,000",37.785896,-122.424446,CA,Condo,950000,"$1,041,000",94109,Civic Center,,,Sold,SAN FRANCISCO
440,374 Ewing Ter,1.0,2.0,San Francisco,"1,250 sqft","Jan 28, 2014","$1,296,000",37.779743,-122.44785,CA,Single-Family Home,1296000,"$1,356,000",94118,Lone Mountain,,,Sold,SAN FRANCISCO
441,2395 Diamond St,2.0,3.0,San Francisco,"1,412 sqft","Jan 28, 2014","$1,250,000",37.738518,-122.43626,CA,Single-Family Home,1250000,"$1,250,000",94131,Glen Park,,,Sold,SAN FRANCISCO
442,338 Spear St #31F,,,San Francisco,,"Jan 28, 2014","$1,950,000",37.790077,-122.39125,CA,Condo,1950000,,94105,South Beach,,,Sold,SAN FRANCISCO
443,325 China Basin St #110,2.0,2.0,San Francisco,"1,693 sqft","Jan 28, 2014","$1,882,500",37.771664,-122.38745,CA,Townhouse,1882500,"$1,840,000",94158,Mission Bay,,,Sold,SAN FRANCISCO
444,1422 Rhode Island St,1.0,,San Francisco,"1,095 sqft","Jan 28, 2014","$1,610,000",37.75159,-122.40162,CA,Single-Family Home,1610000,"$1,183,000",94107,Potrero Hill,,,Sold,SAN FRANCISCO
445,1439 5th Ave,1.0,,San Francisco,"2,200 sqft","Jan 28, 2014","$800,000",37.76159,-122.46217,CA,Single-Family Home,800000,"$1,285,000",94122,Inner Sunset,,,Sold,SAN FRANCISCO
446,2563 26th Ave,2.0,4.0,San Francisco,"1,970 sqft","Jan 28, 2014","$1,081,000",37.739674,-122.48331,CA,Single-Family Home,1081000,"$1,122,000",94116,Central Sunset,,,Sold,SAN FRANCISCO
447,4341 Kirkham St,1.0,,San Francisco,"1,362 sqft","Jan 28, 2014","$766,000",37.758316,-122.50759,CA,Single-Family Home,766000,"$928,000",94122,Outer Sunset,,,Sold,SAN FRANCISCO
448,670 Edinburgh St,1.0,,San Francisco,"1,544 sqft","Jan 28, 2014","$651,000",37.718697,-122.434265,CA,Single-Family Home,651000,"$831,000",94112,Excelsior,,,Sold,SAN FRANCISCO
449,121 Granville Way,1.0,,San Francisco,"1,305 sqft","Jan 28, 2014","$1,230,000",37.741264,-122.46143,CA,Single-Family Home,1230000,"$1,125,000",94127,West Portal,,,Sold,SAN FRANCISCO
450,17 Tioga Ave,1.0,,San Francisco,"1,025 sqft","Jan 28, 2014","$602,000",37.71557,-122.403336,CA,Single-Family Home,602000,"$613,000",94134,Visitacion Valley,,,Sold,SAN FRANCISCO
451,1530 44th Ave,1.0,2.0,San Francisco,"1,640 sqft","Jan 28, 2014","$930,000",37.758045,-122.50328,CA,Single-Family Home,930000,"$1,023,000",94122,Outer Sunset,,,Sold,SAN FRANCISCO
452,147 Stillman St,3.0,,San Francisco,"5,130 sqft","Jan 28, 2014","$1,150,000",37.780773,-122.397316,CA,Multi-Family,1150000,,94107,Mission Bay,,,Sold,SAN FRANCISCO
453,253 Paris St,1.0,3.0,San Francisco,"1,000 sqft","Jan 28, 2014","$460,000",37.724564,-122.43241,CA,Single-Family Home,460000,"$578,000",94112,Excelsior,,,Sold,SAN FRANCISCO
454,1922 Palou Ave,1.0,,San Francisco,"1,540 sqft","Jan 28, 2014","$685,000",37.737625,-122.39681,CA,Single-Family Home,685000,"$743,000",94124,Silver Terrace,,,Sold,SAN FRANCISCO
455,1500 Francisco St #7,1.0,1.0,San Francisco,968 sqft,"Jan 27, 2014","$855,000",37.80271,-122.43017,CA,Condo,855000,"$1,008,000",94123,Marina,,,Sold,SAN FRANCISCO
456,3336 San Bruno Ave #101,1.0,1.0,San Francisco,712 sqft,"Jan 27, 2014","$315,500",37.7195,-122.400795,CA,Condo,315500,"$358,000",94134,Visitacion Valley,,,Sold,SAN FRANCISCO
457,601 Van Ness Ave #450,1.0,1.0,San Francisco,673 sqft,"Jan 27, 2014","$505,000",37.781387,-122.42141,CA,Condo,505000,"$554,000",94102,Civic Center,,,Sold,SAN FRANCISCO
458,17 Curtis St,1.0,,San Francisco,791 sqft,"Jan 27, 2014","$440,000",37.71459,-122.439926,CA,Single-Family Home,440000,"$560,000",94112,Crocker Amazon,,,Sold,SAN FRANCISCO
459,139 Madrid St,1.0,,San Francisco,"1,000 sqft","Jan 27, 2014","$575,000",37.727085,-122.42833,CA,Single-Family Home,575000,"$635,000",94112,Excelsior,,,Sold,SAN FRANCISCO
460,169 Glenview Dr,1.0,2.0,San Francisco,833 sqft,"Jan 24, 2014","$708,000",37.749104,-122.447495,CA,Single-Family Home,708000,"$805,000",94131,Midtown Terrace,,,Sold,SAN FRANCISCO
461,20 Ringold St #22,3.0,,San Francisco,"3,750 sqft","Jan 24, 2014","$1,100,000",37.77436,-122.410034,CA,Multi-Family,1100000,,94103,SoMa,,,Sold,SAN FRANCISCO
462,3540 Balboa St #3546,15.0,,San Francisco,"10,566 sqft","Jan 24, 2014","$3,775,000",37.77594,-122.49706,CA,Multi-Family,3775000,,94121,Outer Richmond,,,Sold,SAN FRANCISCO
463,1154 Chestnut St,5.0,5.0,San Francisco,"3,854 sqft","Jan 24, 2014","$4,400,000",37.80271,-122.42241,CA,Single-Family Home,4400000,"$4,075,000",94109,Russian Hill,,,Sold,SAN FRANCISCO
464,590 6th St #306,2.0,2.0,San Francisco,"1,252 sqft","Jan 24, 2014","$955,000",37.774734,-122.401505,CA,Condo,955000,"$1,120,000",94103,Mission Bay,,,Sold,SAN FRANCISCO
465,1089 Kansas St,3.0,,San Francisco,"2,050 sqft","Jan 24, 2014","$940,000",37.75593,-122.40238,CA,Multi-Family,940000,,94107,Potrero Hill,,,Sold,SAN FRANCISCO
466,610 Illinois St #203,,,San Francisco,"1,068 sqft","Jan 24, 2014","$660,000",37.763966,-122.38817,CA,Condo,660000,"$760,000",94107,Central Waterfront,,,Sold,SAN FRANCISCO
467,3620 19th St #26,2.0,3.0,San Francisco,"1,335 sqft","Jan 24, 2014","$1,280,000",37.76062,-122.42436,CA,Condo,1280000,"$1,518,000",94110,Mission Dolores,,,Sold,SAN FRANCISCO
468,1062 Ingerson Ave,1.0,,San Francisco,"1,250 sqft","Jan 24, 2014","$555,000",37.719967,-122.394,CA,Single-Family Home,555000,"$592,000",94124,Bayview,,,Sold,SAN FRANCISCO
469,2594 39th Ave,1.0,,San Francisco,968 sqft,"Jan 24, 2014","$650,000",37.73853,-122.49665,CA,Single-Family Home,650000,"$772,000",94116,Outer Sunset,,,Sold,SAN FRANCISCO
470,1490 7th Ave,1.0,,San Francisco,"1,950 sqft","Jan 24, 2014","$1,220,000",37.76063,-122.46364,CA,Single-Family Home,1220000,"$1,219,000",94122,Inner Sunset,,,Sold,SAN FRANCISCO
471,730 Funston Ave,4.0,6.0,San Francisco,"5,190 sqft","Jan 24, 2014","$3,230,000",37.774395,-122.47099,CA,Single-Family Home,3230000,"$3,167,000",94118,Inner Richmond,,,Sold,SAN FRANCISCO
472,408 Waller St,1.0,2.0,San Francisco,"1,000 sqft","Jan 24, 2014","$925,000",37.77133,-122.430565,CA,Condo,925000,"$1,023,000",94117,Hayes Valley,,,Sold,SAN FRANCISCO
473,50 Lansing St #705,,,San Francisco,715 sqft,"Jan 24, 2014","$700,000",37.786148,-122.394295,CA,Condo,700000,"$876,000",94105,South Beach,,,Sold,SAN FRANCISCO
474,140 S Van Ness Ave #1035,,,San Francisco,830 sqft,"Jan 24, 2014","$633,500",37.771564,-122.4188,CA,Condo,633500,"$690,000",94103,SoMa,,,Sold,SAN FRANCISCO
475,8200 Oceanview Ter #319,1.0,1.0,San Francisco,745 sqft,"Jan 24, 2014","$400,000",37.71042,-122.467705,CA,Condo,400000,"$478,000",94132,Ingleside Heights,,,Sold,SAN FRANCISCO
476,317 Harriet St #12,,,San Francisco,"1,182 sqft","Jan 24, 2014","$700,000",37.77546,-122.40239,CA,Condo,700000,"$886,000",94103,Mission Bay,,,Sold,SAN FRANCISCO
477,858 37th Ave,2.0,5.0,San Francisco,"3,059 sqft","Jan 24, 2014","$1,250,000",37.772762,-122.49678,CA,Single-Family Home,1250000,"$1,542,000",94121,Outer Richmond,,,Sold,SAN FRANCISCO
478,2446 17th Ave,1.0,,San Francisco,"1,175 sqft","Jan 24, 2014","$908,000",37.74226,-122.47316,CA,Single-Family Home,908000,"$920,000",94116,Inner Parkside,,,Sold,SAN FRANCISCO
479,3131 Quintara St,1.0,,San Francisco,"1,587 sqft","Jan 23, 2014","$950,000",37.74738,-122.499146,CA,Single-Family Home,950000,"$992,000",94116,Outer Sunset,,,Sold,SAN FRANCISCO
480,1090 Hampshire St,4.0,,San Francisco,"3,478 sqft","Jan 23, 2014","$1,705,000",37.75468,-122.407616,CA,Multi-Family,1705000,,94110,Potrero Hill,,,Sold,SAN FRANCISCO
481,1160 Mission St #1111,1.0,1.0,San Francisco,765 sqft,"Jan 23, 2014","$612,500",37.778706,-122.412636,CA,Condo,612500,"$744,000",94103,SoMa,,,Sold,SAN FRANCISCO
482,3550 Market St #501,,,San Francisco,"1,099 sqft","Jan 23, 2014","$820,000",37.75631,-122.44186,CA,Condo,820000,"$898,000",94131,Twin Peaks,,,Sold,SAN FRANCISCO
483,125 Bella Vista Way,2.0,,San Francisco,"1,479 sqft","Jan 23, 2014","$960,000",37.73787,-122.44812,CA,Single-Family Home,960000,"$961,000",94127,Miraloma,,,Sold,SAN FRANCISCO
484,30 Prescott Ct,3.0,,San Francisco,"2,116 sqft","Jan 23, 2014","$1,725,000",37.798855,-122.40303,CA,Multi-Family,1725000,,94133,Telegraph Hill,,,Sold,SAN FRANCISCO
485,435 China Basin St #446,2.0,2.0,San Francisco,"1,219 sqft","Jan 23, 2014","$1,189,000",37.771587,-122.388535,CA,Condo,1189000,"$1,340,000",94158,Mission Bay,,,Sold,SAN FRANCISCO
486,400 Beale St #2505,,,San Francisco,828 sqft,"Jan 23, 2014","$800,000",37.786903,-122.39092,CA,Condo,800000,"$950,000",94105,South Beach,,,Sold,SAN FRANCISCO
487,1243 23rd Ave,4.0,,San Francisco,"3,407 sqft","Jan 23, 2014","$1,200,000",37.764397,-122.48181,CA,Multi-Family,1200000,,94122,Central Sunset,,,Sold,SAN FRANCISCO
488,1352 Stevenson St,1.0,2.0,San Francisco,925 sqft,"Jan 23, 2014","$784,000",37.77074,-122.42187,CA,Condo,784000,"$855,000",94103,SoMa,,,Sold,SAN FRANCISCO
489,231 Cole St,1.0,2.0,San Francisco,"1,181 sqft","Jan 22, 2014","$925,000",37.772816,-122.45118,CA,Condo,925000,"$1,192,000",94117,Panhandle,,,Sold,SAN FRANCISCO
490,101 Lombard St #18,1.0,1.0,San Francisco,789 sqft,"Jan 22, 2014","$652,000",37.80347,-122.404076,CA,Condo,652000,"$813,000",94111,Fisherman's Wharf,,,Sold,SAN FRANCISCO
491,3754 Cesar Chavez,1.0,,San Francisco,675 sqft,"Jan 22, 2014","$1,065,000",37.74808,-122.423584,CA,Single-Family Home,1065000,"$1,162,000",94110,Noe Valley,,,Sold,SAN FRANCISCO
492,2001 Mcallister St #13,1.0,1.0,San Francisco,650 sqft,"Jan 22, 2014","$580,000",37.776382,-122.44569,CA,Condo,580000,"$660,000",94118,North Park,,,Sold,SAN FRANCISCO
493,188 Haight St,1.0,2.0,San Francisco,"4,000 sqft","Jan 22, 2014","$2,667,000",37.77302,-122.4253,CA,Single-Family Home,2667000,"$3,081,000",94102,Hayes Valley,,,Sold,SAN FRANCISCO
494,1054 Fell St #1058,3.0,,San Francisco,"3,972 sqft","Jan 22, 2014","$2,250,000",37.774666,-122.43535,CA,Multi-Family,2250000,,94117,Hayes Valley,,,Sold,SAN FRANCISCO
495,631 Folsom St #18E,2.0,2.0,San Francisco,906 sqft,"Jan 22, 2014","$990,000",37.784714,-122.39687,CA,Condo,990000,"$1,259,000",94107,South Beach,,,Sold,SAN FRANCISCO
496,3861 25th St,1.0,,San Francisco,866 sqft,"Jan 22, 2014","$750,000",37.74991,-122.42638,CA,Condo,750000,"$926,000",94114,Noe Valley,,,Sold,SAN FRANCISCO
497,1177 California St #315,1.0,,San Francisco,795 sqft,"Jan 22, 2014","$675,000",37.791027,-122.41365,CA,Condo,675000,"$703,000",94108,Downtown,,,Sold,SAN FRANCISCO
498,745 Shrader St,,,San Francisco,"1,302 sqft","Jan 22, 2014","$1,453,000",37.76781,-122.451866,CA,Condo,1453000,"$1,445,000",94117,Haight,,,Sold,SAN FRANCISCO
499,916 Clay St #920,1.0,,San Francisco,"3,681 sqft","Jan 22, 2014","$795,000",37.794174,-122.408295,CA,Multi-Family,795000,,94108,Chinatown,,,Sold,SAN FRANCISCO
500,615 Garfield St,1.0,,San Francisco,750 sqft,"Jan 22, 2014","$572,000",37.719498,-122.46837,CA,Single-Family Home,572000,"$680,000",94132,Merced Heights,,,Sold,SAN FRANCISCO
501,631 Ofarrell St #311,1.0,,San Francisco,520 sqft,"Jan 22, 2014","$315,000",37.78524,-122.41512,CA,Condo,315000,"$475,000",94109,Tenderloin,,,Sold,SAN FRANCISCO
502,1370 46th Ave,2.0,,San Francisco,"1,375 sqft","Jan 22, 2014","$1,265,000",37.760994,-122.50564,CA,Single-Family Home,1265000,"$859,000",94122,Outer Sunset,,,Sold,SAN FRANCISCO
503,1701 Jackson St #601,,,San Francisco,"1,058 sqft","Jan 21, 2014","$950,000",37.79343,-122.42343,CA,Condo,950000,"$1,047,000",94109,Pacific Heights,,,Sold,SAN FRANCISCO
504,2419 34th Ave,1.0,,San Francisco,"1,560 sqft","Jan 21, 2014","$925,000",37.74191,-122.492065,CA,Single-Family Home,925000,"$978,000",94116,Central Sunset,,,Sold,SAN FRANCISCO
505,664 Sweeny St,1.0,2.0,San Francisco,850 sqft,"Jan 21, 2014","$650,000",37.730453,-122.416466,CA,Single-Family Home,650000,"$637,000",94134,Portola,,,Sold,SAN FRANCISCO
506,2621 Harrison St,2.0,,San Francisco,"1,514 sqft","Jan 21, 2014","$750,000",37.75538,-122.41184,CA,Single-Family Home,750000,"$1,143,000",94110,Mission,,,Sold,SAN FRANCISCO
507,2060 Sutter St #401,2.0,2.0,San Francisco,"1,174 sqft","Jan 21, 2014","$1,051,500",37.786217,-122.4344,CA,Condo,1051500,"$1,086,000",94115,Lower Pacific Heights,,,Sold,SAN FRANCISCO
508,10 Rousseau St,,,San Francisco,,"Jan 17, 2014","$1,230,000",37.733505,-122.43049,CA,Multi-Family,1230000,,94112,Bernal Heights,,,Sold,SAN FRANCISCO
509,986 Ingerson Ave,2.0,3.0,San Francisco,"1,672 sqft","Jan 17, 2014","$632,000",37.71915,-122.392555,CA,Single-Family Home,632000,"$647,000",94124,Bayview,,,Sold,SAN FRANCISCO
510,1500 Newcomb Ave,4.0,4.0,San Francisco,"2,416 sqft","Jan 17, 2014","$769,000",37.73444,-122.38785,CA,Single-Family Home,769000,"$787,000",94124,Bayview,,,Sold,SAN FRANCISCO
511,40 Seward St #42,2.0,,San Francisco,"1,500 sqft","Jan 17, 2014","$468,000",37.75816,-122.43988,CA,Multi-Family,468000,,94114,Castro,,,Sold,SAN FRANCISCO
512,2412 Castro St,1.0,2.0,San Francisco,"1,275 sqft","Jan 17, 2014","$1,425,000",37.74221,-122.43353,CA,Single-Family Home,1425000,"$1,643,000",94131,Noe Valley,,,Sold,SAN FRANCISCO
513,142 Ewing Ter,2.0,2.0,San Francisco,"2,040 sqft","Jan 17, 2014","$1,725,000",37.780746,-122.44821,CA,Single-Family Home,1725000,"$1,814,000",94118,Lone Mountain,,,Sold,SAN FRANCISCO
514,1804 Ellis St #1804D,1.0,2.0,San Francisco,816 sqft,"Jan 17, 2014","$490,000",37.78214,-122.43606,CA,Condo,490000,"$627,000",94115,Western Addition,,,Sold,SAN FRANCISCO
515,1966 Greenwich St,1.0,2.0,San Francisco,"1,066 sqft","Jan 17, 2014","$1,050,000",37.799717,-122.43211,CA,Condo,1050000,"$1,279,000",94123,Cow Hollow,,,Sold,SAN FRANCISCO
516,2301 Harrison St #306,1.0,,San Francisco,"1,000 sqft","Jan 17, 2014","$879,000",37.7601,-122.41238,CA,Condo,879000,"$976,000",94110,Mission,,,Sold,SAN FRANCISCO
517,1725 Jones St #1,1.0,,San Francisco,"1,250 sqft","Jan 17, 2014","$1,300,000",37.79718,-122.415504,CA,Condo,1300000,"$1,421,000",94109,Russian Hill,,,Sold,SAN FRANCISCO
518,489 Harrison St #507,2.0,2.0,San Francisco,"1,508 sqft","Jan 17, 2014","$1,400,000",37.786064,-122.39217,CA,Townhouse,1400000,"$1,740,000",94105,South Beach,,,Sold,SAN FRANCISCO
519,94 Eastwood Dr,1.0,,San Francisco,"1,200 sqft","Jan 17, 2014","$1,085,000",37.727467,-122.45714,CA,Single-Family Home,1085000,"$1,091,000",94112,Westwood Park,,,Sold,SAN FRANCISCO
520,300 Berry St #921,1.0,2.0,San Francisco,730 sqft,"Jan 17, 2014","$769,000",37.77393,-122.39624,CA,Condo,769000,"$882,000",94158,Mission Bay,,,Sold,SAN FRANCISCO
521,1450 Post St #305,,,San Francisco,535 sqft,"Jan 17, 2014","$88,500",37.78636,-122.425835,CA,Condo,88500,"$244,000",94109,Lower Pacific Heights,,,Sold,SAN FRANCISCO
522,1870 33rd Ave,1.0,,San Francisco,"1,100 sqft","Jan 17, 2014","$620,000",37.752285,-122.49105,CA,Single-Family Home,620000,"$810,000",94122,Central Sunset,,,Sold,SAN FRANCISCO
523,200 Brannan St #441,2.0,1.0,San Francisco,"1,521 sqft","Jan 17, 2014","$1,300,000",37.7836,-122.39071,CA,Condo,1300000,"$1,556,000",94107,South Beach,,,Sold,SAN FRANCISCO
524,15 Victoria St,1.0,,San Francisco,"1,087 sqft","Jan 17, 2014","$650,000",37.711002,-122.46549,CA,Single-Family Home,650000,"$676,000",94132,Ingleside Heights,,,Sold,SAN FRANCISCO
525,1895 16th Ave #1897,2.0,,San Francisco,"1,518 sqft","Jan 17, 2014","$615,000",37.75266,-122.47332,CA,Single-Family Home,615000,"$883,000",94122,Inner Sunset,,,Sold,SAN FRANCISCO
526,2318 25th St #B,,,San Francisco,"1,011 sqft","Jan 17, 2014","$806,000",37.75221,-122.40189,CA,Single-Family Home,806000,"$935,000",94107,Potrero Hill,,,Sold,SAN FRANCISCO
527,2488 45th Ave,1.0,,San Francisco,877 sqft,"Jan 17, 2014","$599,000",37.74023,-122.50326,CA,Single-Family Home,599000,"$724,000",94116,Outer Sunset,,,Sold,SAN FRANCISCO
528,656 5th Ave,1.0,3.0,San Francisco,"2,826 sqft","Jan 17, 2014","$1,200,000",37.77626,-122.46254,CA,Condo,1200000,"$1,552,000",94118,Inner Richmond,,,Sold,SAN FRANCISCO
529,1207 Indiana St #2,,,San Francisco,"1,407 sqft","Jan 17, 2014","$850,000",37.75482,-122.39041,CA,Condo,850000,"$892,000",94107,Central Waterfront,,,Sold,SAN FRANCISCO
530,1250 31st Ave,1.0,3.0,San Francisco,"1,491 sqft","Jan 17, 2014","$1,190,000",37.7639,-122.489716,CA,Single-Family Home,1190000,"$1,168,000",94122,Central Sunset,,,Sold,SAN FRANCISCO
531,1968 Greenwich St,2.0,3.0,San Francisco,"3,235 sqft","Jan 17, 2014","$2,650,000",37.799717,-122.43211,CA,Condo,2650000,"$2,761,000",94123,Cow Hollow,,,Sold,SAN FRANCISCO
532,4032 Irving St,2.0,2.0,San Francisco,"1,577 sqft","Jan 17, 2014","$700,000",37.76274,-122.50134,CA,Single-Family Home,700000,"$912,000",94122,Outer Sunset,,,Sold,SAN FRANCISCO
533,767 Oak St,4.0,5.0,San Francisco,"1,915 sqft","Jan 17, 2014","$1,750,000",37.773552,-122.431854,CA,Multi-Family,1750000,,94117,Hayes Valley,,,Sold,SAN FRANCISCO
534,287 Thrift St,2.0,2.0,San Francisco,"1,150 sqft","Jan 17, 2014","$650,000",37.717186,-122.46204,CA,Single-Family Home,650000,"$629,000",94112,Oceanview,,,Sold,SAN FRANCISCO
535,75 Topaz Way,3.0,3.0,San Francisco,"2,047 sqft","Jan 17, 2014","$955,000",37.742004,-122.43648,CA,Condo,955000,"$1,026,000",94131,Diamond Heights,,,Sold,SAN FRANCISCO
536,2220 Castro St,1.0,,San Francisco,"1,200 sqft","Jan 17, 2014","$3,550,000",37.74368,-122.43368,CA,Single-Family Home,3550000,"$1,474,000",94131,Noe Valley,,,Sold,SAN FRANCISCO
537,1083 Clay St #403,1.0,,San Francisco,915 sqft,"Jan 17, 2014","$900,000",37.793533,-122.41083,CA,Condo,900000,"$1,012,000",94108,Nob Hill,,,Sold,SAN FRANCISCO
538,2140 Bush St #5,1.0,1.0,San Francisco,"1,969 sqft","Jan 17, 2014","$1,622,500",37.78742,-122.43248,CA,Condo,1622500,"$1,445,000",94115,Lower Pacific Heights,,,Sold,SAN FRANCISCO
539,186 Alpine Ter #188,2.0,,San Francisco,"2,184 sqft","Jan 16, 2014","$1,150,000",37.767467,-122.43757,CA,Multi-Family,1150000,,94117,Buena Vista Park,,,Sold,SAN FRANCISCO
540,2730 Diamond St #2732,2.0,,San Francisco,"2,200 sqft","Jan 16, 2014","$1,600,000",37.735603,-122.43439,CA,Multi-Family,1600000,,94131,Glen Park,,,Sold,SAN FRANCISCO
541,131 Connecticut St,1.0,,San Francisco,"1,140 sqft","Jan 16, 2014","$950,000",37.764484,-122.39737,CA,Condo,950000,"$1,056,000",94107,Potrero Hill,,,Sold,SAN FRANCISCO
542,1911 Vallejo St,3.0,3.0,San Francisco,"3,031 sqft","Jan 16, 2014","$2,895,000",37.79579,-122.42917,CA,Condo,2895000,"$3,771,000",94123,Pacific Heights,,,Sold,SAN FRANCISCO
543,721 York St,1.0,,San Francisco,"1,030 sqft","Jan 16, 2014","$1,510,000",37.75971,-122.40864,CA,Single-Family Home,1510000,"$997,000",94110,Potrero Hill,,,Sold,SAN FRANCISCO
544,320 Hearst Ave,1.0,,San Francisco,"1,500 sqft","Jan 16, 2014","$928,000",37.731045,-122.44488,CA,Single-Family Home,928000,"$906,000",94112,Sunnyside,,,Sold,SAN FRANCISCO
545,49 Lupine Ave #51,4.0,,San Francisco,"3,162 sqft","Jan 16, 2014","$2,000,000",37.784637,-122.44834,CA,Multi-Family,2000000,,94118,Laurel Heights,,,Sold,SAN FRANCISCO
546,670 19th Ave,2.0,,San Francisco,"1,775 sqft","Jan 16, 2014","$1,010,000",37.7753,-122.47761,CA,Single-Family Home,1010000,"$1,277,000",94121,Central Richmond,,,Sold,SAN FRANCISCO
547,90 Bayview St,2.0,,San Francisco,"1,700 sqft","Jan 16, 2014","$679,000",37.732983,-122.39422,CA,Single-Family Home,679000,"$622,000",94124,Bayview,,,Sold,SAN FRANCISCO
548,241 Farallones St,2.0,3.0,San Francisco,"1,893 sqft","Jan 16, 2014","$710,000",37.713787,-122.46059,CA,Single-Family Home,710000,"$924,000",94112,Oceanview,,,Sold,SAN FRANCISCO
549,555 4th St #906,1.0,1.0,San Francisco,681 sqft,"Jan 16, 2014","$625,000",37.779423,-122.39671,CA,Condo,625000,"$723,000",94107,Mission Bay,,,Sold,SAN FRANCISCO
550,1015 Capitol Ave,1.0,,San Francisco,800 sqft,"Jan 16, 2014","$470,000",37.720345,-122.459496,CA,Single-Family Home,470000,"$652,000",94112,Ingleside,,,Sold,SAN FRANCISCO
551,475 22nd Ave,1.0,,San Francisco,"1,526 sqft","Jan 16, 2014","$926,000",37.778786,-122.48174,CA,Single-Family Home,926000,"$1,192,000",94121,Central Richmond,,,Sold,SAN FRANCISCO
552,2751 42nd Ave,1.0,,San Francisco,"1,012 sqft","Jan 15, 2014","$505,000",37.73546,-122.50017,CA,Single-Family Home,505000,"$796,000",94116,Outer Sunset,,,Sold,SAN FRANCISCO
553,463 Waller St #467,5.0,,San Francisco,"4,275 sqft","Jan 15, 2014","$950,000",37.770847,-122.43126,CA,Multi-Family,950000,,94117,Hayes Valley,,,Sold,SAN FRANCISCO
554,1892 Green St,1.0,,San Francisco,"1,745 sqft","Jan 15, 2014","$1,735,000",37.797043,-122.43017,CA,Condo,1735000,"$1,661,000",94123,Cow Hollow,,,Sold,SAN FRANCISCO
555,4591 18th St,2.0,2.0,San Francisco,"1,310 sqft","Jan 15, 2014","$1,660,000",37.760277,-122.44136,CA,Single-Family Home,1660000,"$1,638,000",94114,Castro,,,Sold,SAN FRANCISCO
556,2844 Cabrillo St #2850,4.0,,San Francisco,"3,375 sqft","Jan 15, 2014","$1,388,000",37.774353,-122.4894,CA,Multi-Family,1388000,,94121,Central Richmond,,,Sold,SAN FRANCISCO
557,400 Beale St #2606,,,San Francisco,"2,106 sqft","Jan 15, 2014","$2,637,500",37.786903,-122.39092,CA,Condo,2637500,"$2,159,000",94105,South Beach,,,Sold,SAN FRANCISCO
558,1987 Palou Ave,1.0,,San Francisco,"1,049 sqft","Jan 15, 2014","$538,000",37.73786,-122.3983,CA,Single-Family Home,538000,"$626,000",94124,Silver Terrace,,,Sold,SAN FRANCISCO
559,2130 Leavenworth St #2,1.0,,San Francisco,397 sqft,"Jan 15, 2014","$444,000",37.8008,-122.41732,CA,Condo,444000,"$604,000",94133,Russian Hill,,,Sold,SAN FRANCISCO
560,1750 39th Ave,1.0,2.0,San Francisco,"1,000 sqft","Jan 15, 2014","$595,000",37.75421,-122.497635,CA,Single-Family Home,595000,"$759,000",94122,Outer Sunset,,,Sold,SAN FRANCISCO
561,179 Vienna St,1.0,,San Francisco,643 sqft,"Jan 15, 2014","$650,000",37.72536,-122.42638,CA,Single-Family Home,650000,"$602,000",94112,Excelsior,,,Sold,SAN FRANCISCO
562,407 30th St,1.0,2.0,San Francisco,984 sqft,"Jan 15, 2014","$1,010,000",37.741753,-122.42929,CA,Single-Family Home,1010000,"$1,233,000",94131,Glen Park,,,Sold,SAN FRANCISCO
563,66 Collins St,3.0,4.0,San Francisco,"2,199 sqft","Jan 15, 2014","$1,768,500",37.785072,-122.44992,CA,Condo,1768500,"$2,076,000",94118,Laurel Heights,,,Sold,SAN FRANCISCO
564,81 Waterville St,1.0,,San Francisco,450 sqft,"Jan 15, 2014","$338,000",37.73486,-122.40245,CA,Single-Family Home,338000,"$457,000",94124,Silver Terrace,,,Sold,SAN FRANCISCO
565,3222 Cabrillo St,5.0,5.0,San Francisco,"2,030 sqft","Jan 15, 2014","$1,304,000",37.77427,-122.49336,CA,Single-Family Home,1304000,"$1,646,000",94121,Outer Richmond,,,Sold,SAN FRANCISCO
566,4038 23rd St,1.0,3.0,San Francisco,"1,850 sqft","Jan 15, 2014","$2,300,000",37.753216,-122.43294,CA,Single-Family Home,2300000,"$2,581,000",94114,Noe Valley,,,Sold,SAN FRANCISCO
567,1612 Church St,1.0,,San Francisco,"1,048 sqft","Jan 15, 2014","$3,225,000",37.744843,-122.42709,CA,Single-Family Home,3225000,"$2,272,000",94131,Noe Valley,,,Sold,SAN FRANCISCO
568,383 Lombard St #305,2.0,,San Francisco,975 sqft,"Jan 15, 2014","$1,028,000",37.803272,-122.40783,CA,Condo,1028000,"$1,029,000",94133,Telegraph Hill,,,Sold,SAN FRANCISCO
569,236 Clara St #2,,,San Francisco,"1,577 sqft","Jan 15, 2014","$835,000",37.77891,-122.40336,CA,Condo,835000,"$1,010,000",94107,SoMa,,,Sold,SAN FRANCISCO
570,687 27th St,1.0,,San Francisco,"1,520 sqft","Jan 15, 2014","$1,710,000",37.74628,-122.43546,CA,Single-Family Home,1710000,"$1,864,000",94131,Noe Valley,,,Sold,SAN FRANCISCO
571,2596 24th Ave #2598,4.0,,San Francisco,"2,400 sqft","Jan 15, 2014","$1,255,000",37.73925,-122.480576,CA,Multi-Family,1255000,,94116,Central Sunset,,,Sold,SAN FRANCISCO
572,425 1st St #2706,2.0,2.0,San Francisco,"1,238 sqft","Jan 15, 2014","$1,350,000",37.786064,-122.39217,CA,Condo,1350000,"$1,569,000",94105,South Beach,,,Sold,SAN FRANCISCO
573,49 Restani Way,2.0,,San Francisco,"1,540 sqft","Jan 15, 2014","$701,000",37.717785,-122.4437,CA,Single-Family Home,701000,"$743,000",94112,Outer Mission,,,Sold,SAN FRANCISCO
574,2328 Francisco St,2.0,2.0,San Francisco,"1,743 sqft","Jan 15, 2014","$1,930,000",37.801117,-122.443695,CA,Condo,1930000,"$1,862,000",94123,Marina,,,Sold,SAN FRANCISCO
575,835 Sanchez St,1.0,,San Francisco,870 sqft,"Jan 14, 2014","$325,000",37.75594,-122.429794,CA,Single-Family Home,325000,"$1,332,000",94114,Noe Valley,,,Sold,SAN FRANCISCO
576,13 Front St,3.0,2.0,San Francisco,"1,993 sqft","Jan 14, 2014","$1,820,000",37.79201,-122.39869,CA,Condo,1820000,"$1,949,000",94111,Downtown,,,Sold,SAN FRANCISCO
