id,address,bathroom,bedroom,city,formattedSqft,lastSaleDate,lastSalePrice,latitude,longitude,stateCode,typeDisplay,price,formattedTruliaEstimate,zipCode,neighborhood,walkScore,transitScore,status,county
1,2388 W Hedding St,1.0,3.0,San Jose,"1,134 sqft","Dec 31, 1969",$0,37.32998,-121.94626,CA,Single-Family Home,635000,,95128,Downtown San Jose,62,43,For Sale,SANTA CLARA
2,809 Auzerais Ave #356,2.0,1.0,San Jose,824 sqft,"Dec 31, 1969",$0,37.321342,-121.90435,CA,Condo,358000,,95126,Downtown San Jose,78,,For Sale,SANTA CLARA
3,10236 Dale Dr,1.0,3.0,San Jose,997 sqft,"Dec 31, 1969",$0,37.361526,-121.818085,CA,Single-Family Home,349900,,95127,Alum Rock,52,44,For Sale,SANTA CLARA
4,2649 Heritage Park Cir,2.5,3.0,San Jose,,"Dec 31, 1969",$0,37.394005,-121.862724,CA,Single-Family Home,598888,,95132,Berryessa,42,49,For Sale,SANTA CLARA
5,3016 Mary Helen Ln,4.0,3.0,San Jose,"1,757 sqft","Dec 31, 1969",$0,37.28741,-121.862946,CA,Single-Family Home,645000,,95136,South San Jose,29,41,For Sale,SANTA CLARA
6,1199 Topaz Ave,2.0,4.0,San Jose,"1,556 sqft","Dec 31, 1969",$0,37.30347,-121.97014,CA,Single-Family Home,675000,,95117,West San Jose,45,39,For Sale,SANTA CLARA
7,20780 Scenic Vista Dr,3.0,4.0,San Jose,"2,916 sqft","Dec 31, 1969",$0,37.218273,-121.82277,CA,Single-Family Home,2200000,,95120,Edenvale,5,14,For Sale,SANTA CLARA
8,678 Teatree Ct,1.0,1.0,San Jose,658 sqft,"Dec 31, 1969",$0,37.315166,-121.93907,CA,Condo,319000,,95128,Downtown San Jose,63,45,For Sale,SANTA CLARA
9,1426 Maria Way,2.0,4.0,San Jose,"1,490 sqft","Dec 31, 1969",$0,37.29831,-121.95832,CA,Single-Family Home,725000,,95117,West San Jose,60,36,For Sale,SANTA CLARA
10,320 N 16th St,1.0,2.0,San Jose,988 sqft,"Dec 31, 1969",$0,37.348362,-121.87865,CA,Single-Family Home,379000,,95112,Downtown San Jose,69,51,For Sale,SANTA CLARA
11,The Zinnia - Cottage Three Plan,3.0,4.0,San Jose,"1,748 sqft","Dec 31, 1969",$0,37.355953,-121.89154,CA,Single-Family Home,800000,,95112,Downtown San Jose,66,51,For Sale,SANTA CLARA
12,6043 Calle De Rico,4.0,3.0,San Jose,"2,235 sqft","Dec 31, 1969",$0,37.228745,-121.90532,CA,Condo,699000,,95124,Cambrian Park,31,0,For Sale,SANTA CLARA
13,15183 Garcal Dr,5.0,6.0,San Jose,"5,546 sqft","Dec 31, 1969",$0,37.37649,-121.80336,CA,Single-Family Home,1395000,,95127,Alum Rock,9,0,For Sale,SANTA CLARA
14,6591 Rocky Crest Dr,3.0,4.0,San Jose,"2,477 sqft","Dec 31, 1969",$0,37.22519,-121.85478,CA,Single-Family Home,1298000,,95120,Almaden Valley,43,0,For Sale,SANTA CLARA
15,787 Coffey Ct,2.0,4.0,San Jose,"1,356 sqft","Dec 31, 1969",$0,37.24204,-121.84722,CA,Single-Family Home,599000,,95123,Edenvale,40,0,For Sale,SANTA CLARA
16,976 S 12th St,,,San Jose,"1,510 sqft","Dec 31, 1969",$0,37.327236,-121.86782,CA,Multi-Family Home,409000,,95112,Downtown San Jose,52,44,For Sale,SANTA CLARA
17,1289 Prevost St,1.0,2.0,San Jose,"1,061 sqft","Dec 31, 1969",$0,37.311157,-121.88886,CA,Single-Family Home,599000,,95125,Willow Glen,49,56,For Sale,SANTA CLARA
18,1060 S 3rd St #172,1.0,1.0,San Jose,550 sqft,"Dec 31, 1969",$0,37.32155,-121.87657,CA,Apt/Condo/Twnhm,255000,,95112,Downtown San Jose,78,48,For Sale,SANTA CLARA
19,1910 Beaufort Ter,2.5,3.0,San Jose,,"Dec 31, 1969",$0,37.386692,-121.89619,CA,Townhome,628000,,95131,Berryessa,74,,For Sale,SANTA CLARA
20,482 Genoa Dr,2.0,2.0,San Jose,"1,060 sqft","Dec 31, 1969",$0,37.372612,-121.848366,CA,Mobile/Manufactured,89900,,95133,Alum Rock,62,51,For Sale,SANTA CLARA
21,647 Shadow Creek Dr,2.0,3.0,San Jose,"1,620 sqft","Dec 31, 1969",$0,37.27832,-121.8634,CA,Mobile/Manufactured,199000,,95136,South San Jose,48,48,For Sale,SANTA CLARA
22,781 Coffeewood Ct,2.0,3.0,San Jose,"1,780 sqft","Dec 31, 1969",$0,37.209827,-121.830925,CA,Single-Family Home,1018888,,95120,Almaden Valley,26,18,For Sale,SANTA CLARA
23,599 Heathertree Ln,2.0,2.0,San Jose,"1,230 sqft","Dec 31, 1969",$0,37.316116,-121.9875,CA,Townhome,625000,,95129,West San Jose,55,41,For Sale,SANTA CLARA
24,510 Saddle Brook Dr #38,2.0,2.0,San Jose,"1,060 sqft","Dec 31, 1969",$0,37.262543,-121.81818,CA,Mobile/Manufactured,74900,,95136,Edenvale,46,40,For Sale,SANTA CLARA
25,200 Ford Rd #199,2.0,2.0,San Jose,"1,417 sqft","Dec 31, 1969",$0,37.25288,-121.79327,CA,Mobile/Manufactured,119900,,95138,Edenvale,43,40,For Sale,SANTA CLARA
26,5115 Bickley Ct,2.0,3.0,San Jose,"1,486 sqft","Dec 31, 1969",$0,37.25917,-121.86432,CA,Single-Family Home,699000,,95136,Edenvale,65,53,For Sale,SANTA CLARA
27,1137 Cabot Pl,2.0,4.0,San Jose,"2,074 sqft","Dec 31, 1969",$0,37.30435,-122.020935,CA,Single-Family Home,1550000,,95129,West San Jose,49,38,For Sale,SANTA CLARA
28,4246 Monet Cir,2.0,3.0,San Jose,"1,442 sqft","Dec 31, 1969",$0,37.2719,-121.83728,CA,Single-Family Home,636000,,95136,Edenvale,68,49,For Sale,SANTA CLARA
29,1584 Monteval Ln,2.5,3.0,San Jose,"1,866 sqft","Dec 31, 1969",$0,37.225567,-121.9018,CA,Single-Family Home,899000,,95120,Almaden Valley,38,22,For Sale,SANTA CLARA
30,6117 Dunn Ave,3.0,5.0,San Jose,"25,096 sqft","Dec 31, 1969",$0,37.236755,-121.82237,CA,Single-Family Home,775000,,95123,Edenvale,34,32,For Sale,SANTA CLARA
31,1388 Cerro Verde,2.5,4.0,San Jose,"1,974 sqft","Dec 31, 1969",$0,37.22226,-121.88892,CA,Single-Family Home,939000,,95120,Almaden Valley,35,24,For Sale,SANTA CLARA
32,15390 Skyview Ter,2.0,3.0,San Jose,"2,800 sqft","Dec 31, 1969",$0,37.403244,-121.83432,CA,Single-Family Home,1449000,,95132,Berryessa,12,0,For Sale,SANTA CLARA
33,992 Morse St,3.0,4.0,San Jose,"2,032 sqft","Dec 31, 1969",$0,37.341133,-121.9263,CA,Single-Family Home,1149950,,95126,Downtown San Jose,58,49,For Sale,SANTA CLARA
34,5657 Holland Ln,1.5,3.0,San Jose,"1,358 sqft","Dec 31, 1969",$0,37.24148,-121.88929,CA,Single-Family Home,715900,,95118,Cambrian Park,75,33,For Sale,SANTA CLARA
35,1369 Echo Valley Dr,3.0,4.0,San Jose,"3,072 sqft","Dec 31, 1969",$0,37.207535,-121.86769,CA,Single-Family Home,1499000,,95120,Almaden Valley,26,0,For Sale,SANTA CLARA
36,1220 Greenbriar Ave,2.0,3.0,San Jose,"1,521 sqft","Dec 31, 1969",$0,37.303425,-121.945854,CA,Single-Family Home,799000,,95128,,66,42,For Sale,SANTA CLARA
37,704 Braxton Dr,2.0,3.0,San Jose,"1,353 sqft","Dec 31, 1969",$0,37.27508,-121.81035,CA,Single-Family Home,615000,,95111,Edenvale,20,33,For Sale,SANTA CLARA
38,5311 Canyon Hills Ln,4.0,5.0,San Jose,"3,410 sqft","Dec 31, 1969",$0,37.289352,-121.77762,CA,Single-Family Home,1949000,,95138,Evergreen,37,24,For Sale,SANTA CLARA
39,1175 Foxchase Dr,1.0,1.0,San Jose,"1,021 sqft","Dec 31, 1969",$0,37.2535,-121.873314,CA,Condo,349950,,95123,Cambrian Park,72,45,For Sale,SANTA CLARA
40,1060 S 3rd St #122,2.0,2.0,San Jose,,"Dec 31, 1969",$0,37.32155,-121.87657,CA,Apt/Condo/Twnhm,250000,,95112,Downtown San Jose,85,49,For Sale,SANTA CLARA
41,5672 Calmor Ct 2 Ct,1.0,2.0,San Jose,903 sqft,"Dec 31, 1969",$0,37.2465,-121.852,CA,Townhome,269000,,95123,Edenvale,62,36,For Sale,SANTA CLARA
42,157 Knightshaven Way,3.0,4.0,San Jose,"2,330 sqft","Dec 31, 1969",$0,37.2719,-121.81825,CA,Single-Family Home,699500,,95111,Edenvale,32,44,For Sale,SANTA CLARA
43,14737 Clayton Rd,3.0,5.0,San Jose,"3,450 sqft","Dec 31, 1969",$0,37.372787,-121.77552,CA,Single-Family Home,899000,,95127,Alum Rock,2,0,For Sale,SANTA CLARA
44,5701 Calmor Ave #1,1.0,2.0,San Jose,810 sqft,"Dec 31, 1969",$0,37.24667,-121.85322,CA,Condo,318500,,95123,Edenvale,62,36,For Sale,SANTA CLARA
45,1505 Shumaker Way,3.0,3.0,San Jose,"1,488 sqft","Dec 31, 1969",$0,37.389988,-121.87455,CA,Single-Family Home,674000,,95131,Berryessa,52,,For Sale,SANTA CLARA
46,1481 Kimberly Ct,3.0,4.0,San Jose,"1,713 sqft","Dec 31, 1969",$0,37.26777,-121.892166,CA,Single-Family Home,300000,,95118,Cambrian Park,40,30,For Sale,SANTA CLARA
47,502 Cinnamon Dr,3.0,4.0,San Jose,"1,461 sqft","Dec 31, 1969",$0,37.287556,-121.830826,CA,Condo,365000,,95111,South San Jose,48,50,For Sale,SANTA CLARA
48,1442 Montego Dr,2.5,4.0,San Jose,"2,219 sqft","Dec 31, 1969",$0,37.22024,-121.89078,CA,Single-Family Home,1000000,,95120,Almaden Valley,18,0,For Sale,SANTA CLARA
49,214 Wyandotte Dr,3.0,4.0,San Jose,"2,186 sqft","Dec 31, 1969",$0,37.244366,-121.81117,CA,Single-Family Home,739000,,95123,Edenvale,48,48,For Sale,SANTA CLARA
50,1349 Joplin Dr #4,1.0,2.0,San Jose,798 sqft,"Dec 31, 1969",$0,37.25858,-121.88699,CA,Condo,325000,,95118,Cambrian Park,63,30,For Sale,SANTA CLARA
51,270 Umbarger Rd #52,2.0,3.0,San Jose,"1,248 sqft","Dec 31, 1969",$0,37.29732,-121.84648,CA,Mobile/Manufactured,144900,,95111,South San Jose,42,43,For Sale,SANTA CLARA
52,6089 Montgomery Ct,1.0,2.0,San Jose,913 sqft,"Dec 31, 1969",$0,37.287632,-121.754684,CA,Condo,275000,,95135,Evergreen,18,0,For Sale,SANTA CLARA
53,1183 Yarwood Ct,2.0,2.0,San Jose,922 sqft,"Dec 31, 1969",$0,37.310795,-121.93968,CA,Condo,399950,,95128,Willow Glen,65,42,For Sale,SANTA CLARA
54,The Azalea - Residence One Plan,2.5,2.0,San Jose,"1,269 sqft","Dec 31, 1969",$0,37.355953,-121.89154,CA,Apt/Condo/Twnhm,505000,,95112,Downtown San Jose,66,51,For Sale,SANTA CLARA
55,1908 N Star Cir,3.0,3.0,San Jose,"1,441 sqft","Dec 31, 1969",$0,37.400764,-121.8854,CA,Single-Family Home,680000,,95131,Berryessa,58,,For Sale,SANTA CLARA
56,2388 Westgate Ave,4.0,5.0,San Jose,"3,242 sqft","Dec 31, 1969",$0,37.285213,-121.89298,CA,Single-Family Home,1795000,,95125,Willow Glen,52,37,For Sale,SANTA CLARA
57,1560 Gordy Dr,3.0,4.0,San Jose,"1,634 sqft","Dec 31, 1969",$0,37.386894,-121.8812,CA,Single-Family Home,748000,,95131,Berryessa,55,42,For Sale,SANTA CLARA
58,1145 Norval Way,3.0,4.0,San Jose,"2,728 sqft","Dec 31, 1969",$0,37.295803,-121.8938,CA,Single-Family Home,1485000,,95125,Willow Glen,46,38,For Sale,SANTA CLARA
59,778 Pronto Dr,2.0,4.0,San Jose,"1,683 sqft","Dec 31, 1969",$0,37.24592,-121.85576,CA,Single-Family Home,699950,,95123,Edenvale,65,37,For Sale,SANTA CLARA
60,961 Desmet Ln,3.0,3.0,San Jose,"1,949 sqft","Dec 31, 1969",$0,37.28045,-121.8768,CA,Single-Family Home,799950,,95125,South San Jose,52,38,For Sale,SANTA CLARA
61,3164 Kenland Dr,2.0,3.0,San Jose,"1,094 sqft","Dec 31, 1969",$0,37.28723,-121.84192,CA,Condo,375000,,95111,South San Jose,60,49,For Sale,SANTA CLARA
62,5450 Monterey Hwy,2.0,3.0,San Jose,"1,700 sqft","Dec 31, 1969",$0,37.258003,-121.80224,CA,Mobile/Manufactured,209000,,95111,Edenvale,46,40,For Sale,SANTA CLARA
63,1125 N 2nd St,3.0,4.0,San Jose,"2,102 sqft","Dec 31, 1969",$0,37.357647,-121.90551,CA,Single-Family Home,874988,,95112,Downtown San Jose,63,,For Sale,SANTA CLARA
64,3997 Will Rogers Dr,3.0,4.0,San Jose,"1,902 sqft","Dec 31, 1969",$0,37.307686,-121.971634,CA,Single-Family Home,868000,,95117,West San Jose,60,39,For Sale,SANTA CLARA
65,1475 Curtiss Ave,1.0,2.0,San Jose,"1,368 sqft","Dec 31, 1969",$0,37.30484,-121.89265,CA,Single-Family Home,899000,,95125,Willow Glen,72,49,For Sale,SANTA CLARA
66,6337 Holly Gillingham Ln,2.0,2.0,San Jose,859 sqft,"Dec 31, 1969",$0,37.240643,-121.79685,CA,Condo,410000,,95119,Edenvale,49,,For Sale,SANTA CLARA
67,14020 Diamond Ave,1.0,3.0,San Jose,946 sqft,"Dec 31, 1969",$0,37.353844,-121.81661,CA,Single-Family Home,379000,,95127,Alum Rock,65,,For Sale,SANTA CLARA
68,5387 Eagle Park Ct,6.0,5.0,San Jose,"4,827 sqft","Dec 31, 1969",$0,37.29042,-121.77046,CA,Single-Family Home,2000000,,95138,Evergreen,29,26,For Sale,SANTA CLARA
69,844 Riverside Dr,2.0,3.0,San Jose,"1,560 sqft","Dec 31, 1969",$0,37.31625,-121.90182,CA,Single-Family Home,994500,,95125,Willow Glen,62,55,For Sale,SANTA CLARA
70,1394 Beattie Ct,3.0,4.0,San Jose,"2,764 sqft","Dec 31, 1969",$0,37.233517,-121.886894,CA,Single-Family Home,1099000,,95120,Almaden Valley,45,30,For Sale,SANTA CLARA
71,The Tiger Lily -Residence Four Plan,2.5,3.0,San Jose,"1,823 sqft","Dec 31, 1969",$0,37.355953,-121.89154,CA,Apt/Condo/Twnhm,695000,,95112,Downtown San Jose,66,51,For Sale,SANTA CLARA
72,2067 Edgegate Dr,2.0,4.0,San Jose,"1,446 sqft","Dec 31, 1969",$0,37.322468,-121.817894,CA,Single-Family Home,630000,,95122,Evergreen,60,53,For Sale,SANTA CLARA
73,1106 Nevada Ave,4.5,5.0,San Jose,"3,450 sqft","Dec 31, 1969",$0,37.30111,-121.895386,CA,Single-Family Home,2290000,,95125,Willow Glen,77,40,For Sale,SANTA CLARA
74,380 Auburn Way #24,2.0,2.0,San Jose,"1,099 sqft","Dec 31, 1969",$0,37.31964,-121.98146,CA,Condo,399000,,95129,West San Jose,68,41,For Sale,SANTA CLARA
75,3623 Westview Dr,2.0,2.0,San Jose,"1,173 sqft","Dec 31, 1969",$0,37.34755,-121.78825,CA,Single-Family Home,150000,,95148,Alum Rock,15,0,For Sale,SANTA CLARA
76,2924 Rock River Ct,3.0,5.0,San Jose,"2,312 sqft","Dec 31, 1969",$0,37.297894,-121.83655,CA,Single-Family Home,599980,,95111,South San Jose,51,42,For Sale,SANTA CLARA
77,5770 Vitero Way,3.0,4.0,San Jose,"2,695 sqft","Dec 31, 1969",$0,37.27448,-121.753815,CA,Single-Family Home,1385000,,95138,Evergreen,0,0,For Sale,SANTA CLARA
78,461 Mill Pond Dr,2.0,2.0,San Jose,"1,536 sqft","Dec 31, 1969",$0,37.292625,-121.87033,CA,Mobile/Manufactured,149900,,95125,South San Jose,48,45,For Sale,SANTA CLARA
79,1804 Ronie Way,2.0,4.0,San Jose,"1,464 sqft","Dec 31, 1969",$0,37.256958,-121.91656,CA,Single-Family Home,749950,,95124,Cambrian Park,60,29,For Sale,SANTA CLARA
80,1055 N Capitol Ave #158,2.0,2.0,San Jose,832 sqft,"Dec 31, 1969",$0,37.38387,-121.85803,CA,Condo,320000,,95133,Alum Rock,46,50,For Sale,SANTA CLARA
81,3300 Narvaez Ave #63,2.0,2.0,San Jose,"1,368 sqft","Dec 31, 1969",$0,37.277355,-121.86129,CA,Mobile/Manufactured,82500,,95136,South San Jose,63,47,For Sale,SANTA CLARA
82,2151 Oakland Rd #249,2.0,3.0,San Jose,"1,725 sqft","Dec 31, 1969",$0,37.3963,-121.902336,CA,Mobile/Manufactured,199000,,95131,Berryessa,45,34,For Sale,SANTA CLARA
83,2151 Oakland Rd #434,2.0,3.0,San Jose,"1,680 sqft","Dec 31, 1969",$0,37.3963,-121.902336,CA,Mobile/Manufactured,189000,,95131,Berryessa,45,34,For Sale,SANTA CLARA
84,361 Blossom Hill Rd #2,1.0,2.0,San Jose,903 sqft,"Dec 31, 1969",$0,37.25164,-121.82632,CA,Condo,289950,,95123,Edenvale,58,47,For Sale,SANTA CLARA
85,7536 Morevern Cir,2.0,2.0,San Jose,"1,572 sqft","Dec 31, 1969",$0,37.289577,-121.74302,CA,Condo,538000,,95135,Evergreen,5,0,For Sale,SANTA CLARA
86,2855 Senter Rd #125,1.0,2.0,San Jose,520 sqft,"Dec 31, 1969",$0,37.29835,-121.84051,CA,Mobile/Manufactured,49900,,95111,South San Jose,52,42,For Sale,SANTA CLARA
87,3300 Narvaez Ave #193,2.0,2.0,San Jose,"1,080 sqft","Dec 31, 1969",$0,37.277355,-121.86129,CA,Mobile/Manufactured,79000,,95136,South San Jose,63,47,For Sale,SANTA CLARA
88,2177 Alum Rock Ave #311,3.0,3.0,San Jose,"1,216 sqft","Dec 31, 1969",$0,37.35815,-121.84593,CA,Condo,369000,,95116,Alum Rock,55,55,For Sale,SANTA CLARA
89,850 Georgetown Pl,3.0,3.0,San Jose,"1,859 sqft","Dec 31, 1969",$0,37.327187,-121.90574,CA,Condo,675000,,95126,Downtown San Jose,85,71,For Sale,SANTA CLARA
90,6133 Yeadon Way,3.0,3.0,San Jose,"1,497 sqft","Dec 31, 1969",$0,37.237667,-121.79764,CA,Single-Family Home,669000,,95119,Edenvale,49,50,For Sale,SANTA CLARA
91,3931 Lake Ridge Ln,3.0,5.0,San Jose,"2,705 sqft","Dec 31, 1969",$0,37.32029,-121.77602,CA,Single-Family Home,1199000,,95148,Evergreen,43,22,For Sale,SANTA CLARA
92,510 Saddle Brook Dr #6,2.0,3.0,San Jose,"1,664 sqft","Dec 31, 1969",$0,37.262543,-121.81818,CA,Mobile/Manufactured,199000,,95136,Edenvale,46,38,For Sale,SANTA CLARA
93,97 E Saint James St #27,2.0,2.0,San Jose,"1,203 sqft","Dec 31, 1969",$0,37.34008,-121.89107,CA,Condo,499000,,95112,Downtown San Jose,94,,For Sale,SANTA CLARA
94,846 Paseo Estero Dr,3.0,3.0,San Jose,"1,112 sqft","Dec 31, 1969",$0,37.31606,-121.84557,CA,Single-Family Home,449000,,95122,South San Jose,58,37,For Sale,SANTA CLARA
95,150 Senter Rd,,,San Jose,,"Dec 31, 1969",$0,37.277973,-121.83092,CA,Lot/Land,198000,,95111,Edenvale,58,51,For Sale,SANTA CLARA
96,4970 Cherry Ave #210,1.0,2.0,San Jose,864 sqft,"Dec 31, 1969",$0,37.25906,-121.87993,CA,Condo,395000,,95118,Cambrian Park,74,38,For Sale,SANTA CLARA
97,1314 Dahlia Loop,4.0,3.0,San Jose,"1,977 sqft","Dec 31, 1969",$0,37.34844,-121.927345,CA,Single-Family Home,799999,,95126,North San Jose,54,51,For Sale,SANTA CLARA
98,1155 Emory St,3.0,4.0,San Jose,"3,259 sqft","Dec 31, 1969",$0,37.33844,-121.92193,CA,Single-Family Home,1399000,,95126,Downtown San Jose,65,50,For Sale,SANTA CLARA
99,7121 Sheehan Ct,3.0,6.0,San Jose,"3,035 sqft","Dec 31, 1969",$0,37.205097,-121.84147,CA,Single-Family Home,1388000,,95120,Almaden Valley,28,18,For Sale,SANTA CLARA
100,2587 Sierra Grande Way,2.0,4.0,San Jose,"1,231 sqft","Dec 31, 1969",$0,37.35949,-121.83548,CA,Single-Family Home,431000,,95116,Alum Rock,55,58,For Sale,SANTA CLARA
101,6091 Calle De Amor,3.0,2.0,San Jose,"1,490 sqft","Dec 31, 1969",$0,37.228718,-121.90621,CA,Condo,639888,,95124,Cambrian Park,22,0,For Sale,SANTA CLARA
102,835 N 12th St,2.0,4.0,San Jose,"1,289 sqft","Dec 31, 1969",$0,37.357338,-121.8911,CA,Single-Family Home,560000,,95112,Downtown San Jose,68,49,For Sale,SANTA CLARA
103,55 Bellevue Ave,2.0,3.0,San Jose,"1,255 sqft","Dec 31, 1969",$0,37.312786,-121.87207,CA,Single-Family Home,469000,,95110,Downtown San Jose,62,51,For Sale,SANTA CLARA
104,2090 Paseo Del Oro,3.0,4.0,San Jose,"2,274 sqft","Dec 31, 1969",$0,37.263176,-121.93532,CA,Single-Family Home,1039000,,95124,Willow Glen,55,38,For Sale,SANTA CLARA
105,311 Branham Ln E,3.0,3.0,San Jose,"1,848 sqft","Dec 31, 1969",$0,37.269566,-121.81328,CA,Single-Family Home,563200,,95111,Edenvale,38,38,For Sale,SANTA CLARA
106,581 Sanders Ave,3.0,5.0,San Jose,"1,944 sqft","Dec 31, 1969",$0,37.349377,-121.84323,CA,Multi-Family Home,568000,,95116,Alum Rock,42,53,For Sale,SANTA CLARA
107,2874 Parkrow Ln,2.0,3.0,San Jose,"1,240 sqft","Dec 31, 1969",$0,37.41017,-121.86561,CA,Condo,438888,,95132,Berryessa,38,38,For Sale,SANTA CLARA
108,71 Cherry Blossom Dr,2.0,4.0,San Jose,"1,804 sqft","Dec 31, 1969",$0,37.258465,-121.81497,CA,Single-Family Home,680000,,95123,Edenvale,43,36,For Sale,SANTA CLARA
109,3278 Woody Ln,2.0,4.0,San Jose,"1,372 sqft","Dec 31, 1969",$0,37.413483,-121.86367,CA,Single-Family Home,609989,,95132,Berryessa,40,37,For Sale,SANTA CLARA
110,331 Cereza Pl,3.0,3.0,San Jose,"1,498 sqft","Dec 31, 1969",$0,37.349094,-121.89082,CA,Condo,680000,,95112,Downtown San Jose,74,57,For Sale,SANTA CLARA
111,1777 Daniel Maloney Dr,1.0,2.0,San Jose,"1,246 sqft","Dec 31, 1969",$0,37.305542,-121.807625,CA,Single-Family Home,449000,,95121,Evergreen,57,38,For Sale,SANTA CLARA
112,801 S Winchester Blvd #6206,1.0,1.0,San Jose,692 sqft,"Dec 31, 1969",$0,37.31295,-121.950775,CA,Condo,369800,,95128,West San Jose,69,42,For Sale,SANTA CLARA
113,2135 Little Orchard St #81,2.0,3.0,San Jose,"1,120 sqft","Dec 31, 1969",$0,37.30175,-121.87003,CA,Mobile/Manufactured,192000,,95125,South San Jose,54,46,For Sale,SANTA CLARA
114,166 S 24th St,1.0,1.0,San Jose,912 sqft,"Dec 31, 1969",$0,37.344482,-121.86485,CA,Single-Family Home,425000,,95116,Downtown San Jose,48,52,For Sale,SANTA CLARA
115,165 Blossom Hill Rd #336,2.0,3.0,San Jose,"1,800 sqft","Dec 31, 1969",$0,37.252827,-121.80925,CA,Mobile/Manufactured,208900,,95123,Edenvale,46,39,For Sale,SANTA CLARA
116,5496 Judith St #2,1.0,2.0,San Jose,903 sqft,"Dec 31, 1969",$0,37.25407,-121.825615,CA,Condo,259000,,95123,Edenvale,45,45,For Sale,SANTA CLARA
117,2837 Moss Hollow Dr,2.0,2.0,San Jose,"1,440 sqft","Dec 31, 1969",$0,37.313988,-121.80886,CA,Mobile/Manufactured,84900,,95121,Evergreen,62,38,For Sale,SANTA CLARA
118,10340 Anderson Rd,6.5,8.0,San Jose,"8,657 sqft","Dec 31, 1969",$0,37.37618,-121.805244,CA,Single-Family Home,2595000,,95127,Alum Rock,17,0,For Sale,SANTA CLARA
119,1060 S 3rd St #326,1.0,1.0,San Jose,550 sqft,"Dec 31, 1969",$0,37.32155,-121.87657,CA,Apt/Condo/Twnhm,245000,,95112,Downtown San Jose,78,48,For Sale,SANTA CLARA
120,532 Florentine Dr,2.0,3.0,San Jose,"1,440 sqft","Dec 31, 1969",$0,37.25538,-121.80586,CA,Mobile/Manufactured,109900,,95123,Edenvale,43,40,For Sale,SANTA CLARA
121,154 Chateau La Salle Dr,2.0,2.0,San Jose,"1,500 sqft","Dec 31, 1969",$0,37.29416,-121.85487,CA,Mobile/Manufactured,94900,,95111,South San Jose,31,42,For Sale,SANTA CLARA
122,2600 Senter Rd #29,2.0,3.0,San Jose,"1,200 sqft","Dec 31, 1969",$0,37.305214,-121.84149,CA,Mobile/Manufactured,129900,,95111,South San Jose,68,40,For Sale,SANTA CLARA
123,4073 La Mesa Ln,2.0,3.0,San Jose,"1,500 sqft","Dec 31, 1969",$0,37.257793,-121.911476,CA,Single-Family Home,699000,,95124,Cambrian Park,57,29,For Sale,SANTA CLARA
124,7330 Glenview Dr,4.5,5.0,San Jose,"5,136 sqft","Dec 31, 1969",$0,37.19917,-121.85262,CA,Single-Family Home,2999000,,95120,Almaden Valley,22,0,For Sale,SANTA CLARA
125,1450 Oakland Rd #193,2.0,3.0,San Jose,"1,296 sqft","Dec 31, 1969",$0,37.37489,-121.89258,CA,Mobile/Manufactured,99900,,95112,Berryessa,49,33,For Sale,SANTA CLARA
126,1479 Hicks Ave,4.5,5.0,San Jose,"3,626 sqft","Dec 31, 1969",$0,37.29886,-121.905815,CA,Single-Family Home,1935000,,95125,Willow Glen,63,40,For Sale,SANTA CLARA
127,247 Bieber Dr,3.0,7.0,San Jose,"2,128 sqft","Dec 31, 1969",$0,37.24868,-121.81449,CA,Single-Family Home,599000,,95123,Edenvale,37,40,For Sale,SANTA CLARA
128,8885 Wine Valley Cir,3.0,2.0,San Jose,"2,256 sqft","Dec 31, 1969",$0,37.28621,-121.74139,CA,Single-Family Home,868000,,95135,Evergreen,5,0,For Sale,SANTA CLARA
129,1990 Leigh Ann Pl,2.5,3.0,San Jose,"2,674 sqft","Dec 31, 1969",$0,37.28471,-121.92211,CA,Single-Family Home,1675000,,95125,Willow Glen,35,37,For Sale,SANTA CLARA
130,The Violet - Cottage Two Plan,3.5,3.0,San Jose,"1,717 sqft","Dec 31, 1969",$0,37.355953,-121.89154,CA,Single-Family Home,712365,,95112,Downtown San Jose,66,51,For Sale,SANTA CLARA
131,Santa Teresa Blvd,,,San Jose,,"Dec 31, 1969",$0,37.217373,-121.757965,CA,Lot/Land,529000,,95139,Coyote,14,31,For Sale,SANTA CLARA
132,Greenlee,,,San Jose,,"Dec 31, 1969",$0,37.31881,-121.964264,CA,Lot/Land,449000,,95128,West San Jose,63,43,For Sale,SANTA CLARA
133,451 Chateau La Salle Dr,2.0,2.0,San Jose,"1,536 sqft","Dec 31, 1969",$0,37.292812,-121.85628,CA,Mobile/Manufactured,189900,,95111,South San Jose,31,42,For Sale,SANTA CLARA
134,2614 Nightingale Dr,2.0,4.0,San Jose,"1,376 sqft","Dec 31, 1969",$0,37.285156,-121.874146,CA,Single-Family Home,679000,,95125,South San Jose,48,43,For Sale,SANTA CLARA
135,757 Swanswood Ct,2.0,3.0,San Jose,"1,780 sqft","Dec 31, 1969",$0,37.208965,-121.828316,CA,Single-Family Home,1028000,,95120,Almaden Valley,22,19,For Sale,SANTA CLARA
136,200 Ford Rd #115C,2.0,3.0,San Jose,"1,056 sqft","Dec 31, 1969",$0,37.25288,-121.79327,CA,Mobile/Manufactured,129900,,95138,Edenvale,43,40,For Sale,SANTA CLARA
137,1352 Park Pleasant Cir,2.0,4.0,San Jose,"1,457 sqft","Dec 31, 1969",$0,37.356068,-121.80874,CA,Single-Family Home,488000,,95127,Alum Rock,46,0,For Sale,SANTA CLARA
138,583 Shadow Gln,,,San Jose,"2,334 sqft","Dec 31, 1969",$0,37.316322,-121.979095,CA,Multi-Family Home,950000,,95129,West San Jose,72,40,For Sale,SANTA CLARA
139,Residence 4 - Plan 2258 Plan,3.5,4.0,San Jose,"2,258 sqft","Dec 31, 1969",$0,37.2438,-121.795,CA,Townhome,779880,,95123,Edenvale,49,51,For Sale,SANTA CLARA
140,1081 Wilmington Ave,2.0,4.0,San Jose,"1,507 sqft","Dec 31, 1969",$0,37.307446,-121.9928,CA,Single-Family Home,998000,,95129,West San Jose,54,36,For Sale,SANTA CLARA
141,3193 Vistamont Dr,2.0,3.0,San Jose,"1,262 sqft","Dec 31, 1969",$0,37.272762,-121.88591,CA,Single-Family Home,749900,,95118,Cambrian Park,45,32,For Sale,SANTA CLARA
142,1341 Montmorency Dr,2.0,3.0,San Jose,"1,264 sqft","Dec 31, 1969",$0,37.263264,-121.88561,CA,Single-Family Home,749000,,95118,Cambrian Park,48,30,For Sale,SANTA CLARA
143,1164 Mckay Dr,4.0,4.0,San Jose,"2,170 sqft","Dec 31, 1969",$0,37.38954,-121.89228,CA,Single-Family Home,728000,,95131,Berryessa,68,,For Sale,SANTA CLARA
144,698 Eden Ave,3.0,3.0,San Jose,"1,698 sqft","Dec 31, 1969",$0,37.31412,-121.95435,CA,Single-Family Home,765000,,95117,West San Jose,60,39,For Sale,SANTA CLARA
145,14378 Holden Ct,3.0,3.0,San Jose,"2,704 sqft","Dec 31, 1969",$0,37.251507,-121.9201,CA,Single-Family Home,1075000,,95124,Cambrian Park,29,30,For Sale,SANTA CLARA
146,3185 Quimby Rd,2.0,3.0,San Jose,"1,800 sqft","Dec 31, 1969",$0,37.32514,-121.786156,CA,Single-Family Home,749950,,95148,Evergreen,34,31,For Sale,SANTA CLARA
147,340 Ascente Cmns,3.0,3.0,San Jose,"1,937 sqft","Dec 31, 1969",$0,37.29584,-121.86813,CA,Single-Family Home,685000,,95125,South San Jose,42,48,For Sale,SANTA CLARA
148,6292 Mountford Dr,2.5,4.0,San Jose,"2,186 sqft","Dec 31, 1969",$0,37.230366,-121.81179,CA,Single-Family Home,679000,,95123,Edenvale,29,0,For Sale,SANTA CLARA
149,254 Truckee Ln,2.0,2.0,San Jose,875 sqft,"Dec 31, 1969",$0,37.274433,-121.84171,CA,Apt/Condo/Twnhm,359999,,95136,Edenvale,63,50,For Sale,SANTA CLARA
150,809 Auzerais Ave #319,1.0,1.0,San Jose,824 sqft,"Dec 31, 1969",$0,37.321342,-121.90435,CA,Condo,389888,,95126,Downtown San Jose,,,For Sale,SANTA CLARA
151,5618 Calmor Ave #2,1.0,2.0,San Jose,903 sqft,"Dec 31, 1969",$0,37.24893,-121.85123,CA,Apt/Condo/Twnhm,315000,,95123,Edenvale,57,43,For Sale,SANTA CLARA
152,6299 Blauer Ln,2.0,2.0,San Jose,"1,526 sqft","Dec 31, 1969",$0,37.285736,-121.7568,CA,Townhome,528000,,95135,Evergreen,23,0,For Sale,SANTA CLARA
153,910 Goose Lake Ct,2.0,2.0,San Jose,982 sqft,"Dec 31, 1969",$0,37.24277,-121.86694,CA,Condo,465000,,95123,Edenvale,51,46,For Sale,SANTA CLARA
154,435 N 2nd St #212,1.0,1.0,San Jose,789 sqft,"Dec 31, 1969",$0,37.343132,-121.89467,CA,Condo,379000,,95112,Downtown San Jose,,,For Sale,SANTA CLARA
155,95 Hobson St #3B,1.0,2.0,San Jose,907 sqft,"Dec 31, 1969",$0,37.3462,-121.90007,CA,Apt/Condo/Twnhm,360000,,95110,Downtown San Jose,72,,For Sale,SANTA CLARA
156,4608 Bucknall Rd,2.0,4.0,San Jose,"1,433 sqft","Dec 31, 1969",$0,37.283237,-121.983376,CA,Single-Family Home,829000,,95130,West San Jose,66,33,For Sale,SANTA CLARA
157,6514 Kingsland Ct,3.0,4.0,San Jose,"2,035 sqft","Dec 31, 1969",$0,37.21944,-121.88673,CA,Single-Family Home,998000,,95120,Almaden Valley,28,0,For Sale,SANTA CLARA
158,6109 Lean Ave,2.0,4.0,San Jose,"1,410 sqft","Dec 31, 1969",$0,37.236553,-121.81718,CA,Single-Family Home,549000,,95123,Edenvale,37,39,For Sale,SANTA CLARA
159,5863 Randleswood Ct,2.0,2.0,San Jose,978 sqft,"Dec 31, 1969",$0,37.306896,-122.00517,CA,Condo,788000,,95129,West San Jose,49,37,For Sale,SANTA CLARA
160,Residence 5 - Plan 2332 Plan,3.5,4.0,San Jose,"2,332 sqft","Dec 31, 1969",$0,37.2438,-121.795,CA,Townhome,779880,,95123,Edenvale,49,51,For Sale,SANTA CLARA
161,Residence 1 - Plan 1712 Plan,3.5,3.0,San Jose,"1,712 sqft","Dec 31, 1969",$0,37.2438,-121.795,CA,Townhome,685880,,95123,Edenvale,49,51,For Sale,SANTA CLARA
162,Residence 4 - Plan 2423 Plan,3.5,4.0,San Jose,"2,423 sqft","Dec 31, 1969",$0,37.2438,-121.795,CA,Multi-Family Home,779880,,95123,Edenvale,49,51,For Sale,SANTA CLARA
163,1105 Starbird Cir,,,San Jose,"2,210 sqft","Dec 31, 1969",$0,37.306366,-121.96576,CA,Multi-Family Home,788888,,95117,West San Jose,42,38,For Sale,SANTA CLARA
164,4198 Gion Ave,2.0,3.0,San Jose,"1,426 sqft","Dec 31, 1969",$0,37.373184,-121.82906,CA,Single-Family Home,499000,,95127,Alum Rock,49,44,For Sale,SANTA CLARA
165,1394 Hillcrest Dr,4.0,5.0,San Jose,"4,400 sqft","Dec 31, 1969",$0,37.20844,-121.86904,CA,Single-Family Home,1898000,,95120,Almaden Valley,23,0,For Sale,SANTA CLARA
166,1698 W Creek Dr,3.0,3.0,San Jose,"2,542 sqft","Dec 31, 1969",$0,37.28872,-121.9102,CA,Single-Family Home,1399950,,95125,Willow Glen,54,36,For Sale,SANTA CLARA
167,14815 Holden Way,2.0,4.0,San Jose,"2,032 sqft","Dec 31, 1969",$0,37.25346,-121.91971,CA,Single-Family Home,1185000,,95124,Cambrian Park,40,31,For Sale,SANTA CLARA
168,1010 Branham Ln,2.0,3.0,San Jose,"1,302 sqft","Dec 31, 1969",$0,37.264107,-121.8713,CA,Single-Family Home,588000,,95136,Edenvale,54,37,For Sale,SANTA CLARA
169,2362 Cherry Ave,1.0,3.0,San Jose,"1,161 sqft","Dec 31, 1969",$0,37.283596,-121.89577,CA,Single-Family Home,699888,,95125,Willow Glen,45,36,For Sale,SANTA CLARA
170,7002 San Felipe Rd,1.0,2.0,San Jose,"1,080 sqft","Dec 31, 1969",$0,37.27375,-121.74538,CA,Single-Family Home,619000,,95135,Evergreen,0,0,For Sale,SANTA CLARA
171,3812 Dove Hill Rd,,,San Jose,,"Dec 31, 1969",$0,37.292633,-121.80854,CA,Lot/Land,399800,,95121,Evergreen,25,28,For Sale,SANTA CLARA
172,3992 Forestwood Dr,2.0,4.0,San Jose,"1,647 sqft","Dec 31, 1969",$0,37.305027,-121.783165,CA,Single-Family Home,599000,,95121,Evergreen,40,29,For Sale,SANTA CLARA
173,153 Noyo Dr,2.0,3.0,San Jose,"1,203 sqft","Dec 31, 1969",$0,37.246445,-121.80852,CA,Single-Family Home,595000,,95123,Edenvale,48,49,For Sale,SANTA CLARA
174,841 Foothill Dr,3.0,3.0,San Jose,"1,903 sqft","Dec 31, 1969",$0,37.237328,-121.85367,CA,Single-Family Home,815000,,95123,Edenvale,43,0,For Sale,SANTA CLARA
175,6128 Montgomery Ct,2.0,2.0,San Jose,"1,307 sqft","Dec 31, 1969",$0,37.287434,-121.755936,CA,Condo,449000,,95135,Evergreen,20,0,For Sale,SANTA CLARA
176,1764 Cheney Dr,2.0,4.0,San Jose,"1,840 sqft","Dec 31, 1969",$0,37.305344,-121.92446,CA,Single-Family Home,850000,,95128,Willow Glen,58,47,For Sale,SANTA CLARA
177,The Carnation - Residence Two Plan,2.5,2.0,San Jose,"1,241 sqft","Dec 31, 1969",$0,37.355953,-121.89154,CA,Apt/Condo/Twnhm,509000,,95112,Downtown San Jose,66,51,For Sale,SANTA CLARA
178,642 S 7th St,,,San Jose,"12,325 sqft","Dec 31, 1969",$0,37.32965,-121.87668,CA,Multi-Family Home,3250000,,95112,Downtown San Jose,72,,For Sale,SANTA CLARA
179,5939 Porto Alegre Dr,3.0,5.0,San Jose,"3,076 sqft","Dec 31, 1969",$0,37.238903,-121.8751,CA,Single-Family Home,1295000,,95120,Edenvale,43,,For Sale,SANTA CLARA
180,1916 Scepter Ct,2.0,3.0,San Jose,,"Dec 31, 1969",$0,37.415424,-121.8528,CA,Apt/Condo/Twnhm,467000,,95132,Berryessa,25,28,For Sale,SANTA CLARA
181,3435 Neves Way,2.0,3.0,San Jose,"1,668 sqft","Dec 31, 1969",$0,37.37265,-121.81762,CA,Single-Family Home,649000,,95127,Alum Rock,32,31,For Sale,SANTA CLARA
182,1455 Lupton Ave,3.5,4.0,San Jose,"3,364 sqft","Dec 31, 1969",$0,37.299927,-121.90255,CA,Single-Family Home,2649999,,95125,Willow Glen,66,41,For Sale,SANTA CLARA
183,1055 N Capitol Ave #59,1.0,1.0,San Jose,632 sqft,"Dec 31, 1969",$0,37.38387,-121.85803,CA,Apt/Condo/Twnhm,268000,,95133,Alum Rock,46,50,For Sale,SANTA CLARA
184,1453 Sunbeam Cir,2.0,2.0,San Jose,728 sqft,"Dec 31, 1969",$0,37.332634,-121.84831,CA,Mobile/Manufactured,192000,,95122,South San Jose,40,47,For Sale,SANTA CLARA
185,7432 Phinney Way,3.0,5.0,San Jose,"2,347 sqft","Dec 31, 1969",$0,37.221027,-121.76306,CA,Single-Family Home,799000,,95139,Edenvale,28,31,For Sale,SANTA CLARA
186,The Dahlia - Cottage One Plan,2.5,2.0,San Jose,"1,615 sqft","Dec 31, 1969",$0,37.355953,-121.89154,CA,Single-Family Home,663325,,95112,Downtown San Jose,66,51,For Sale,SANTA CLARA
187,1740 E William St,,,San Jose,"1,464 sqft","Dec 31, 1969",$0,37.348625,-121.85014,CA,Multi-Family Home,562000,,95116,Alum Rock,,,For Sale,SANTA CLARA
188,Residence 1 - Plan 1793 Plan,3.5,3.0,San Jose,"1,793 sqft","Dec 31, 1969",$0,37.2438,-121.795,CA,Townhome,689880,,95123,Edenvale,49,51,For Sale,SANTA CLARA
189,Residence 2 - Plan 1901 Plan,3.5,3.0,San Jose,"1,901 sqft","Dec 31, 1969",$0,37.2438,-121.795,CA,Townhome,721880,,95123,Edenvale,49,51,For Sale,SANTA CLARA
190,Residence 3 - Plan 2028 Plan,3.5,3.0,San Jose,"2,028 sqft","Dec 31, 1969",$0,37.2438,-121.795,CA,Townhome,721880,,95123,Edenvale,49,51,For Sale,SANTA CLARA
191,Residence 2 - Plan 2093 Plan,3.5,3.0,San Jose,"2,093 sqft","Dec 31, 1969",$0,37.2438,-121.795,CA,Townhome,765880,,95123,Edenvale,49,51,For Sale,SANTA CLARA
192,Residence 3 - Plan 2205 Plan,3.5,4.0,San Jose,"2,205 sqft","Dec 31, 1969",$0,37.2438,-121.795,CA,Townhome,779880,,95123,Edenvale,49,51,For Sale,SANTA CLARA
193,750 Meridian Way,3.0,2.0,San Jose,"11,805 sqft","Dec 31, 1969",$0,37.31363,-121.91327,CA,Apt/Condo/Twnhm,4200000,,95126,Downtown San Jose,58,49,For Sale,SANTA CLARA
194,5931 Wildflower Dr,4.0,5.0,San Jose,"2,952 sqft","Dec 31, 1969",$0,37.240425,-121.8129,CA,Single-Family Home,949888,,95123,Edenvale,42,46,For Sale,SANTA CLARA
195,1354 Camino Robles Way,3.0,5.0,San Jose,"2,449 sqft","Dec 31, 1969",$0,37.222847,-121.888535,CA,Single-Family Home,1099000,,95120,Almaden Valley,35,24,For Sale,SANTA CLARA
196,4577 Doyle Rd,2.0,3.0,San Jose,"1,392 sqft","Dec 31, 1969",$0,37.30332,-121.982765,CA,Single-Family Home,838000,,95129,West San Jose,71,39,For Sale,SANTA CLARA
197,7084 Via Pacifica,2.0,3.0,San Jose,"1,228 sqft","Dec 31, 1969",$0,37.232014,-121.766045,CA,Single-Family Home,612216,,95139,Edenvale,55,32,For Sale,SANTA CLARA
198,6541 Deer Hollow Dr,3.5,4.0,San Jose,"3,118 sqft","Dec 31, 1969",$0,37.227352,-121.854744,CA,Single-Family Home,1599000,,95120,Almaden Valley,35,0,For Sale,SANTA CLARA
199,5337 Larchwood Dr,2.0,4.0,San Jose,"1,622 sqft","Dec 31, 1969",$0,37.249355,-121.886185,CA,Single-Family Home,799950,,95118,Cambrian Park,72,37,For Sale,SANTA CLARA
200,989 Michigan Ave,2.0,4.0,San Jose,"2,231 sqft","Dec 31, 1969",$0,37.304375,-121.89449,CA,Single-Family Home,1199000,,95125,Willow Glen,,,For Sale,SANTA CLARA
201,Residence 2 - Plan 2131 Plan,2.5,4.0,San Jose,"2,131 sqft","Dec 31, 1969",$0,37.2438,-121.795,CA,Single-Family Home,886880,,95123,Edenvale,49,51,For Sale,SANTA CLARA
202,Residence 3 - Plan 2165 Plan,2.5,4.0,San Jose,"2,165 sqft","Dec 31, 1969",$0,37.2438,-121.795,CA,Single-Family Home,889880,,95123,Edenvale,49,51,For Sale,SANTA CLARA
203,Residence 4 - Plan 2555 Plan,3.5,5.0,San Jose,"2,555 sqft","Dec 31, 1969",$0,37.2438,-121.795,CA,Single-Family Home,939880,,95123,Edenvale,49,51,For Sale,SANTA CLARA
204,Residence 1 - Plan 1635 Plan,2.5,3.0,San Jose,"1,635 sqft","Dec 31, 1969",$0,37.2438,-121.795,CA,Single-Family Home,799880,,95123,Edenvale,49,51,For Sale,SANTA CLARA
205,Residence 2 - Plan 1804 Plan,2.5,3.0,San Jose,"1,804 sqft","Dec 31, 1969",$0,37.2438,-121.795,CA,Single-Family Home,845880,,95123,Edenvale,49,51,For Sale,SANTA CLARA
206,Residence 3 - Plan 1906 Plan,2.5,3.0,San Jose,"1,906 sqft","Dec 31, 1969",$0,37.2438,-121.795,CA,Single-Family Home,865880,,95123,Edenvale,49,51,For Sale,SANTA CLARA
207,Residence 4 - Plan 2375 Plan,3.0,4.0,San Jose,"2,375 sqft","Dec 31, 1969",$0,37.2438,-121.795,CA,Single-Family Home,930880,,95123,Edenvale,49,51,For Sale,SANTA CLARA
208,Tbd Borton Ct,2.5,3.0,San Jose,"1,641 sqft","Dec 31, 1969",$0,37.237502,-121.805195,CA,Single-Family Home,799880,,95123,,,,For Sale,SANTA CLARA
209,Tbd Borton Ct,3.0,4.0,San Jose,"2,375 sqft","Dec 31, 1969",$0,37.237502,-121.805195,CA,Single-Family Home,930880,,95123,,,,For Sale,SANTA CLARA
210,Tbd Borton Ct,3.0,4.0,San Jose,"2,375 sqft","Dec 31, 1969",$0,37.237502,-121.805195,CA,Single-Family Home,930880,,95123,,,,For Sale,SANTA CLARA
211,Residence 1 - Plan 2030 Plan,2.5,4.0,San Jose,"2,030 sqft","Dec 31, 1969",$0,37.2438,-121.795,CA,Single-Family Home,865880,,95123,Edenvale,49,51,For Sale,SANTA CLARA
212,Tbd Blue Opal Dr,3.5,5.0,San Jose,"2,555 sqft","Dec 31, 1969",$0,37.336126,-121.781442,CA,Single-Family Home,939880,,95123,,,,For Sale,SANTA CLARA
213,Tbd Blue Opal Dr,2.5,4.0,San Jose,"2,165 sqft","Dec 31, 1969",$0,37.336126,-121.781442,CA,Single-Family Home,889880,,95123,,,,For Sale,SANTA CLARA
214,Tbd Blue Opal Dr,2.5,4.0,San Jose,"2,165 sqft","Dec 31, 1969",$0,37.336126,-121.781442,CA,Single-Family Home,886880,,95123,,,,For Sale,SANTA CLARA
215,Tbd Blue Opal Dr,2.5,4.0,San Jose,"2,039 sqft","Dec 31, 1969",$0,37.336126,-121.781442,CA,Single-Family Home,865880,,95123,,,,For Sale,SANTA CLARA
216,Tbd Blue Opal Dr,3.5,5.0,San Jose,"2,563 sqft","Dec 31, 1969",$0,37.336126,-121.781442,CA,Single-Family Home,939880,,95123,,,,For Sale,SANTA CLARA
217,2350 Peachtree Ln,1.0,3.0,San Jose,"1,040 sqft","Dec 31, 1969",$0,37.3339,-121.94558,CA,Single-Family Home,679000,,95128,Downtown San Jose,52,41,For Sale,SANTA CLARA
218,900 Knollfield Way,2.0,3.0,San Jose,"1,372 sqft","Dec 31, 1969",$0,37.26659,-121.86852,CA,Single-Family Home,699000,,95136,Edenvale,,,For Sale,SANTA CLARA
219,2108 Carobwood Ln,3.0,5.0,San Jose,"1,772 sqft","Dec 31, 1969",$0,37.41692,-121.86441,CA,Single-Family Home,679000,,95132,Berryessa,40,38,For Sale,SANTA CLARA
220,1538 Bouchard Dr,3.0,4.0,San Jose,"2,286 sqft","Dec 31, 1969",$0,37.238,-121.89735,CA,Single-Family Home,1199000,,95118,Cambrian Park,,,For Sale,SANTA CLARA
221,922 Alegre Pl,2.5,2.0,San Jose,,"Dec 31, 1969",$0,37.34714,-121.92579,CA,Townhome,600000,,95126,North San Jose,60,49,For Sale,SANTA CLARA
222,1479 S White Rd,2.0,3.0,San Jose,"1,765 sqft","Dec 31, 1969",$0,37.349255,-121.81358,CA,Single-Family Home,680000,,95127,Alum Rock,43,39,For Sale,SANTA CLARA
223,380 Auburn Way #24,6.0,2.0,San Jose,,"Dec 31, 1969",$0,37.31965,-121.98141,CA,Apt/Condo/Twnhm,399000,,95129,West San Jose,68,41,For Sale,SANTA CLARA
224,7311 Glenview Dr,,,San Jose,,"Dec 31, 1969",$0,37.199615,-121.853455,CA,Lot/Land,1295000,,95120,Almaden Valley,20,14,For Sale,SANTA CLARA
225,38 N Almaden Blvd #1311,2.0,2.0,San Jose,"1,313 sqft","Dec 31, 1969",$0,37.335083,-121.89548,CA,Townhome,729888,,95110,Downtown San Jose,94,,For Sale,SANTA CLARA
226,21690 Shillingsburg Ave,,,San Jose,,"Dec 31, 1969",$0,37.195286,-121.79758,CA,Lot/Land,2999000,,95120,Almaden Valley,,0,For Sale,SANTA CLARA
227,194 S 24th St,,,San Jose,,"Dec 31, 1969",$0,37.344353,-121.86474,CA,Income/Investment,575000,,95116,Downtown San Jose,48,52,For Sale,SANTA CLARA
228,6518 Bose Ln,2.0,4.0,San Jose,,"Dec 31, 1969",$0,37.220215,-121.867004,CA,Single-Family Home,1099000,,95120,Almaden Valley,71,27,For Sale,SANTA CLARA
229,9038 Village View Loop,2.0,2.0,San Jose,"2,025 sqft","Dec 31, 1969",$0,37.29052,-121.73628,CA,Townhome,998000,,95135,Evergreen,2,0,For Sale,SANTA CLARA
230,1358 Oakland Rd #83,2.0,3.0,San Jose,"1,512 sqft","Dec 31, 1969",$0,37.372757,-121.89138,CA,Mobile/Manufactured,137900,,95112,Berryessa,52,34,For Sale,SANTA CLARA
231,55 Umbarger Rd #103,2.0,3.0,San Jose,"1,298 sqft","Dec 31, 1969",$0,37.29575,-121.8512,CA,Mobile/Manufactured,169000,,95111,South San Jose,35,42,For Sale,SANTA CLARA
232,300 Chateau La Salle Dr,2.0,3.0,San Jose,"1,680 sqft","Dec 31, 1969",$0,37.292328,-121.8592,CA,Mobile/Manufactured,249000,,95111,South San Jose,28,43,For Sale,SANTA CLARA
233,2177 Summerton Dr,1.0,1.0,San Jose,746 sqft,"Dec 31, 1969",$0,37.318474,-121.84208,CA,Apt/Condo/Twnhm,195000,,95122,South San Jose,43,40,For Sale,SANTA CLARA
234,5450 Monterey Hwy #6,2.0,2.0,San Jose,"1,440 sqft","Dec 31, 1969",$0,37.258003,-121.80224,CA,Mobile/Manufactured,84900,,95111,Edenvale,46,41,For Sale,SANTA CLARA
235,2052 Gold St #3,2.0,3.0,San Jose,"1,830 sqft","Dec 31, 1969",$0,37.42125,-121.9763,CA,Mobile/Manufactured,239000,,95002,Alviso,28,20,For Sale,SANTA CLARA
236,557 Groth Pl,1.5,3.0,San Jose,"1,131 sqft","Dec 31, 1969",$0,37.291702,-121.83199,CA,Townhome,318888,,95111,South San Jose,49,47,For Sale,SANTA CLARA
237,200 Ford Rd #39,2.0,4.0,San Jose,"1,620 sqft","Dec 31, 1969",$0,37.25288,-121.79327,CA,Mobile/Manufactured,127900,,95138,Edenvale,45,40,For Sale,SANTA CLARA
238,4320 Bella Madeira Ln,,,San Jose,,"Dec 31, 1969",$0,37.352764,-121.770966,CA,Lot/Land,269000,,95127,Alum Rock,2,0,For Sale,SANTA CLARA
239,576 Giuffrida Ave #2,3.0,3.0,San Jose,"1,320 sqft","Dec 31, 1969",$0,37.25249,-121.83506,CA,Condo,419900,,95123,Edenvale,46,47,For Sale,SANTA CLARA
240,2151 Oakland Rd #211,2.0,3.0,San Jose,"1,248 sqft","Dec 31, 1969",$0,37.3963,-121.902336,CA,Mobile/Manufactured,119900,,95131,Berryessa,45,34,For Sale,SANTA CLARA
241,6184 Cahalan Ave,3.0,3.0,San Jose,"2,043 sqft","Dec 31, 1969",$0,37.236164,-121.849884,CA,Single-Family Home,759000,,95123,Edenvale,40,0,For Sale,SANTA CLARA
242,200 Ford Rd #158,2.0,2.0,San Jose,"1,056 sqft","Dec 31, 1969",$0,37.25288,-121.79327,CA,Mobile/Manufactured,89900,,95138,Edenvale,45,40,For Sale,SANTA CLARA
243,144 Spyglass Hill Rd,2.0,3.0,San Jose,"1,703 sqft","Dec 31, 1969",$0,37.390648,-121.806305,CA,Apt/Condo/Twnhm,525000,,95127,Alum Rock,6,0,For Sale,SANTA CLARA
244,5873 Indian Ave,3.0,5.0,San Jose,"1,893 sqft","Dec 31, 1969",$0,37.241894,-121.843666,CA,Single-Family Home,699000,,95123,Edenvale,43,0,For Sale,SANTA CLARA
245,200 Ford Rd #45,2.0,3.0,San Jose,"1,560 sqft","Dec 31, 1969",$0,37.25288,-121.79327,CA,Mobile/Manufactured,109900,,95138,Edenvale,45,40,For Sale,SANTA CLARA
246,904 Moss Dr,2.0,3.0,San Jose,"1,096 sqft","Dec 31, 1969",$0,37.344933,-121.8419,CA,Single-Family Home,487000,,95116,Alum Rock,43,50,For Sale,SANTA CLARA
247,314 Chateau La Salle Dr,2.0,3.0,San Jose,"1,620 sqft","Dec 31, 1969",$0,37.292175,-121.85937,CA,Mobile/Manufactured,229900,,95111,South San Jose,34,44,For Sale,SANTA CLARA
248,1875 Arroyo Seco Dr,3.5,4.0,San Jose,"4,262 sqft","Dec 31, 1969",$0,37.286102,-121.919914,CA,Single-Family Home,1799000,,95125,Willow Glen,37,37,For Sale,SANTA CLARA
249,21530 Almaden Rd,1.0,2.0,San Jose,"1,392 sqft","Dec 31, 1969",$0,37.176746,-121.82136,CA,Single-Family Home,588800,,95120,Almaden Valley,9,0,For Sale,SANTA CLARA
250,690 N 21st St,2.0,2.0,San Jose,882 sqft,"Dec 31, 1969",$0,37.358234,-121.879684,CA,Single-Family Home,529000,,95112,Downtown San Jose,65,41,For Sale,SANTA CLARA
251,Kincaid Rd,,,San Jose,,"Dec 31, 1969",$0,37.337838,-121.673022,CA,Lot/Land,300000,,95140,,,,For Sale,SANTA CLARA
252,951 Palm St,1.0,2.0,San Jose,912 sqft,"Dec 31, 1969",$0,37.318153,-121.8861,CA,Single-Family Home,465000,,95110,Downtown San Jose,71,60,For Sale,SANTA CLARA
253,2554 Heron Ct,3.0,2.0,San Jose,"1,270 sqft","Dec 31, 1969",$0,37.3821,-121.858536,CA,Condo,472000,,95133,Alum Rock,45,50,For Sale,SANTA CLARA
254,311 Branham Ln,3.0,3.0,San Jose,"1,848 sqft","Dec 31, 1969",$0,37.26613,-121.84208,CA,Single-Family Home,563200,,95136,Edenvale,43,40,For Sale,SANTA CLARA
255,22090 Mckean Rd,,,San Jose,,"Dec 31, 1969",$0,37.191177,-121.79517,CA,Lot/Land,519000,,95120,Almaden Valley,0,0,For Sale,SANTA CLARA
256,3025 Florence Ave,3.0,4.0,San Jose,"1,543 sqft","Dec 31, 1969",$0,37.362537,-121.82754,CA,Single-Family Home,445000,,95127,Alum Rock,63,54,For Sale,SANTA CLARA
257,20545 Whispering Oaks Dr,5.5,4.0,San Jose,"6,359 sqft","Dec 31, 1969",$0,37.194874,-121.81781,CA,Single-Family Home,3498888,,95120,Almaden Valley,2,13,For Sale,SANTA CLARA
258,3669 Lightfare Ct,2.0,5.0,San Jose,"2,279 sqft","Dec 31, 1969",$0,37.297775,-121.81467,CA,Single-Family Home,649000,,95121,South San Jose,46,38,For Sale,SANTA CLARA
259,2273 Golden Crest Cmns,3.0,3.0,San Jose,,"Dec 31, 1969",$0,37.29765,-121.86733,CA,Single-Family Home,599000,,95125,South San Jose,48,48,For Sale,SANTA CLARA
260,2761 Gilham Way,2.5,4.0,San Jose,"2,235 sqft","Dec 31, 1969",$0,37.326458,-121.80068,CA,Single-Family Home,790000,,95148,Evergreen,46,51,For Sale,SANTA CLARA
261,7232 Glenview Dr,5.5,5.0,San Jose,"5,444 sqft","Dec 31, 1969",$0,37.198044,-121.856125,CA,Single-Family Home,2798000,,95120,Almaden Valley,14,0,For Sale,SANTA CLARA
262,10640 Miguelita Rd,3.0,5.0,San Jose,"3,281 sqft","Dec 31, 1969",$0,37.383457,-121.810356,CA,Single-Family Home,965888,,95127,Alum Rock,12,0,For Sale,SANTA CLARA
263,1364 Tiffany Canyon Ct,,,San Jose,,"Dec 31, 1969",$0,37.19407,-121.84828,CA,Lot/Land,975000,,95120,Almaden Valley,23,0,For Sale,SANTA CLARA
264,651 Hermitage Ln,2.0,2.0,San Jose,960 sqft,"Dec 31, 1969",$0,37.416225,-121.943954,CA,Mobile/Manufactured,89900,,95134,North San Jose,32,49,For Sale,SANTA CLARA
265,15287 Penitencia Creek Rd,2.0,3.0,San Jose,"2,030 sqft","Dec 31, 1969",$0,37.395657,-121.82662,CA,Single-Family Home,1338880,,95132,Berryessa,22,17,For Sale,SANTA CLARA
266,2867 Richland Ave,5.0,4.0,San Jose,"3,700 sqft","Dec 31, 1969",$0,37.279293,-121.885284,CA,Single-Family Home,1648000,,95125,Willow Glen,54,34,For Sale,SANTA CLARA
267,21289 Bertram Rd,,,San Jose,,"Dec 31, 1969",$0,37.175648,-121.81718,CA,Lot/Land,588000,,95120,Calero,6,0,For Sale,SANTA CLARA
268,1907 Concourse Dr,,,San Jose,"2,281 sqft","Dec 31, 1969",$0,37.39774,-121.89617,CA,Income/Investment,649000,,95131,Berryessa,55,40,For Sale,SANTA CLARA
269,Mckean Rd,,,San Jose,,"Dec 31, 1969",$0,37.19078,-121.79897,CA,Lot/Land,1190000,,95120,Almaden Valley,0,0,For Sale,SANTA CLARA
270,2423 Sequester Ct,1.0,1.0,San Jose,778 sqft,"Dec 31, 1969",$0,37.385082,-121.86077,CA,Apt/Condo/Twnhm,315000,,95133,Alum Rock,43,50,For Sale,SANTA CLARA
271,3167 Senter Rd,,,San Jose,"3,640 sqft","Dec 31, 1969",$0,37.291607,-121.833725,CA,Income/Investment,2890000,,95111,South San Jose,58,46,For Sale,SANTA CLARA
272,Kincaid Rd,,,San Jose,,"Dec 31, 1969",$0,37.337838,-121.673022,CA,Lot/Land,300000,,95140,,,,For Sale,SANTA CLARA
273,5492 Tyhurst Ww 2,1.0,2.0,San Jose,903 sqft,"Dec 31, 1969",$0,37.339386,-121.89496,CA,Apt/Condo/Twnhm,290000,,95123,Downtown San Jose,43,44,For Sale,SANTA CLARA
274,159 Gramercy Pl,,,San Jose,"3,254 sqft","Dec 31, 1969",$0,37.364014,-121.84236,CA,Single-Family Home,799000,,95116,Alum Rock,57,56,For Sale,SANTA CLARA
275,180 Goularte Way,3.0,3.0,San Jose,"1,275 sqft","Dec 31, 1969",$0,37.354412,-121.844406,CA,Single-Family Home,295888,,95116,Alum Rock,51,51,For Sale,SANTA CLARA
276,587 Hermitage Dr,3.0,3.0,San Jose,"1,440 sqft","Dec 31, 1969",$0,37.41716,-121.94301,CA,Mobile/Manufactured,58000,,95134,North San Jose,28,,For Sale,SANTA CLARA
277,350 N 2nd St #345,2.0,2.0,San Jose,"1,238 sqft","Dec 31, 1969",$0,37.342552,-121.89359,CA,Condo,425000,,95112,Downtown San Jose,92,,For Sale,SANTA CLARA
278,30 E Julian St #109,2.0,2.0,San Jose,"1,271 sqft","Dec 31, 1969",$0,37.34057,-121.8931,CA,Condo,419000,,95112,Downtown San Jose,86,,For Sale,SANTA CLARA
279,3041 Franela Dr,2.0,3.0,San Jose,"1,420 sqft","Dec 31, 1969",$0,37.26949,-121.90848,CA,Single-Family Home,675000,,95124,Willow Glen,49,31,For Sale,SANTA CLARA
280,1402 Rhine Ln,2.0,3.0,San Jose,"1,728 sqft","Dec 31, 1969",$0,37.24088,-121.88948,CA,Single-Family Home,814950,,95118,Cambrian Park,68,33,For Sale,SANTA CLARA
281,4927 Bel Canto Dr,2.0,4.0,San Jose,"1,489 sqft","Dec 31, 1969",$0,37.2474,-121.93372,CA,Single-Family Home,899000,,95124,Cambrian Park,38,34,For Sale,SANTA CLARA
282,3175 Shofner Pl,2.5,4.0,San Jose,"1,392 sqft","Dec 31, 1969",$0,37.29061,-121.83352,CA,Townhome,380000,,95111,South San Jose,55,49,For Sale,SANTA CLARA
283,1606 Lorient Ter,2.0,2.0,San Jose,"1,292 sqft","Dec 31, 1969",$0,37.366486,-121.87154,CA,Townhome,510000,,95133,Alum Rock,45,37,For Sale,SANTA CLARA
284,1137 Silver Hill Dr,3.0,3.0,San Jose,"1,739 sqft","Dec 31, 1969",$0,37.208065,-121.846794,CA,Townhome,809000,,95120,Almaden Valley,32,22,For Sale,SANTA CLARA
285,3388 Landess Ave #D,2.0,3.0,San Jose,"1,130 sqft","Dec 31, 1969",$0,37.42139,-121.8617,CA,Townhome,385000,,95132,Berryessa,26,34,For Sale,SANTA CLARA
286,5541 Don Scala Ct,1.5,2.0,San Jose,950 sqft,"Dec 31, 1969",$0,37.252926,-121.8384,CA,Townhome,304900,,95123,Edenvale,40,47,For Sale,SANTA CLARA
287,1527 Musetta Ct,2.0,3.0,San Jose,"1,216 sqft","Dec 31, 1969",$0,37.31264,-121.823524,CA,Townhome,335000,,95121,Evergreen,49,40,For Sale,SANTA CLARA
288,1727 Merrill Loop,2.0,3.0,San Jose,"1,221 sqft","Dec 31, 1969",$0,37.242767,-121.905334,CA,Single-Family Home,699000,,95124,Cambrian Park,63,28,For Sale,SANTA CLARA
289,4855 Pine Forest Pl,2.0,2.0,San Jose,"1,026 sqft","Dec 31, 1969",$0,37.2513,-121.90479,CA,Apt/Condo/Twnhm,429000,,95118,Cambrian Park,49,27,For Sale,SANTA CLARA
290,2662 Somerset Park Cir,1.0,1.0,San Jose,677 sqft,"Dec 31, 1969",$0,37.39484,-121.86183,CA,Condo,288888,,95132,Berryessa,45,48,For Sale,SANTA CLARA
291,785 River View Dr,3.0,6.0,San Jose,"2,364 sqft","Dec 31, 1969",$0,37.276653,-121.80933,CA,Single-Family Home,720000,,95111,Edenvale,26,29,For Sale,SANTA CLARA
292,957 Alta Mar Ter,3.0,2.0,San Jose,"1,365 sqft","Dec 31, 1969",$0,37.347446,-121.92698,CA,Apt/Condo/Twnhm,568000,,95126,North San Jose,57,50,For Sale,SANTA CLARA
293,1730 Silverwood Dr,3.0,3.0,San Jose,"7,000 sqft","Dec 31, 1969",$0,37.262173,-121.91012,CA,Single-Family Home,775000,,95124,Cambrian Park,57,30,For Sale,SANTA CLARA
294,1310 Araujo St,3.0,3.0,San Jose,"1,662 sqft","Dec 31, 1969",$0,37.378166,-121.880844,CA,Single-Family Home,688000,,95131,Berryessa,38,38,For Sale,SANTA CLARA
295,1724 Parkview Green Cir,2.0,2.0,San Jose,"1,092 sqft","Dec 31, 1969",$0,37.37915,-121.88324,CA,Apt/Condo/Twnhm,515000,,95131,Berryessa,35,38,For Sale,SANTA CLARA
296,1448 Burrell Ct,2.0,2.0,San Jose,"1,437 sqft","Dec 31, 1969",$0,37.336754,-121.92861,CA,Single-Family Home,849000,,95126,Downtown San Jose,69,46,For Sale,SANTA CLARA
297,2494 Lone Oak Dr,2.0,4.0,San Jose,"1,678 sqft","Dec 31, 1969",$0,37.302166,-121.78267,CA,Single-Family Home,749999,,95121,Evergreen,34,30,For Sale,SANTA CLARA
298,5424 Woodhurst Ln,2.0,4.0,San Jose,"1,450 sqft","Dec 31, 1969",$0,37.25368,-121.85704,CA,Single-Family Home,649900,,95123,Edenvale,69,52,For Sale,SANTA CLARA
299,3653 Tully Ct,3.0,4.0,San Jose,"1,968 sqft","Dec 31, 1969",$0,37.334717,-121.7751,CA,Single-Family Home,828000,,95148,Evergreen,9,0,For Sale,SANTA CLARA
300,5569 Cribari Cir,2.0,2.0,San Jose,"1,223 sqft","Dec 31, 1969",$0,37.29291,-121.75516,CA,Apt/Condo/Twnhm,310000,,95135,Evergreen,22,29,For Sale,SANTA CLARA
301,14110 Buckner Dr,3.5,4.0,San Jose,"2,975 sqft","Dec 31, 1969",$0,37.359905,-121.81875,CA,Single-Family Home,709500,,95127,Alum Rock,60,47,For Sale,SANTA CLARA
302,2710 Somerset Park Cir,2.0,2.0,San Jose,831 sqft,"Dec 31, 1969",$0,37.394814,-121.86136,CA,Condo,373000,,95132,Berryessa,45,48,For Sale,SANTA CLARA
303,3993 Forestwood Dr,3.0,4.0,San Jose,"1,967 sqft","Dec 31, 1969",$0,37.304787,-121.783714,CA,Single-Family Home,699999,,95121,Evergreen,40,29,For Sale,SANTA CLARA
304,485 Hassinger Rd,2.0,3.0,San Jose,"1,080 sqft","Dec 31, 1969",$0,37.262077,-121.796906,CA,Single-Family Home,474900,,95111,Edenvale,38,30,For Sale,SANTA CLARA
305,1693 Willow Creek Dr,3.0,3.0,San Jose,"2,202 sqft","Dec 31, 1969",$0,37.27321,-121.909805,CA,Single-Family Home,1099000,,95124,Willow Glen,49,33,For Sale,SANTA CLARA
306,3779 Chambery Ct,3.0,3.0,San Jose,"1,366 sqft","Dec 31, 1969",$0,37.37664,-121.82693,CA,Single-Family Home,499000,,95127,Alum Rock,45,36,For Sale,SANTA CLARA
307,5669 Morningside Dr,4.0,4.0,San Jose,"3,429 sqft","Dec 31, 1969",$0,37.276924,-121.76664,CA,Single-Family Home,1530000,,95138,Evergreen,6,0,For Sale,SANTA CLARA
308,412 Capricorn Ct,2.0,3.0,San Jose,"1,197 sqft","Dec 31, 1969",$0,37.288,-121.83341,CA,Condo,330000,,95111,South San Jose,49,50,For Sale,SANTA CLARA
309,4799 Bordwell Dr,2.5,4.0,San Jose,"1,480 sqft","Dec 31, 1969",$0,37.25632,-121.89117,CA,Single-Family Home,695000,,95118,Cambrian Park,51,28,For Sale,SANTA CLARA
310,450 S 19th St,3.0,4.0,San Jose,"1,836 sqft","Dec 31, 1969",$0,37.338047,-121.86568,CA,Single-Family Home,659000,,95116,Downtown San Jose,42,49,For Sale,SANTA CLARA
311,2407 Lindbergh Ave,2.0,3.0,San Jose,"1,389 sqft","Dec 31, 1969",$0,37.307693,-121.93573,CA,Single-Family Home,739000,,95128,Willow Glen,71,45,For Sale,SANTA CLARA
312,1978 Doxey Dr,2.0,3.0,San Jose,"1,380 sqft","Dec 31, 1969",$0,37.387646,-121.876686,CA,Single-Family Home,638888,,95131,Berryessa,55,46,For Sale,SANTA CLARA
313,6948 Bret Harte Dr,3.0,4.0,San Jose,"2,380 sqft","Dec 31, 1969",$0,37.21048,-121.842125,CA,Single-Family Home,1248800,,95120,Almaden Valley,31,22,For Sale,SANTA CLARA
314,3610 Gleason Ave,2.0,3.0,San Jose,"1,408 sqft","Dec 31, 1969",$0,37.297245,-121.96392,CA,Single-Family Home,763500,,95130,West San Jose,52,34,For Sale,SANTA CLARA
315,31 W Humboldt St,1.0,3.0,San Jose,"1,106 sqft","Dec 31, 1969",$0,37.31844,-121.87713,CA,Single-Family Home,250000,,95110,Downtown San Jose,82,48,For Sale,SANTA CLARA
316,846 Coyote Rd,4.0,4.0,San Jose,"3,645 sqft","Dec 31, 1969",$0,37.27514,-121.80208,CA,Single-Family Home,998000,,95111,Edenvale,26,17,For Sale,SANTA CLARA
317,369 Destino Cir,3.0,4.0,San Jose,"1,954 sqft","Dec 31, 1969",$0,37.35614,-121.86674,CA,Townhome,599900,,95133,Alum Rock,57,50,For Sale,SANTA CLARA
318,3288 Traviata Pl,2.5,3.0,San Jose,"1,567 sqft","Dec 31, 1969",$0,37.30113,-121.95623,CA,Townhome,750000,,95117,West San Jose,57,38,For Sale,SANTA CLARA
319,356 Santana Row #315,3.0,3.0,San Jose,"2,161 sqft","Dec 31, 1969",$0,37.321,-121.94735,CA,Apt/Condo/Twnhm,1694956,,95128,Downtown San Jose,78,47,For Sale,SANTA CLARA
320,382 Brown Ave,2.0,4.0,San Jose,"1,300 sqft","Dec 31, 1969",$0,37.32128,-121.89207,CA,Single-Family Home,479000,,95125,Downtown San Jose,57,,For Sale,SANTA CLARA
321,2012 Mayfield Ave,2.0,3.0,San Jose,"1,250 sqft","Dec 31, 1969",$0,37.285564,-121.98708,CA,Single-Family Home,785000,,95130,West San Jose,65,36,For Sale,SANTA CLARA
322,1424 Sierraville Ave,2.5,5.0,San Jose,"2,002 sqft","Dec 31, 1969",$0,37.395992,-121.85713,CA,Single-Family Home,599000,,95132,Berryessa,38,46,For Sale,SANTA CLARA
323,804 Star Jasmine Ct,3.0,4.0,San Jose,"1,806 sqft","Dec 31, 1969",$0,37.387142,-121.88841,CA,Townhome,649888,,95131,Berryessa,63,,For Sale,SANTA CLARA
324,3388 Landess Ave #D,6.0,3.0,San Jose,,"Dec 31, 1969",$0,37.42131,-121.86183,CA,Apt/Condo/Twnhm,385000,,95132,Berryessa,26,34,For Sale,SANTA CLARA
325,4058 Mira Loma Way,2.0,3.0,San Jose,"1,123 sqft","Dec 31, 1969",$0,37.280807,-121.82857,CA,Single-Family Home,410000,,95111,South San Jose,51,50,For Sale,SANTA CLARA
326,1442 Shasta Ave,2.0,2.0,San Jose,"1,892 sqft","Dec 31, 1969",$0,37.328423,-121.91872,CA,Single-Family Home,1050000,,95126,Downtown San Jose,78,52,For Sale,SANTA CLARA
327,2148 Amstel Ct,3.0,4.0,San Jose,"1,474 sqft","Dec 31, 1969",$0,37.36063,-121.850395,CA,Townhome,359999,,95116,Alum Rock,57,51,For Sale,SANTA CLARA
328,1163 Cherry Ave,5.0,6.0,San Jose,"4,500 sqft","Dec 31, 1969",$0,37.304832,-121.90618,CA,Single-Family Home,1550000,,95125,Willow Glen,71,46,For Sale,SANTA CLARA
329,810 Clintonia Ave,2.0,3.0,San Jose,"1,564 sqft","Dec 31, 1969",$0,37.31683,-121.899704,CA,Single-Family Home,998000,,95125,Willow Glen,63,,For Sale,SANTA CLARA
330,1358 Oakland Rd #10,2.0,3.0,San Jose,"1,120 sqft","Dec 31, 1969",$0,37.372757,-121.89138,CA,Mobile/Manufactured,109000,,95112,Berryessa,57,34,For Sale,SANTA CLARA
331,1520 E Capitol Expy #148,3.0,3.0,San Jose,"1,368 sqft","Dec 31, 1969",$0,37.30273,-121.81327,CA,Mobile/Manufactured,78900,,95121,Evergreen,46,40,For Sale,SANTA CLARA
332,195 Blossom Hill Rd #104,2.0,3.0,San Jose,"1,800 sqft","Dec 31, 1969",$0,37.25401,-121.81188,CA,Mobile/Manufactured,164800,,95123,Edenvale,,,For Sale,SANTA CLARA
333,6850 Aintree Dr,2.0,3.0,San Jose,"1,014 sqft","Dec 31, 1969",$0,37.225693,-121.78612,CA,Single-Family Home,599000,,95119,Edenvale,34,29,For Sale,SANTA CLARA
334,1418 Sunshine Ct,2.0,3.0,San Jose,"1,152 sqft","Dec 31, 1969",$0,37.333183,-121.848946,CA,Single-Family Home,69000,,95122,South San Jose,49,46,For Sale,SANTA CLARA
335,3375 Pinnacle Dr,3.0,4.0,San Jose,"1,935 sqft","Dec 31, 1969",$0,37.40402,-121.84673,CA,Single-Family Home,799000,,95132,Berryessa,42,35,For Sale,SANTA CLARA
336,4846 Ashmont Dr,2.0,3.0,San Jose,"1,765 sqft","Dec 31, 1969",$0,37.274864,-121.80763,CA,Single-Family Home,649000,,95111,Edenvale,18,26,For Sale,SANTA CLARA
337,501 S 16th St,2.0,3.0,San Jose,"1,964 sqft","Dec 31, 1969",$0,37.335545,-121.86979,CA,Single-Family Home,1089000,,95112,Downtown San Jose,54,50,For Sale,SANTA CLARA
338,3949 Soutirage Ln,7.0,4.0,San Jose,"2,568 sqft","Dec 31, 1969",$0,37.316383,-121.76726,CA,Single-Family Home,1239000,,95135,Evergreen,42,22,For Sale,SANTA CLARA
339,1274 Zeka Dr,3.0,3.0,San Jose,"1,656 sqft","Dec 31, 1969",$0,37.382435,-121.88783,CA,Single-Family Home,688000,,95131,Berryessa,68,,For Sale,SANTA CLARA
340,1770 Kammerer Ave,2.0,4.0,San Jose,"1,321 sqft","Dec 31, 1969",$0,37.347458,-121.84872,CA,Single-Family Home,499999,,95116,Alum Rock,42,52,For Sale,SANTA CLARA
341,6505 Hirabayashi Dr,7.0,3.0,San Jose,"2,035 sqft","Dec 31, 1969",$0,37.22079,-121.88048,CA,Single-Family Home,918000,,95120,Almaden Valley,42,25,For Sale,SANTA CLARA
342,412 Capricorn Ct,6.0,3.0,San Jose,"1,197 sqft","Dec 31, 1969",$0,37.288,-121.83341,CA,Apt/Condo/Twnhm,330000,,95111,South San Jose,49,50,For Sale,SANTA CLARA
343,486 White Chapel Ave,3.0,2.0,San Jose,"1,104 sqft","Dec 31, 1969",$0,37.280598,-121.85789,CA,Apt/Condo/Twnhm,499888,,95136,South San Jose,51,45,For Sale,SANTA CLARA
344,Alexian Drive and North Jackson Avenue,2.0,3.0,San Jose,,"Dec 31, 1969",$0,37.36102,-121.84553,CA,Apt/Condo/Twnhm,365000,,95116,Alum Rock,55,54,For Sale,SANTA CLARA
345,259 Kentdale Pl,2.5,3.0,San Jose,"1,650 sqft","Dec 31, 1969",$0,37.32753,-121.904884,CA,Condo,518888,,95126,Downtown San Jose,85,,For Sale,SANTA CLARA
346,721 Mill Stream Dr,2.0,2.0,San Jose,"1,440 sqft","Dec 31, 1969",$0,37.28998,-121.87339,CA,Mobile/Manufactured,112000,,95125,South San Jose,55,46,For Sale,SANTA CLARA
347,2151 Oakland Rd #268,2.0,2.0,San Jose,"1,440 sqft","Dec 31, 1969",$0,37.3963,-121.902336,CA,Single-Family Home,89900,,95131,Berryessa,,,For Sale,SANTA CLARA
348,1504 Alum Rock Ave,,,San Jose,"23,966 sqft","Dec 31, 1969",$0,37.3503,-121.8601,CA,Income/Investment,3000000,,95116,Alum Rock,54,53,For Sale,SANTA CLARA
349,422 Camille Cir #14,3.0,2.0,San Jose,"1,561 sqft","Dec 31, 1969",$0,37.40325,-121.92287,CA,Apt/Condo/Twnhm,680888,,95134,North San Jose,28,,For Sale,SANTA CLARA
350,6193 Cottle Rd,2.0,3.0,San Jose,"1,662 sqft","Dec 31, 1969",$0,37.233856,-121.80418,CA,Single-Family Home,640000,,95123,Edenvale,48,49,For Sale,SANTA CLARA
351,1637 Fern Pine Ct,2.5,3.0,San Jose,"1,478 sqft","Dec 31, 1969",$0,37.37269,-121.87593,CA,Apt/Condo/Twnhm,619800,,95131,Berryessa,51,39,For Sale,SANTA CLARA
352,908 Alta Mar Ter,3.0,2.0,San Jose,"1,667 sqft","Dec 31, 1969",$0,37.347717,-121.926476,CA,Townhome,625000,,95126,North San Jose,58,49,For Sale,SANTA CLARA
353,205 Esfahan Dr,3.0,2.0,San Jose,"1,387 sqft","Dec 31, 1969",$0,37.291504,-121.854744,CA,Townhome,485000,,95111,South San Jose,37,40,For Sale,SANTA CLARA
354,5807 Vargas Ct,3.0,4.0,San Jose,"2,170 sqft","Dec 31, 1969",$0,37.240215,-121.88061,CA,Single-Family Home,1059950,,95120,Almaden Valley,45,43,For Sale,SANTA CLARA
355,4816 Lakebird Pl,2.0,2.0,San Jose,"1,212 sqft","Dec 31, 1969",$0,37.24907,-121.930145,CA,Apt/Condo/Twnhm,469900,,95124,Cambrian Park,32,34,For Sale,SANTA CLARA
356,1512 Mount Diablo Dr,1.5,3.0,San Jose,"1,000 sqft","Dec 31, 1969",$0,37.350643,-121.8104,CA,Single-Family Home,345999,,95127,Alum Rock,42,36,For Sale,SANTA CLARA
357,3145 Irlanda Way,1.0,3.0,San Jose,"1,060 sqft","Dec 31, 1969",$0,37.267723,-121.910805,CA,Single-Family Home,699000,,95124,Willow Glen,60,31,For Sale,SANTA CLARA
358,6429 San Anselmo Way,7.0,4.0,San Jose,"2,124 sqft","Dec 31, 1969",$0,37.229805,-121.79595,CA,Single-Family Home,744900,,95119,Edenvale,26,0,For Sale,SANTA CLARA
359,5525 Blossom Tree Ln,3.0,5.0,San Jose,"2,450 sqft","Dec 31, 1969",$0,37.237892,-121.93772,CA,Single-Family Home,1198000,,95124,Cambrian Park,34,20,For Sale,SANTA CLARA
360,1389 Camino Robles Way,3.0,5.0,San Jose,"2,673 sqft","Dec 31, 1969",$0,37.2241,-121.88885,CA,Single-Family Home,1249000,,95120,Almaden Valley,32,25,For Sale,SANTA CLARA
361,7016 Brooktree Way,3.0,4.0,San Jose,"2,334 sqft","Dec 31, 1969",$0,37.210426,-121.835945,CA,Single-Family Home,1268000,,95120,Almaden Valley,28,21,For Sale,SANTA CLARA
362,2235 Paris Way,3.0,4.0,San Jose,"1,530 sqft","Dec 31, 1969",$0,37.41962,-121.865105,CA,Single-Family Home,669000,,95132,Berryessa,42,38,For Sale,SANTA CLARA
363,3164 Kimber Ct #70,1.0,2.0,San Jose,886 sqft,"Dec 31, 1969",$0,37.26578,-121.92143,CA,Apt/Condo/Twnhm,399999,,95124,Willow Glen,86,34,For Sale,SANTA CLARA
364,7119 Via Lomas,2.0,4.0,San Jose,"2,345 sqft","Dec 31, 1969",$0,37.230713,-121.76854,CA,Single-Family Home,659000,,95139,Edenvale,60,33,For Sale,SANTA CLARA
365,914 Minnesota Ave,2.0,4.0,San Jose,"1,890 sqft","Dec 31, 1969",$0,37.3056,-121.893524,CA,Single-Family Home,798000,,95125,Willow Glen,72,49,For Sale,SANTA CLARA
366,601 Cedargate Ln,1.5,3.0,San Jose,"1,296 sqft","Dec 31, 1969",$0,37.26067,-121.828995,CA,Condo,379999,,95136,Edenvale,38,40,For Sale,SANTA CLARA
367,3347 Shadow Park Pl,2.0,2.0,San Jose,"1,143 sqft","Dec 31, 1969",$0,37.30484,-121.816,CA,Apt/Condo/Twnhm,360000,,95121,Evergreen,46,40,For Sale,SANTA CLARA
368,1068 Yarwood Ct,2.0,2.0,San Jose,922 sqft,"Dec 31, 1969",$0,37.312153,-121.93895,CA,Apt/Condo/Twnhm,419950,,95128,Willow Glen,63,41,For Sale,SANTA CLARA
369,675 Serenade Way,2.0,3.0,San Jose,"1,137 sqft","Dec 31, 1969",$0,37.27815,-121.81305,CA,Single-Family Home,449900,,95111,South San Jose,28,0,For Sale,SANTA CLARA
370,794 Snow Ter,3.0,3.0,San Jose,"1,640 sqft","Dec 31, 1969",$0,37.276924,-121.808525,CA,Townhome,435000,,95111,Edenvale,29,30,For Sale,SANTA CLARA
371,1513 Rhinecliff Way #92,3.0,3.0,San Jose,"1,470 sqft","Dec 31, 1969",$0,37.30208,-121.92117,CA,Townhome,525000,,95126,Willow Glen,54,47,For Sale,SANTA CLARA
372,623 Minnesota Ave,2.0,3.0,San Jose,"1,500 sqft","Dec 31, 1969",$0,37.309914,-121.888016,CA,Single-Family Home,769000,,95125,Willow Glen,52,54,For Sale,SANTA CLARA
373,2131 Winepol Loop,2.0,2.0,San Jose,"1,144 sqft","Dec 31, 1969",$0,37.296665,-121.86996,CA,Townhome,448888,,95125,South San Jose,40,48,For Sale,SANTA CLARA
374,160 El Bosque St,2.0,3.0,San Jose,960 sqft,"Dec 31, 1969",$0,37.413963,-121.94249,CA,Single-Family Home,75000,,95134,North San Jose,35,,For Sale,SANTA CLARA
375,808 Lenzen Ave #104,3.0,2.0,San Jose,"1,261 sqft","Dec 31, 1969",$0,37.335693,-121.91039,CA,Apt/Condo/Twnhm,429000,,95126,Downtown San Jose,85,,For Sale,SANTA CLARA
376,239 Kenbrook Cir,2.0,3.0,San Jose,"1,164 sqft","Dec 31, 1969",$0,37.28674,-121.84142,CA,Townhome,359888,,95111,South San Jose,60,49,For Sale,SANTA CLARA
377,97 E Saint James St #57,2.0,2.0,San Jose,"1,203 sqft","Dec 31, 1969",$0,37.34008,-121.89107,CA,Condo,475000,,95112,Downtown San Jose,94,74,For Sale,SANTA CLARA
378,1693 Patio Dr,5.0,5.0,San Jose,"4,980 sqft","Dec 31, 1969",$0,37.28906,-121.91594,CA,Single-Family Home,3295000,,95125,Willow Glen,43,35,For Sale,SANTA CLARA
379,1535 Altamont Ave,3.0,3.0,San Jose,"1,628 sqft","Dec 31, 1969",$0,37.27352,-121.899185,CA,Single-Family Home,889950,,95125,Willow Glen,51,29,For Sale,SANTA CLARA
380,473 Tower Hill Ave,3.0,2.0,San Jose,"1,370 sqft","Dec 31, 1969",$0,37.28128,-121.85734,CA,Townhome,499000,,95136,South San Jose,54,45,For Sale,SANTA CLARA
381,3151 San Luis Rey Ave,2.0,3.0,San Jose,"1,214 sqft","Dec 31, 1969",$0,37.26977,-121.90106,CA,Single-Family Home,679000,,95118,Willow Glen,51,28,For Sale,SANTA CLARA
382,728 Trinity Glen Ct,3.0,4.0,San Jose,"1,942 sqft","Dec 31, 1969",$0,37.309963,-121.89294,CA,Single-Family Home,895000,,95125,Willow Glen,74,52,For Sale,SANTA CLARA
383,908 Font Ter,3.0,3.0,San Jose,"1,621 sqft","Dec 31, 1969",$0,37.322323,-121.90403,CA,Apt/Condo/Twnhm,612000,,95126,Downtown San Jose,78,,For Sale,SANTA CLARA
384,1109 Garfield Ave,1.0,2.0,San Jose,"1,026 sqft","Dec 31, 1969",$0,37.310223,-121.90291,CA,Single-Family Home,689000,,95125,Willow Glen,78,47,For Sale,SANTA CLARA
385,2150 Almaden Rd #8,3.0,3.0,San Jose,"1,300 sqft","Dec 31, 1969",$0,37.29561,-121.8801,CA,Mobile/Manufactured,154995,,95125,South San Jose,49,45,For Sale,SANTA CLARA
386,1390 Trestlewood Ln,3.0,4.0,San Jose,"2,810 sqft","Dec 31, 1969",$0,37.289497,-121.80433,CA,Single-Family Home,1075000,,95138,Evergreen,28,25,For Sale,SANTA CLARA
387,1399 S Winchester Blvd #204,3.0,2.0,San Jose,"1,382 sqft","Dec 31, 1969",$0,37.298527,-121.950264,CA,Apt/Condo/Twnhm,489888,,95128,West San Jose,75,41,For Sale,SANTA CLARA
388,10274 Murtha Dr,2.0,4.0,San Jose,"1,154 sqft","Dec 31, 1969",$0,37.353428,-121.81524,CA,Single-Family Home,490000,,95127,Alum Rock,48,40,For Sale,SANTA CLARA
389,6238 Hopi Cir,2.0,3.0,San Jose,"1,232 sqft","Dec 31, 1969",$0,37.2297,-121.83421,CA,Single-Family Home,639000,,95123,Edenvale,25,0,For Sale,SANTA CLARA
390,114 S 20th St,1.0,3.0,San Jose,"1,510 sqft","Dec 31, 1969",$0,37.34306,-121.86909,CA,Single-Family Home,495000,,95116,Downtown San Jose,57,53,For Sale,SANTA CLARA
391,1232 Foxworthy Ave,2.0,3.0,San Jose,"1,449 sqft","Dec 31, 1969",$0,37.27672,-121.88406,CA,Single-Family Home,644000,,95118,Willow Glen,48,33,For Sale,SANTA CLARA
392,809 Auzerais Ave #223,2.0,1.0,San Jose,824 sqft,"Dec 31, 1969",$0,37.321342,-121.90435,CA,Condo,335000,,95126,Downtown San Jose,78,,For Sale,SANTA CLARA
393,2236 Coastland Ave,3.0,4.0,San Jose,"2,217 sqft","Dec 31, 1969",$0,37.292667,-121.88084,CA,Single-Family Home,1049000,,95125,South San Jose,65,45,For Sale,SANTA CLARA
394,411 Park Ave #123,1.0,1.0,San Jose,816 sqft,"Dec 31, 1969",$0,37.328663,-121.89717,CA,Apt/Condo/Twnhm,299000,,95110,Downtown San Jose,89,,For Sale,SANTA CLARA
395,1230 Hester Ave,3.0,4.0,San Jose,"2,158 sqft","Dec 31, 1969",$0,37.3318,-121.91638,CA,Single-Family Home,1150000,,95126,Downtown San Jose,83,52,For Sale,SANTA CLARA
396,2639 Gimelli Pl #131,2.0,2.0,San Jose,975 sqft,"Dec 31, 1969",$0,37.37494,-121.84885,CA,Condo,310000,,95133,Alum Rock,48,50,For Sale,SANTA CLARA
397,5137 Alan Ave,2.0,4.0,San Jose,"2,026 sqft","Dec 31, 1969",$0,37.244957,-121.90871,CA,Single-Family Home,878000,,95124,Cambrian Park,48,28,For Sale,SANTA CLARA
398,2556 Brenford Dr,2.0,3.0,San Jose,"1,176 sqft","Dec 31, 1969",$0,37.348232,-121.82579,CA,Single-Family Home,499000,,95122,Alum Rock,40,50,For Sale,SANTA CLARA
399,3631 Justine Dr,3.0,4.0,San Jose,"2,126 sqft","Dec 31, 1969",$0,37.26219,-121.914825,CA,Single-Family Home,799800,,95124,Cambrian Park,68,31,For Sale,SANTA CLARA
400,1171 Curtner Ave,1.0,2.0,San Jose,"1,012 sqft","Dec 31, 1969",$0,37.289246,-121.890305,CA,Single-Family Home,599000,,95125,Willow Glen,74,39,For Sale,SANTA CLARA
401,1165 Avenida Benito,3.0,3.0,San Jose,"1,739 sqft","Dec 31, 1969",$0,37.38875,-121.89265,CA,Townhome,680000,,95131,Berryessa,65,,For Sale,SANTA CLARA
402,1358 Oakland Rd #123,1.0,2.0,San Jose,756 sqft,"Dec 31, 1969",$0,37.372757,-121.89138,CA,Mobile/Manufactured,79000,,95112,Berryessa,57,,For Sale,SANTA CLARA
403,5730 Park Crest Dr,2.0,3.0,San Jose,"1,218 sqft","Dec 31, 1969",$0,37.23491,-121.896126,CA,Single-Family Home,699888,,95118,Cambrian Park,42,30,For Sale,SANTA CLARA
404,638 Choctaw Dr,2.0,3.0,San Jose,"1,409 sqft","Dec 31, 1969",$0,37.23345,-121.83267,CA,Single-Family Home,599950,,95123,Edenvale,37,31,For Sale,SANTA CLARA
405,144 S 3rd St #407,1.0,1.0,San Jose,"1,023 sqft","Dec 31, 1969",$0,37.33476,-121.886,CA,Apt/Condo/Twnhm,425000,,95112,Downtown San Jose,95,74,For Sale,SANTA CLARA
406,3913 Woodford Dr,3.0,6.0,San Jose,"2,670 sqft","Dec 31, 1969",$0,37.260014,-121.91121,CA,Single-Family Home,899000,,95124,Cambrian Park,62,30,For Sale,SANTA CLARA
407,2777 Lavender Ter,3.0,3.0,San Jose,,"Dec 31, 1969",$0,37.295,-121.84524,CA,Condo,558000,,95111,South San Jose,48,44,For Sale,SANTA CLARA
408,2150 Almaden Rd #6,1.0,2.0,San Jose,,"Dec 31, 1969",$0,37.29561,-121.8801,CA,Mobile/Manufactured,57500,,95125,South San Jose,49,45,For Sale,SANTA CLARA
409,1827 Rochelle Dr,2.0,3.0,San Jose,"1,226 sqft","Dec 31, 1969",$0,37.273132,-121.91869,CA,Single-Family Home,798000,,95124,Willow Glen,48,35,For Sale,SANTA CLARA
410,501 Bradley Ave,2.0,4.0,San Jose,"1,796 sqft","Dec 31, 1969",$0,37.31969,-121.93411,CA,Single-Family Home,778888,,95128,Downtown San Jose,75,48,For Sale,SANTA CLARA
411,874 Greenbay Ct,3.0,5.0,San Jose,"2,210 sqft","Dec 31, 1969",$0,37.29985,-121.93397,CA,Single-Family Home,920000,,95128,Willow Glen,72,46,For Sale,SANTA CLARA
412,2219 Deer Crest Ct,3.0,4.0,San Jose,"3,535 sqft","Dec 31, 1969",$0,37.28917,-121.77267,CA,Single-Family Home,1969000,,95138,Evergreen,34,24,For Sale,SANTA CLARA
413,2727 Somerset Park Cir,1.0,1.0,San Jose,677 sqft,"Dec 31, 1969",$0,37.395466,-121.86149,CA,Apt/Condo/Twnhm,300000,,95132,Berryessa,45,48,For Sale,SANTA CLARA
414,5067 Moorpark Ave,3.0,5.0,San Jose,"2,239 sqft","Dec 31, 1969",$0,37.310513,-121.991714,CA,Single-Family Home,1198000,,95129,West San Jose,55,36,For Sale,SANTA CLARA
415,4902 Howes Ln,2.0,3.0,San Jose,"1,504 sqft","Dec 31, 1969",$0,37.250076,-121.90776,CA,Single-Family Home,715000,,95118,Cambrian Park,46,26,For Sale,SANTA CLARA
416,5054 Cribari Vale,2.0,2.0,San Jose,"1,240 sqft","Dec 31, 1969",$0,37.293404,-121.75273,CA,Apt/Condo/Twnhm,310000,,95135,Evergreen,17,26,For Sale,SANTA CLARA
417,2614 Villa Cortona Way,3.0,3.0,San Jose,"1,582 sqft","Dec 31, 1969",$0,37.2884,-121.87173,CA,Townhome,580000,,95125,South San Jose,55,46,For Sale,SANTA CLARA
418,6237 Tibouchina Ln,2.0,2.0,San Jose,,"Dec 31, 1969",$0,37.23963,-121.79629,CA,Apt/Condo/Twnhm,434888,,95119,Edenvale,49,51,For Sale,SANTA CLARA
419,331 Chateau La Salle Dr,2.0,3.0,San Jose,"1,500 sqft","Dec 31, 1969",$0,37.291927,-121.859566,CA,Condo,189900,,95111,South San Jose,34,44,For Sale,SANTA CLARA
420,974 Kingfisher Dr,2.0,3.0,San Jose,"1,388 sqft","Dec 31, 1969",$0,37.28617,-121.88133,CA,Single-Family Home,699888,,95125,South San Jose,66,42,For Sale,SANTA CLARA
421,5488 Don Manrico Ct,2.0,2.0,San Jose,950 sqft,"Dec 31, 1969",$0,37.253716,-121.83921,CA,Townhome,314900,,95123,Edenvale,37,47,For Sale,SANTA CLARA
422,1888 El Dorado Ave,2.0,3.0,San Jose,"1,790 sqft","Dec 31, 1969",$0,37.33391,-121.93467,CA,Single-Family Home,879900,,95126,Downtown San Jose,54,43,For Sale,SANTA CLARA
423,463 Saint Florence Dr,2.0,2.0,San Jose,"1,440 sqft","Dec 31, 1969",$0,37.372013,-121.84811,CA,Mobile/Manufactured,119000,,95133,Alum Rock,62,,For Sale,SANTA CLARA
424,1408 Sunshine Ct,2.0,3.0,San Jose,"1,344 sqft","Dec 31, 1969",$0,37.333195,-121.84904,CA,Mobile/Manufactured,95900,,95122,South San Jose,45,46,For Sale,SANTA CLARA
425,434 Chateau La Salle Dr,2.0,3.0,San Jose,"1,680 sqft","Dec 31, 1969",$0,37.292282,-121.857155,CA,Single-Family Home,269000,,95111,South San Jose,32,42,For Sale,SANTA CLARA
426,2151 Oakland Rd #235,2.0,3.0,San Jose,"1,350 sqft","Dec 31, 1969",$0,37.3963,-121.902336,CA,Mobile/Manufactured,115000,,95131,Berryessa,45,34,For Sale,SANTA CLARA
427,506 Chateau La Salle Dr,2.0,3.0,San Jose,"1,725 sqft","Dec 31, 1969",$0,37.29396,-121.85415,CA,Mobile/Manufactured,264888,,95111,South San Jose,34,41,For Sale,SANTA CLARA
428,5663 Calmor Ave #3,1.0,2.0,San Jose,,"Dec 31, 1969",$0,37.24711,-121.85257,CA,Single-Family Home,315000,,95123,Edenvale,62,36,For Sale,SANTA CLARA
429,4970 Cherry Ave #209,1.0,1.0,San Jose,675 sqft,"Dec 31, 1969",$0,37.25906,-121.87993,CA,Apt/Condo/Twnhm,295000,,95118,Cambrian Park,74,38,For Sale,SANTA CLARA
430,1656 Tampa Way,2.0,3.0,San Jose,"1,121 sqft","Dec 31, 1969",$0,37.332447,-121.83675,CA,Single-Family Home,499995,,95122,Alum Rock,38,49,For Sale,SANTA CLARA
431,586 Elk Ridge Way,2.0,2.0,San Jose,"1,103 sqft","Dec 31, 1969",$0,37.281906,-121.8608,CA,Condo,399000,,95136,South San Jose,42,30,For Sale,SANTA CLARA
432,71 Quail Hollow Dr,2.0,3.0,San Jose,"1,560 sqft","Dec 31, 1969",$0,37.298367,-121.9362,CA,Mobile/Manufactured,225000,,95128,Willow Glen,60,45,For Sale,SANTA CLARA
433,1550 Technology Dr #2105,2.0,2.0,San Jose,"1,133 sqft","Dec 31, 1969",$0,37.363068,-121.91445,CA,Apt/Condo/Twnhm,435000,,95110,North San Jose,72,53,For Sale,SANTA CLARA
434,833 N Capitol Ave #3,1.0,2.0,San Jose,903 sqft,"Dec 31, 1969",$0,37.38123,-121.85499,CA,Condo,297800,,95133,Alum Rock,40,50,For Sale,SANTA CLARA
435,1310 Saddle Rack St #346,2.0,2.0,San Jose,"1,263 sqft","Dec 31, 1969",$0,37.320396,-121.91231,CA,Condo,469000,,95126,Downtown San Jose,69,54,For Sale,SANTA CLARA
436,1642 Lorient Ter,2.0,2.0,San Jose,"1,292 sqft","Dec 31, 1969",$0,37.366776,-121.871,CA,Apt/Condo/Twnhm,519027,,95133,Alum Rock,45,39,For Sale,SANTA CLARA
437,20315 Mckean Rd,3.5,6.0,San Jose,"5,000 sqft","Dec 31, 1969",$0,37.197258,-121.8218,CA,Single-Family Home,2285000,,95120,Almaden Valley,6,17,For Sale,SANTA CLARA
438,801 S Winchester Blvd #4206,2.0,2.0,San Jose,,"Dec 31, 1969",$0,37.31273,-121.9511,CA,Condo,489000,,95128,West San Jose,62,39,For Sale,SANTA CLARA
439,3572 Bournemouth Ct,3.0,4.0,San Jose,"1,860 sqft","Dec 31, 1969",$0,37.273304,-121.874626,CA,Single-Family Home,750000,,95136,Edenvale,51,43,For Sale,SANTA CLARA
440,4950 Flat Rock Cir,2.0,2.0,San Jose,988 sqft,"Dec 31, 1969",$0,37.263466,-121.82399,CA,Condo,300000,,95136,Edenvale,42,43,For Sale,SANTA CLARA
441,2151 Oakland Rd #446,2.0,3.0,San Jose,"1,728 sqft","Dec 31, 1969",$0,37.3963,-121.902336,CA,Mobile/Manufactured,192000,,95131,Berryessa,45,34,For Sale,SANTA CLARA
442,5144 Cribari Pl,2.0,2.0,San Jose,"1,240 sqft","Dec 31, 1969",$0,37.29482,-121.75352,CA,Condo,300000,,95135,Evergreen,17,28,For Sale,SANTA CLARA
443,1671 Fruitdale Ave,2.0,4.0,San Jose,"1,178 sqft","Dec 31, 1969",$0,37.310978,-121.92173,CA,Single-Family Home,650000,,95128,Willow Glen,63,49,For Sale,SANTA CLARA
444,88 E San Fernando St #808,2.0,2.0,San Jose,"1,237 sqft","Dec 31, 1969",$0,37.33486,-121.88738,CA,Condo,729000,,95113,Downtown San Jose,98,74,For Sale,SANTA CLARA
445,2610 Tosca Way,2.0,3.0,San Jose,"1,176 sqft","Dec 31, 1969",$0,37.315407,-121.82595,CA,Townhome,325999,,95121,Evergreen,52,48,For Sale,SANTA CLARA
446,1663 W San Carlos St,,,San Jose,"2,044 sqft","Dec 31, 1969",$0,37.323643,-121.921,CA,Income/Investment,85000,,95128,Downtown San Jose,72,49,For Sale,SANTA CLARA
447,1310 Saddle Rack St #310,2.0,3.0,San Jose,"1,407 sqft","Dec 31, 1969",$0,37.320396,-121.91231,CA,Single-Family Home,499000,,95126,Downtown San Jose,75,52,For Sale,SANTA CLARA
448,2245 Old Piedmont Rd,3.0,3.0,San Jose,,"Dec 31, 1969",$0,37.422256,-121.86011,CA,Single-Family Home,958888,,95132,Berryessa,22,32,For Sale,SANTA CLARA
449,268 Zoria Farms Ln,3.0,4.0,San Jose,"1,864 sqft","Dec 31, 1969",$0,37.368084,-121.83934,CA,Single-Family Home,520000,,95127,Alum Rock,57,57,For Sale,SANTA CLARA
450,1680 Collingwood Ave,4.5,5.0,San Jose,"3,000 sqft","Dec 31, 1969",$0,37.294407,-121.903946,CA,Single-Family Home,1749000,,95125,Willow Glen,58,35,For Sale,SANTA CLARA
451,4425 Norwalk Dr #8,2.0,2.0,San Jose,"1,099 sqft","Dec 31, 1969",$0,37.31894,-121.98098,CA,Apt/Condo/Twnhm,388000,,95129,West San Jose,68,39,For Sale,SANTA CLARA
452,47 Kenbrook Cir,2.0,3.0,San Jose,"1,164 sqft","Dec 31, 1969",$0,37.288513,-121.843216,CA,Condo,359995,,95111,South San Jose,55,48,For Sale,SANTA CLARA
453,1010 N Jackson Ave,4.0,4.0,San Jose,"2,006 sqft","Dec 31, 1969",$0,37.379333,-121.86434,CA,Townhome,699990,,95133,Alum Rock,38,48,For Sale,SANTA CLARA
454,556 Mill Pond Dr,2.0,3.0,San Jose,"1,488 sqft","Dec 31, 1969",$0,37.29238,-121.87016,CA,Mobile/Manufactured,101900,,95125,South San Jose,48,45,For Sale,SANTA CLARA
455,411 Lewis Rd #334,2.0,2.0,San Jose,"1,100 sqft","Dec 31, 1969",$0,37.297188,-121.84169,CA,Mobile/Manufactured,74900,,95111,South San Jose,52,43,For Sale,SANTA CLARA
456,1045 Redmond Ave,2.0,3.0,San Jose,"1,904 sqft","Dec 31, 1969",$0,37.228687,-121.864136,CA,Single-Family Home,799000,,95120,Almaden Valley,37,26,For Sale,SANTA CLARA
457,3308 Gaylor Ln,3.0,3.0,San Jose,"1,733 sqft","Dec 31, 1969",$0,37.268105,-121.89942,CA,Single-Family Home,739000,,95118,Cambrian Park,46,28,For Sale,SANTA CLARA
458,Aborn Rd #1T,3.0,4.0,San Jose,"2,433 sqft","Dec 31, 1969",$0,37.31514,-121.783264,CA,Apt/Condo/Twnhm,908000,,95135,Evergreen,52,29,For Sale,SANTA CLARA
459,464 Adeline Ave,3.0,3.0,San Jose,"1,771 sqft","Dec 31, 1969",$0,37.284107,-121.85819,CA,Single-Family Home,569000,,95136,South San Jose,38,34,For Sale,SANTA CLARA
460,401 Rennie Ave,3.0,5.0,San Jose,"2,848 sqft","Dec 31, 1969",$0,37.385258,-121.82135,CA,Single-Family Home,897000,,95127,Alum Rock,23,18,For Sale,SANTA CLARA
461,1020 Obrien Ct,1.0,2.0,San Jose,"1,504 sqft","Dec 31, 1969",$0,37.346222,-121.927315,CA,Single-Family Home,649900,,95126,Downtown San Jose,63,49,For Sale,SANTA CLARA
462,5276 Borneo Cir #59,,,San Jose,,"Dec 31, 1969",$0,37.255283,-121.82873,CA,Apt/Condo/Twnhm,349000,,95123,Edenvale,45,45,For Sale,SANTA CLARA
463,1407 Shasta Ave,2.0,4.0,San Jose,"3,370 sqft","Dec 31, 1969",$0,37.329247,-121.918655,CA,Single-Family Home,1198000,,95126,Downtown San Jose,78,50,For Sale,SANTA CLARA
464,1081 Palm St,2.0,3.0,San Jose,"1,056 sqft","Dec 31, 1969",$0,37.315987,-121.88428,CA,Single-Family Home,399999,,95110,Downtown San Jose,65,57,For Sale,SANTA CLARA
465,1260 Fairweather Lake Cmn,3.0,3.0,San Jose,,"Dec 31, 1969",$0,37.386383,-121.89471,CA,Townhome,648000,,95131,Berryessa,72,35,For Sale,SANTA CLARA
466,1305 N 1st St,,,San Jose,"2,400 sqft","Dec 31, 1969",$0,37.36007,-121.90881,CA,Unspecified,165000,,95112,North San Jose,74,54,For Sale,SANTA CLARA
467,281 Tradewinds Dr #15,1.0,1.0,San Jose,722 sqft,"Dec 31, 1969",$0,37.255272,-121.82747,CA,Condo,225000,,95123,Edenvale,43,45,For Sale,SANTA CLARA
468,2560 Richland Ave,7.0,3.0,San Jose,"2,431 sqft","Dec 31, 1969",$0,37.282528,-121.88644,CA,Single-Family Home,1288000,,95125,Willow Glen,54,36,For Sale,SANTA CLARA
469,2794 Mervyns Way,3.0,3.0,San Jose,"1,496 sqft","Dec 31, 1969",$0,37.35414,-121.8267,CA,Single-Family Home,549000,,95127,Alum Rock,55,57,For Sale,SANTA CLARA
470,599 Baltic Way,2.0,3.0,San Jose,"1,132 sqft","Dec 31, 1969",$0,37.305435,-121.845634,CA,Single-Family Home,498880,,95111,South San Jose,54,39,For Sale,SANTA CLARA
471,2770 George Blauer Pl,4.0,6.0,San Jose,,"Dec 31, 1969",$0,37.295536,-121.770615,CA,Single-Family Home,1250000,,95135,Evergreen,34,31,For Sale,SANTA CLARA
472,5082 Snow Dr,3.0,5.0,San Jose,"1,554 sqft","Dec 31, 1969",$0,37.270443,-121.80364,CA,Single-Family Home,481900,,95111,Edenvale,28,25,For Sale,SANTA CLARA
473,2600 Senter Rd #14,2.0,3.0,San Jose,"1,120 sqft","Dec 31, 1969",$0,37.305214,-121.84149,CA,Mobile/Manufactured,135000,,95111,South San Jose,72,37,For Sale,SANTA CLARA
474,5352 Cedar Grove Cir,2.0,4.0,San Jose,"1,362 sqft","Dec 31, 1969",$0,37.25738,-121.82188,CA,Single-Family Home,610000,,95123,Edenvale,42,41,For Sale,SANTA CLARA
475,1124 Pandolfi Pl,2.0,4.0,San Jose,"1,320 sqft","Dec 31, 1969",$0,37.379135,-121.86911,CA,Townhome,425000,,95131,Berryessa,48,45,For Sale,SANTA CLARA
476,3010 Magnum Dr,3.0,4.0,San Jose,"3,257 sqft","Dec 31, 1969",$0,37.310528,-121.78195,CA,Single-Family Home,1425000,,95135,Evergreen,48,31,For Sale,SANTA CLARA
477,1010 N Jackson Ave,8.0,4.0,San Jose,,"Dec 31, 1969",$0,37.379333,-121.86434,CA,Apt/Condo/Twnhm,699990,,95133,Alum Rock,38,48,For Sale,SANTA CLARA
478,2989 Rose Ave,2.0,2.0,San Jose,"1,092 sqft","Dec 31, 1969",$0,37.36352,-121.830414,CA,Apt/Condo/Twnhm,339000,,95127,Alum Rock,55,56,For Sale,SANTA CLARA
479,7351 Long Valley Ter,8.0,5.0,San Jose,"2,626 sqft","Dec 31, 1969",$0,37.234303,-121.75282,CA,Single-Family Home,1099000,,95138,Edenvale,12,16,For Sale,SANTA CLARA
480,5798 Southview Dr,2.0,4.0,San Jose,"1,355 sqft","Dec 31, 1969",$0,37.246944,-121.78234,CA,Single-Family Home,555000,,95138,Edenvale,20,35,For Sale,SANTA CLARA
481,2378 S King Rd,3.0,4.0,San Jose,"1,359 sqft","Dec 31, 1969",$0,37.32329,-121.82636,CA,Single-Family Home,488888,,95122,Alum Rock,58,50,For Sale,SANTA CLARA
482,7578 Portree Dr,2.0,2.0,San Jose,"1,572 sqft","Dec 31, 1969",$0,37.291084,-121.74177,CA,Condo,569000,,95135,Evergreen,3,0,For Sale,SANTA CLARA
483,211 Benbow Ave,2.0,4.0,San Jose,"1,400 sqft","Dec 31, 1969",$0,37.246235,-121.81087,CA,Single-Family Home,659000,,95123,Edenvale,48,47,For Sale,SANTA CLARA
484,1168 Park Ave,2.0,3.0,San Jose,,"Dec 31, 1969",$0,37.32567,-121.91315,CA,Single-Family Home,499000,,95126,Downtown San Jose,86,,For Sale,SANTA CLARA
485,999 Story Rd,,,San Jose,"1,060 sqft","Dec 31, 1969",$0,37.331734,-121.85686,CA,Unspecified,89900,,95122,Downtown San Jose,71,43,For Sale,SANTA CLARA
486,3464 Canyon Creek Dr,,,San Jose,,"Dec 31, 1969",$0,37.41353,-121.848015,CA,Lot/Land,499000,,95132,Berryessa,25,28,For Sale,SANTA CLARA
487,785 Spindrift Pl,2.0,3.0,San Jose,"1,248 sqft","Dec 31, 1969",$0,37.41703,-121.939316,CA,Mobile/Manufactured,110000,,95134,North San Jose,22,47,For Sale,SANTA CLARA
488,269 El Bosque Dr,2.0,2.0,San Jose,912 sqft,"Dec 31, 1969",$0,37.4111,-121.94521,CA,Mobile/Manufactured,41000,,95134,North San Jose,42,52,For Sale,SANTA CLARA
489,1358 Oakland Rd #61,2.0,3.0,San Jose,"1,416 sqft","Dec 31, 1969",$0,37.372757,-121.89138,CA,Mobile/Manufactured,179000,,95112,Berryessa,57,34,For Sale,SANTA CLARA
490,809 Auzerais Ave #235,2.0,3.0,San Jose,"1,433 sqft","Dec 31, 1969",$0,37.321342,-121.90435,CA,Apt/Condo/Twnhm,489000,,95126,Downtown San Jose,72,64,For Sale,SANTA CLARA
491,2177 Alum Rock Ave #123,2.0,2.0,San Jose,"1,050 sqft","Dec 31, 1969",$0,37.35815,-121.84593,CA,Apt/Condo/Twnhm,319000,,95116,Alum Rock,63,55,For Sale,SANTA CLARA
492,216 Beegum Way,2.0,3.0,San Jose,"1,617 sqft","Dec 31, 1969",$0,37.24967,-121.8138,CA,Single-Family Home,659950,,95123,Edenvale,43,36,For Sale,SANTA CLARA
493,302 Mill Pond Dr,2.0,2.0,San Jose,"1,440 sqft","Dec 31, 1969",$0,37.293015,-121.869095,CA,Mobile/Manufactured,91900,,95125,South San Jose,38,46,For Sale,SANTA CLARA
494,3300 Narvaez Ave #128,2.0,3.0,San Jose,"1,482 sqft","Dec 31, 1969",$0,37.277355,-121.86129,CA,Mobile/Manufactured,167700,,95136,South San Jose,63,47,For Sale,SANTA CLARA
495,3261 Irlanda Way,2.0,4.0,San Jose,"1,442 sqft","Dec 31, 1969",$0,37.26666,-121.91037,CA,Single-Family Home,550000,,95124,Willow Glen,54,31,For Sale,SANTA CLARA
496,893 Delmas Ave,,,San Jose,"3,500 sqft","Dec 31, 1969",$0,37.31725,-121.893425,CA,Income/Investment,220000,,95125,Willow Glen,58,59,For Sale,SANTA CLARA
497,Residence 3 - Brookside Plan,4.0,6.0,San Jose,,"Dec 31, 1969",$0,37.2863,-121.91165,CA,Single-Family Home,1498880,,95120,Willow Glen,40,34,For Sale,SANTA CLARA
498,679 Modern Ice Dr,2.0,3.0,San Jose,"1,150 sqft","Dec 31, 1969",$0,37.36154,-121.89076,CA,Condo,449000,,95112,Downtown San Jose,58,39,For Sale,SANTA CLARA
499,220 N Cragmont Ave,2.0,5.0,San Jose,"1,732 sqft","Dec 31, 1969",$0,37.37504,-121.82864,CA,Single-Family Home,449000,,95127,Alum Rock,48,41,For Sale,SANTA CLARA
500,344 Casselino Dr,3.0,5.0,San Jose,"3,221 sqft","Dec 31, 1969",$0,37.282978,-121.85656,CA,Townhome,968000,,95136,South San Jose,48,35,For Sale,SANTA CLARA
501,1475 Santa Paula Ave,2.0,4.0,San Jose,"1,812 sqft","Dec 31, 1969",$0,37.360954,-121.91448,CA,Single-Family Home,675000,,95110,North San Jose,65,53,For Sale,SANTA CLARA
502,942 Franquette Ave,6.0,5.0,San Jose,"4,400 sqft","Dec 31, 1969",$0,37.291885,-121.88411,CA,Single-Family Home,2300000,,95125,Willow Glen,69,44,For Sale,SANTA CLARA
503,585 Mill Pond Dr,2.0,2.0,San Jose,"1,866 sqft","Dec 31, 1969",$0,37.29235,-121.87077,CA,Mobile/Manufactured,124900,,95125,South San Jose,48,45,For Sale,SANTA CLARA
504,Residence 2 - Brookside Plan,4.0,5.0,San Jose,,"Dec 31, 1969",$0,37.2863,-121.91165,CA,Single-Family Home,1322880,,95120,Willow Glen,40,34,For Sale,SANTA CLARA
505,The Tiger Lily -Residence Four Plan,2.5,3.0,San Jose,"1,823 sqft","Dec 31, 1969",$0,37.355953,-121.89154,CA,Multi-Family Home,695000,,95112,Downtown San Jose,66,51,For Sale,SANTA CLARA
506,7277 Sleepy Creek Dr,3.0,3.0,San Jose,"1,470 sqft","Dec 31, 1969",$0,37.198338,-121.828354,CA,Single-Family Home,768000,,95120,Almaden Valley,15,18,For Sale,SANTA CLARA
507,1550 Martin Ave,2.0,4.0,San Jose,"1,665 sqft","Dec 31, 1969",$0,37.326042,-121.918434,CA,Single-Family Home,829900,,95126,Downtown San Jose,71,48,For Sale,SANTA CLARA
508,4991 Gardenside Pl,5.0,5.0,San Jose,"4,064 sqft","Dec 31, 1969",$0,37.290436,-121.78794,CA,Single-Family Home,1799000,,95138,Evergreen,29,20,For Sale,SANTA CLARA
509,980 Prevost St,1.0,2.0,San Jose,925 sqft,"Dec 31, 1969",$0,37.314793,-121.890656,CA,Single-Family Home,499000,,95125,Willow Glen,58,57,For Sale,SANTA CLARA
510,1064 Broadway Ave,4.0,4.0,San Jose,"3,044 sqft","Dec 31, 1969",$0,37.31139,-121.900185,CA,Single-Family Home,1479000,,95125,Willow Glen,83,49,For Sale,SANTA CLARA
511,1654 Melody Ln,2.0,3.0,San Jose,"1,081 sqft","Dec 31, 1969",$0,37.359707,-121.86386,CA,Single-Family Home,548000,,95133,Alum Rock,55,48,For Sale,SANTA CLARA
512,1817 Deep Creek Ct,3.0,2.0,San Jose,"1,473 sqft","Dec 31, 1969",$0,37.351585,-121.79537,CA,Townhome,429950,,95148,Alum Rock,23,17,For Sale,SANTA CLARA
513,Residence 1 - Brookside Plan,4.0,4.0,San Jose,,"Dec 31, 1969",$0,37.2863,-121.91165,CA,Single-Family Home,1286880,,95120,Willow Glen,40,34,For Sale,SANTA CLARA
514,1420 Foothill Meadows Ct,2.0,2.0,San Jose,988 sqft,"Dec 31, 1969",$0,37.38272,-121.881935,CA,Apt/Condo/Twnhm,419888,,95131,Berryessa,51,38,For Sale,SANTA CLARA
515,50 Oakmore Dr,3.0,4.0,San Jose,"3,840 sqft","Dec 31, 1969",$0,37.38341,-121.81878,CA,Single-Family Home,1345000,,95127,Alum Rock,28,18,For Sale,SANTA CLARA
516,1281 Copper Peak Ln,2.5,3.0,San Jose,"1,630 sqft","Dec 31, 1969",$0,37.194195,-121.84361,CA,Townhome,784000,,95120,Almaden Valley,18,0,For Sale,SANTA CLARA
517,312 Stonegate Cir,1.0,1.0,San Jose,468 sqft,"Dec 31, 1969",$0,37.31194,-121.87998,CA,Condo,220000,,95110,Downtown San Jose,63,57,For Sale,SANTA CLARA
518,2564 Baton Rouge Dr,3.0,3.0,San Jose,,"Dec 31, 1969",$0,37.375916,-121.85029,CA,Condo,550000,,95133,Alum Rock,49,50,For Sale,SANTA CLARA
519,Plan 1,2.0,3.0,San Jose,"1,693 sqft","Dec 31, 1969",$0,37.37178,-121.88215,CA,Single-Family Home,714000,,95133,Berryessa,43,37,For Sale,SANTA CLARA
520,3534 Mount Davidson Ct,3.0,3.0,San Jose,"1,796 sqft","Dec 31, 1969",$0,37.262154,-121.94351,CA,Single-Family Home,757680,,95124,Cambrian Park,57,35,For Sale,SANTA CLARA
521,93 Cashew Blossom Dr,2.0,4.0,San Jose,"1,676 sqft","Dec 31, 1969",$0,37.258045,-121.81612,CA,Single-Family Home,609888,,95123,Edenvale,48,36,For Sale,SANTA CLARA
522,2711 Belfast Dr,2.0,4.0,San Jose,"1,272 sqft","Dec 31, 1969",$0,37.346394,-121.82312,CA,Single-Family Home,475000,,95127,Alum Rock,34,44,For Sale,SANTA CLARA
523,1709 Marlyn Way,3.0,3.0,San Jose,"2,457 sqft","Dec 31, 1969",$0,37.2961,-121.89818,CA,Single-Family Home,1348000,,95125,Willow Glen,49,39,For Sale,SANTA CLARA
524,428 Arabian St,3.0,5.0,San Jose,"2,509 sqft","Dec 31, 1969",$0,37.239643,-121.82485,CA,Single-Family Home,699950,,95123,Edenvale,38,41,For Sale,SANTA CLARA
525,2681 Monterey Hwy #451,2.0,2.0,San Jose,"1,500 sqft","Dec 31, 1969",$0,37.292267,-121.859955,CA,Condo,189900,,95111,South San Jose,26,44,For Sale,SANTA CLARA
526,7359 Via Laguna,2.0,2.0,San Jose,"1,568 sqft","Dec 31, 1969",$0,37.29165,-121.745316,CA,Apt/Condo/Twnhm,499900,,95135,Evergreen,11,0,For Sale,SANTA CLARA
527,451 Chateau La Salle Dr,2.0,2.0,San Jose,"1,536 sqft","Dec 31, 1969",$0,37.292812,-121.85628,CA,Single-Family Home,189900,,95111,South San Jose,31,42,For Sale,SANTA CLARA
528,6933 Silvergate Ct,3.0,3.0,San Jose,"1,841 sqft","Dec 31, 1969",$0,37.20932,-121.847595,CA,Single-Family Home,918000,,95120,Almaden Valley,32,22,For Sale,SANTA CLARA
529,1997 Mcbain Ave,2.0,3.0,San Jose,"2,040 sqft","Dec 31, 1969",$0,37.289677,-121.92232,CA,Single-Family Home,895000,,95125,Willow Glen,52,42,For Sale,SANTA CLARA
530,3346 Lake Albano Cir,2.0,2.0,San Jose,"1,679 sqft","Dec 31, 1969",$0,37.287464,-121.7588,CA,Condo,530000,,95135,Evergreen,23,0,For Sale,SANTA CLARA
531,2760 Buena Point Ct,2.0,2.0,San Jose,843 sqft,"Dec 31, 1969",$0,37.29953,-121.77619,CA,Single-Family Home,448000,,95121,Evergreen,35,31,For Sale,SANTA CLARA
532,1790 Mount Kenya Dr,3.0,5.0,San Jose,"3,164 sqft","Dec 31, 1969",$0,37.35079,-121.79843,CA,Single-Family Home,888000,,95127,Alum Rock,26,21,For Sale,SANTA CLARA
533,581 Avalani Ave,,,San Jose,"5,366 sqft","Dec 31, 1969",$0,37.364006,-121.862366,CA,Single-Family Home,1397500,,95133,Alum Rock,55,43,For Sale,SANTA CLARA
534,2596 Gumdrop Dr,2.0,4.0,San Jose,"1,514 sqft","Dec 31, 1969",$0,37.333,-121.79565,CA,Single-Family Home,599950,,95148,Evergreen,26,35,For Sale,SANTA CLARA
535,1151 Ringwood Ct #80,,,San Jose,"1,827 sqft","Dec 31, 1969",$0,37.393173,-121.89489,CA,Income/Investment,360000,,95131,Berryessa,63,37,For Sale,SANTA CLARA
536,3415 Avernus Ct,3.0,2.0,San Jose,"1,776 sqft","Dec 31, 1969",$0,37.28882,-121.75877,CA,Townhome,560000,,95135,Evergreen,32,27,For Sale,SANTA CLARA
537,718 Drake St,,,San Jose,"3,284 sqft","Dec 31, 1969",$0,37.318848,-121.9,CA,Multi-Family Home,949000,,95125,Willow Glen,65,59,For Sale,SANTA CLARA
538,3227 Pentland Ct,2.0,4.0,San Jose,"1,538 sqft","Dec 31, 1969",$0,37.313732,-121.800446,CA,Single-Family Home,649950,,95148,Evergreen,60,36,For Sale,SANTA CLARA
539,334 Santana Row #344,6.0,1.0,San Jose,"1,099 sqft","Dec 31, 1969",$0,37.321487,-121.94746,CA,Apt/Condo/Twnhm,615000,,95128,Downtown San Jose,78,47,For Sale,SANTA CLARA
540,334 Santana Row #344,2.0,1.0,San Jose,"1,099 sqft","Dec 31, 1969",$0,37.322506,-121.94747,CA,Condo,615000,,95128,Downtown San Jose,78,47,For Sale,SANTA CLARA
541,222 Herlong Ave,2.0,3.0,San Jose,"1,617 sqft","Dec 31, 1969",$0,37.24364,-121.81174,CA,Single-Family Home,590000,,95123,Edenvale,46,47,For Sale,SANTA CLARA
542,539 Arleta Ave,1.0,2.0,San Jose,"1,169 sqft","Dec 31, 1969",$0,37.318558,-121.93003,CA,Single-Family Home,549000,,95128,Downtown San Jose,80,49,For Sale,SANTA CLARA
543,1890 Sarasota Way,2.0,3.0,San Jose,"1,040 sqft","Dec 31, 1969",$0,37.327682,-121.836754,CA,Single-Family Home,434900,,95122,Alum Rock,26,48,For Sale,SANTA CLARA
544,6229 Bothell Cir,2.0,3.0,San Jose,"1,143 sqft","Dec 31, 1969",$0,37.23244,-121.8193,CA,Single-Family Home,599950,,95123,Edenvale,32,33,For Sale,SANTA CLARA
545,3915 Carracci Ln,3.0,4.0,San Jose,"2,460 sqft","Dec 31, 1969",$0,37.317245,-121.76827,CA,Single-Family Home,1249000,,95135,Evergreen,46,22,For Sale,SANTA CLARA
546,333 Santana Row #227,2.0,1.0,San Jose,"1,250 sqft","Dec 31, 1969",$0,37.321938,-121.948204,CA,Apt/Condo/Twnhm,619000,,95128,Downtown San Jose,85,45,For Sale,SANTA CLARA
547,3415 Avernus Ct,7.0,2.0,San Jose,,"Dec 31, 1969",$0,37.28882,-121.75877,CA,Apt/Condo/Twnhm,560000,,95135,Evergreen,32,27,For Sale,SANTA CLARA
548,169 Laurel Grove Ln,3.0,4.0,San Jose,"1,650 sqft","Dec 31, 1969",$0,37.32821,-121.903885,CA,Townhome,725000,,95126,Downtown San Jose,88,,For Sale,SANTA CLARA
549,5785 Chandler Ct,2.0,4.0,San Jose,"1,826 sqft","Dec 31, 1969",$0,37.246502,-121.82529,CA,Single-Family Home,640000,,95123,Edenvale,40,47,For Sale,SANTA CLARA
550,239 Whirlaway Dr,2.0,3.0,San Jose,"1,263 sqft","Dec 31, 1969",$0,37.26392,-121.807144,CA,Single-Family Home,459900,,95111,Edenvale,34,34,For Sale,SANTA CLARA
551,1809 Bradford Way,4.0,8.0,San Jose,"3,328 sqft","Dec 31, 1969",$0,37.260853,-121.91817,CA,Condo,1075000,,95124,Cambrian Park,77,31,For Sale,SANTA CLARA
552,1420 Kiner Ave,2.0,3.0,San Jose,"1,500 sqft","Dec 31, 1969",$0,37.280567,-121.892654,CA,Single-Family Home,830000,,95125,Willow Glen,52,33,For Sale,SANTA CLARA
553,3109 Barletta Ln,2.0,3.0,San Jose,"1,041 sqft","Dec 31, 1969",$0,37.3712,-121.831924,CA,Single-Family Home,519000,,95127,Alum Rock,57,47,For Sale,SANTA CLARA
554,2764 Glauser Dr,3.0,6.0,San Jose,"3,151 sqft","Dec 31, 1969",$0,37.38241,-121.850624,CA,Single-Family Home,939000,,95133,Alum Rock,40,50,For Sale,SANTA CLARA
555,881 Arnold Way,2.0,2.0,San Jose,"1,327 sqft","Dec 31, 1969",$0,37.303005,-121.93612,CA,Single-Family Home,650000,,95128,Willow Glen,,,For Sale,SANTA CLARA
556,1549 Alisal Ave,3.0,4.0,San Jose,"1,628 sqft","Dec 31, 1969",$0,37.274456,-121.899055,CA,Single-Family Home,899000,,95125,Willow Glen,49,30,For Sale,SANTA CLARA
557,35 Chatham Ct,2.0,4.0,San Jose,"1,457 sqft","Dec 31, 1969",$0,37.23089,-121.76324,CA,Single-Family Home,625000,,95139,Edenvale,43,30,For Sale,SANTA CLARA
558,1240 W Hedding St,4.0,6.0,San Jose,"3,374 sqft","Dec 31, 1969",$0,37.338768,-121.92499,CA,Single-Family Home,1799000,,95126,Downtown San Jose,68,49,For Sale,SANTA CLARA
559,1705 Castlegate Dr,2.0,4.0,San Jose,"1,480 sqft","Dec 31, 1969",$0,37.404743,-121.86284,CA,Single-Family Home,700000,,95132,Berryessa,29,36,For Sale,SANTA CLARA
560,1571 Eddington Pl,2.0,3.0,San Jose,"1,557 sqft","Dec 31, 1969",$0,37.29566,-122.02641,CA,Single-Family Home,1289000,,95129,West San Jose,54,26,For Sale,SANTA CLARA
561,786 Pearlwood Way,2.0,4.0,San Jose,"1,968 sqft","Dec 31, 1969",$0,37.245575,-121.85152,CA,Single-Family Home,729500,,95123,Edenvale,57,33,For Sale,SANTA CLARA
562,1719 Chaucer Dr,3.0,6.0,San Jose,"1,735 sqft","Dec 31, 1969",$0,37.342945,-121.84528,CA,Single-Family Home,540000,,95116,Alum Rock,45,48,For Sale,SANTA CLARA
563,311 Bella Ridge Ter,4.0,4.0,San Jose,"1,787 sqft","Dec 31, 1969",$0,37.295666,-121.86564,CA,Single-Family Home,620000,,95125,South San Jose,40,48,For Sale,SANTA CLARA
564,3202 Kimber Ct #56,1.0,1.0,San Jose,815 sqft,"Dec 31, 1969",$0,37.26516,-121.92209,CA,Condo,350000,,95124,Willow Glen,74,34,For Sale,SANTA CLARA
565,587 Avalani Ave,,,San Jose,"5,366 sqft","Dec 31, 1969",$0,37.364113,-121.862206,CA,Single-Family Home,1397500,,95133,Alum Rock,60,44,For Sale,SANTA CLARA
566,151 Page Mill Dr,2.0,3.0,San Jose,"1,243 sqft","Dec 31, 1969",$0,37.26424,-121.81204,CA,Single-Family Home,489000,,95111,Edenvale,42,36,For Sale,SANTA CLARA
567,1898 Meridian Ave #29,2.0,2.0,San Jose,"1,116 sqft","Dec 31, 1969",$0,37.28913,-121.91299,CA,Apt/Condo/Twnhm,400000,,95125,Willow Glen,45,34,For Sale,SANTA CLARA
568,520 Chateau La Salle Dr,3.0,3.0,San Jose,"1,660 sqft","Dec 31, 1969",$0,37.29405,-121.85351,CA,Single-Family Home,265000,,95111,South San Jose,,,For Sale,SANTA CLARA
569,296 Tradewinds Dr #4,1.0,2.0,San Jose,959 sqft,"Dec 31, 1969",$0,37.252876,-121.82783,CA,Apt/Condo/Twnhm,312000,,95123,Edenvale,46,47,For Sale,SANTA CLARA
570,2907 Rose Ave,2.0,2.0,San Jose,"1,092 sqft","Dec 31, 1969",$0,37.36251,-121.83153,CA,Apt/Condo/Twnhm,329000,,95127,Alum Rock,58,58,For Sale,SANTA CLARA
571,7444 Tulare Hill Dr,3.0,3.0,San Jose,"1,655 sqft","Dec 31, 1969",$0,37.227123,-121.76024,CA,Townhome,519999,,95139,Edenvale,32,29,For Sale,SANTA CLARA
572,6237 Tibouchina Ln,2.0,2.0,San Jose,"1,100 sqft","Dec 31, 1969",$0,37.23963,-121.79629,CA,Townhome,434888,,95119,Edenvale,,,For Sale,SANTA CLARA
573,2395 Winepol Loop,2.0,2.0,San Jose,"1,340 sqft","Dec 31, 1969",$0,37.29676,-121.870094,CA,Townhome,548000,,95125,South San Jose,,,For Sale,SANTA CLARA
574,2011 Bridgecastle Ct,2.0,4.0,San Jose,"1,320 sqft","Dec 31, 1969",$0,37.311718,-121.80431,CA,Apt/Condo/Twnhm,399888,,95121,Evergreen,58,38,For Sale,SANTA CLARA
575,6933 Rodling Dr,3.0,3.0,San Jose,"1,335 sqft","Dec 31, 1969",$0,37.236824,-121.76676,CA,Townhome,449800,,95138,Edenvale,45,32,For Sale,SANTA CLARA
576,6337 Holly Gillingham Ln,2.0,2.0,San Jose,859 sqft,"Dec 31, 1969",$0,37.240643,-121.79685,CA,Townhome,410000,,95119,Edenvale,49,51,For Sale,SANTA CLARA
577,1681 Parkview Green Cir,1.0,2.0,San Jose,940 sqft,"Dec 31, 1969",$0,37.379192,-121.88428,CA,Condo,448000,,95131,Berryessa,37,37,For Sale,SANTA CLARA
578,1379 Millich Ln,2.0,2.0,San Jose,"1,056 sqft","Dec 31, 1969",$0,37.299847,-121.960175,CA,Townhome,525000,,95117,West San Jose,46,37,For Sale,SANTA CLARA
579,1134 Wabesco Pl,3.0,2.0,San Jose,"1,376 sqft","Dec 31, 1969",$0,37.31188,-121.89243,CA,Townhome,650000,,95125,Willow Glen,58,53,For Sale,SANTA CLARA
580,190 Oakbrook Cir #CL,6.0,2.0,San Jose,"1,008 sqft","Dec 31, 1969",$0,37.2234,-121.77519,CA,Apt/Condo/Twnhm,368000,,95139,Edenvale,60,31,For Sale,SANTA CLARA
581,190 Oakbrook Cir,2.0,2.0,San Jose,"1,008 sqft","Dec 31, 1969",$0,37.2234,-121.77519,CA,Townhome,368000,,95139,Edenvale,60,31,For Sale,SANTA CLARA
582,2760 Buena Point Ct,2.0,2.0,San Jose,843 sqft,"Dec 31, 1969",$0,37.29953,-121.77619,CA,Apt/Condo/Twnhm,448000,,95121,Evergreen,35,31,For Sale,SANTA CLARA
583,3824 Panda Ln,2.0,2.0,San Jose,"1,267 sqft","Dec 31, 1969",$0,37.310097,-121.9705,CA,Apt/Condo/Twnhm,499950,,95117,West San Jose,68,39,For Sale,SANTA CLARA
584,3527 Ivalynn Cir,2.0,2.0,San Jose,934 sqft,"Dec 31, 1969",$0,37.401604,-121.84692,CA,Apt/Condo/Twnhm,449000,,95132,Berryessa,43,37,For Sale,SANTA CLARA
585,3220 Yucca Ave #3,3.0,3.0,San Jose,"1,483 sqft","Dec 31, 1969",$0,37.268215,-121.90678,CA,Townhome,652525,,95124,Willow Glen,51,29,For Sale,SANTA CLARA
586,50 N 9th St,,,San Jose,"1,100 sqft","Dec 31, 1969",$0,37.341084,-121.88229,CA,Multi-Family Home,459950,,95112,Downtown San Jose,86,,For Sale,SANTA CLARA
587,7150 Rainbow Dr #37,7.0,3.0,San Jose,"1,352 sqft","Dec 31, 1969",$0,37.29973,-122.02976,CA,Apt/Condo/Twnhm,749950,,95129,West San Jose,66,24,For Sale,SANTA CLARA
588,1080 S Blaney Ave,2.0,4.0,San Jose,"1,246 sqft","Dec 31, 1969",$0,37.306465,-122.02371,CA,Single-Family Home,1199000,,95129,West San Jose,62,39,For Sale,SANTA CLARA
589,3220 Yucca Ave #6,3.0,3.0,San Jose,"1,483 sqft","Dec 31, 1969",$0,37.268215,-121.90678,CA,Townhome,665504,,95124,Willow Glen,51,29,For Sale,SANTA CLARA
590,1134 Wabesco Pl,2.5,2.0,San Jose,"1,376 sqft","Dec 31, 1969",$0,37.31188,-121.89243,CA,Unspecified,650000,,95125,Willow Glen,58,53,For Sale,SANTA CLARA
591,293 N Cragmont Ave,1.0,3.0,San Jose,"1,256 sqft","Dec 31, 1969",$0,37.37704,-121.83149,CA,Single-Family Home,448800,,95127,Alum Rock,,,For Sale,SANTA CLARA
592,3220 Yucca Ave #5,3.0,3.0,San Jose,"1,483 sqft","Dec 31, 1969",$0,37.268215,-121.90678,CA,Townhome,670521,,95124,Willow Glen,51,29,For Sale,SANTA CLARA
593,85 N Willard Ave,,,San Jose,"2,781 sqft","Dec 31, 1969",$0,37.32472,-121.91758,CA,Income/Investment,885000,,95126,Downtown San Jose,71,51,For Sale,SANTA CLARA
594,6563 Crown Blvd,,,San Jose,"3,124 sqft","Dec 31, 1969",$0,37.2171,-121.864044,CA,Multi-Family Home,1399000,,95120,Almaden Valley,57,27,For Sale,SANTA CLARA
595,196 Wyandotte Dr,2.0,3.0,San Jose,"1,617 sqft","Dec 31, 1969",$0,37.24435,-121.80962,CA,Single-Family Home,630000,,95123,Edenvale,,,For Sale,SANTA CLARA
596,1838 Sumatra Ave,3.0,3.0,San Jose,"1,040 sqft","Dec 31, 1969",$0,37.329746,-121.83555,CA,Single-Family Home,459000,,95122,Alum Rock,32,49,For Sale,SANTA CLARA
597,83 N Willard Ave,3.0,6.0,San Jose,"2,781 sqft","Dec 31, 1969",$0,37.324814,-121.91775,CA,Single-Family Home,885000,,95126,Downtown San Jose,68,50,For Sale,SANTA CLARA
598,1065 Mckay Dr,3.0,4.0,San Jose,"1,825 sqft","Dec 31, 1969",$0,37.387444,-121.89579,CA,Single-Family Home,789999,,95131,Berryessa,66,,For Sale,SANTA CLARA
599,556 Mill Pond Dr,2.0,3.0,San Jose,"1,488 sqft","Dec 31, 1969",$0,37.29238,-121.87016,CA,Mobile/Manufactured,109900,,95125,South San Jose,48,45,For Sale,SANTA CLARA
600,131 Sierra Mesa Dr,4.0,4.0,San Jose,"1,459 sqft","Dec 31, 1969",$0,37.35794,-121.83648,CA,Single-Family Home,403700,,95116,Alum Rock,57,58,For Sale,SANTA CLARA
601,3119 Castle Canyon Way,3.0,5.0,San Jose,"2,455 sqft","Dec 31, 1969",$0,37.271313,-121.738075,CA,Single-Family Home,1298888,,95135,Evergreen,0,0,For Sale,SANTA CLARA
602,356 Santana Row #311,8.0,3.0,San Jose,"2,288 sqft","Dec 31, 1969",$0,37.320892,-121.947624,CA,Apt/Condo/Twnhm,2088000,,95128,Downtown San Jose,78,47,For Sale,SANTA CLARA
603,46 N King Rd,1.0,2.0,San Jose,900 sqft,"Dec 31, 1969",$0,37.353798,-121.85621,CA,Single-Family Home,385000,,95116,Alum Rock,66,53,For Sale,SANTA CLARA
604,7466 Tulare Hill Ln,3.0,3.0,San Jose,"1,655 sqft","Dec 31, 1969",$0,37.22725,-121.7594,CA,Apt/Condo/Twnhm,509500,,95139,Edenvale,32,29,For Sale,SANTA CLARA
605,6974 Avenida Rotella,2.0,3.0,San Jose,"1,308 sqft","Dec 31, 1969",$0,37.234234,-121.7692,CA,Single-Family Home,629500,,95139,Edenvale,58,33,For Sale,SANTA CLARA
606,1240 Copper Peak Ln,3.0,3.0,San Jose,"1,585 sqft","Dec 31, 1969",$0,37.19516,-121.84288,CA,Apt/Condo/Twnhm,849000,,95120,Almaden Valley,23,0,For Sale,SANTA CLARA
607,90 Kenbrook Cir,1.0,1.0,San Jose,724 sqft,"Dec 31, 1969",$0,37.28872,-121.84211,CA,Townhome,220000,,95111,South San Jose,57,49,For Sale,SANTA CLARA
608,4881 Clydelle Ave,2.0,5.0,San Jose,"1,868 sqft","Dec 31, 1969",$0,37.24877,-121.940834,CA,Single-Family Home,998000,,95124,Cambrian Park,34,36,For Sale,SANTA CLARA
609,4782 Jarvis Ave,2.0,3.0,San Jose,"1,475 sqft","Dec 31, 1969",$0,37.257256,-121.88969,CA,Single-Family Home,749000,,95118,Cambrian Park,52,29,For Sale,SANTA CLARA
610,3407 Prince Albert Ct,2.0,3.0,San Jose,"1,176 sqft","Dec 31, 1969",$0,37.41335,-121.85419,CA,Townhome,459000,,95132,Berryessa,31,30,For Sale,SANTA CLARA
611,17 Kirk Ave,2.0,3.0,San Jose,"1,623 sqft","Dec 31, 1969",$0,37.375916,-121.82223,CA,Single-Family Home,575000,,95127,Alum Rock,37,34,For Sale,SANTA CLARA
612,1201 Sandra Dr,2.0,3.0,San Jose,"1,543 sqft","Dec 31, 1969",$0,37.28974,-121.891556,CA,Single-Family Home,859000,,95125,Willow Glen,65,38,For Sale,SANTA CLARA
613,2973 Saint Florian Way,4.0,4.0,San Jose,"2,416 sqft","Dec 31, 1969",$0,37.285378,-121.8589,CA,Apt/Condo/Twnhm,699000,,95136,South San Jose,32,36,For Sale,SANTA CLARA
614,1450 Padres Dr,2.0,3.0,San Jose,"1,583 sqft","Dec 31, 1969",$0,37.30778,-121.888954,CA,Single-Family Home,700000,,95125,Willow Glen,57,54,For Sale,SANTA CLARA
615,1015 S 7th St,2.0,4.0,San Jose,"1,888 sqft","Dec 31, 1969",$0,37.323708,-121.873085,CA,Single-Family Home,599000,,95112,Downtown San Jose,78,,For Sale,SANTA CLARA
616,6834 Leyland Park Dr,4.0,4.0,San Jose,"3,200 sqft","Dec 31, 1969",$0,37.20758,-121.87058,CA,Single-Family Home,1748000,,95120,Almaden Valley,20,0,For Sale,SANTA CLARA
617,1242 Oregold Pl,2.0,2.0,San Jose,"1,157 sqft","Dec 31, 1969",$0,37.386093,-121.89376,CA,Apt/Condo/Twnhm,599950,,95131,Berryessa,72,,For Sale,SANTA CLARA
